Real_time_s,Simulation_time_s,x_ft,y_ft,alt_ft,vx_fps,vy_fps,vz_fps,roll_rad,pitch_rad,yaw_rad,adsb_x_ft,adsb_y_ft,adsb_alt_ft
0.0,0.0,-5997.367883344341,10499.79670643718,299.9847147697107,79.76111029865511,-6.160410887367202,-0.463188793833985,-1.7376766950947766e-13,0.005789892306998015,-0.07696641308143337,6308.555971814463,9554.064398023207,199.6515938042509
0.20407925799997884,0.19100000000003092,-5982.293152086104,10498.63242010532,299.89063424460346,79.76053083019214,-6.160559117922433,-0.5518155710367598,0.00024064937495675874,0.0068977497308826035,-0.07696881870925076,6308.555971814463,9554.064398023207,199.6515938042509
0.37266352099999267,0.3450000000000273,-5967.218547087823,10497.467995413828,299.77954890437206,79.75975550314226,-6.162069109601083,-0.6394941644927828,0.0004186931939445524,0.007993763035536946,-0.07698838424509535,6308.555971814463,9554.064398023207,199.6515938042509
0.6088213319999909,0.5760000000000218,-5951.745302173124,10496.272377901441,299.64870532929297,79.75882482021127,-6.164668139790023,-0.724425189781881,0.0005410728561733037,0.009055440002439245,-0.07702167270025506,6308.555971814463,9554.064398023207,199.6515938042509
0.8162034960000142,0.771000000000015,-5935.9532108857575,10495.051521521651,299.49862879919954,79.75778069655293,-6.168041673597357,-0.8057260119176105,0.0006108865265544267,0.010071747384104742,-0.07706472409881937,6308.555971814463,9554.064398023207,199.6515938042509
1.0244291729999873,0.9680000000000177,-5920.001813420106,10493.817614213694,299.3311601526812,79.75667306331584,-6.171849071434939,-0.8822613049179366,0.0006339729559398388,0.01102849245293374,-0.07711324511157414,-5989.476947261501,10502.723398410824,267.0212905994612
1.2273591269999997,1.1589999999999918,-5904.927944085156,10492.650854462478,299.15919894459506,79.75561334971769,-6.17555389860719,-0.9493177728284549,0.000620217710371796,0.01186675388669738,-0.07716044252906906,-5981.501398809971,10502.105720630903,267.0677664789807
1.4304362920000244,1.3460000000000036,-5890.01377867671,10491.49575455793,298.97695571538935,79.754580447055,-6.1791196754473985,-1.010678710951668,0.0005803318860640601,0.012633823827624617,-0.07720588194707445,-5972.098098035673,10501.280636174932,267.2098889867938
1.6338769330000105,1.5459999999999923,-5877.332897025699,10490.51309663901,298.8132397786783,79.75373067505193,-6.181964810639654,-1.0590147748972931,0.0005310826081339958,0.013238075724569044,-0.07724216347576629,-5964.448108061139,10500.68363919767,267.2371986026095
1.804070362999994,1.7030000000000314,-5861.541790420278,10489.288802210254,298.5990225739393,79.75272907490348,-6.1851551132678875,-1.1142033683881833,0.0004559480418840226,0.013927997432011773,-0.07728289444209202,-5956.798283012016,10500.086138473656,267.2553650503977
2.015447822999988,1.90300000000002,-5848.063671303113,10488.243349196082,298.4078560350467,79.75193479569067,-6.1875106036245375,-1.1570294181428276,0.0003841884100832989,0.014463377512530252,-0.07731302073693547,-5946.603661927573,10499.198995223021,267.36171500091393
2.1843923939999854,2.0710000000000264,-5832.033646113879,10486.999458710263,298.1714561263725,79.75107666679561,-6.189814880878806,-1.2028171878973417,0.00029461033831021085,0.01503578747772235,-0.07734257096528596,-5938.250699093345,10498.53841896441,267.3737514254513
2.396321107999995,2.2719999999999914,-5816.32278119588,10485.779915758809,297.9312499748739,79.75033642854002,-6.191525261463596,-1.242335216656335,0.00020670775240808596,0.015529821056898848,-0.07736460530561029,-5923.783258531636,10497.357010618087,267.0089323097655
2.605038394000019,2.468999999999994,-5800.372800115388,10484.541501276748,297.67986035532266,79.7496923528646,-6.192714411159136,-1.2771731137347937,0.00012105501338558076,0.01596534924660144,-0.07738005026241979,-5915.642865397735,10496.709285999332,266.9723464140934
2.773910032999993,2.6340000000000146,-5787.533150026475,10483.544431655419,297.4726826747681,79.74925608876039,-6.193281824818731,-1.3013693677961882,5.668094284400708e-05,0.016267842051728505,-0.07738754486825017,-5907.050312947678,10496.025512376771,266.9286118377235
2.977630796000028,2.8310000000000173,-5771.822606306766,10482.324323303748,297.2142216356562,79.74882063093828,-6.193545024663385,-1.3264954670254057,-1.4946292308152793e-05,0.01658196102280307,-0.0773912470074416,-5887.060560164872,10494.07047359757,267.35436098078446
3.1809154279999916,3.0260000000000105,-5756.670374469347,10481.1475529758,296.9606070061273,79.74850269317876,-6.193389661996337,-1.3461395127148628,-7.547518030373762e-05,0.016827546149592112,-0.0773896183636984,-5877.360656599619,10493.262990917823,267.3501854650045
3.3837899349999816,3.2180000000000177,-5741.4384430841565,10479.964647743453,296.70224476600976,79.74828204769355,-6.192877703957711,-1.361441419963829,-0.00012717977539912856,0.01701884761169157,-0.07738345082253728,-5849.688670989327,10490.747683519088,266.80870146851527
3.5871582809999722,3.4080000000000155,-5725.409061365167,10478.719942506315,296.4275801970528,79.74815085208239,-6.192019379737833,-1.3729551428662914,-0.00017162897428435488,0.01716279033753425,-0.07737287944421767,-5838.259867854204,10489.776295594304,266.7494468997095
3.7911313430000178,3.6070000000000277,-5712.330373251191,10477.704504841042,296.2019926456286,79.74811659723896,-6.191119612215689,-1.3789757144057182,-0.0002004879308478676,0.017238058703145362,-0.07736169763288347,-5828.140606867971,10488.916401298702,266.696446009991
3.9601092199999925,3.774000000000001,-5696.619995654564,10476.484951171511,295.92999780361185,79.74815662365273,-6.189852420168604,-1.3823388887929855,-0.0002268601294087783,0.017280104690567392,-0.07734586421435052,-5795.302383345097,10485.304307021179,268.56112375694875
4.168554960999984,3.9700000000000273,-5680.4311102032525,10475.228528481783,295.64937551352244,79.74828308085146,-6.18838987188878,-1.3815949615685885,-0.0002453104532789156,0.017270804194965742,-0.07732751216761935,-5781.50663382898,10484.05997515333,268.66952723525543
4.377921673000003,4.170000000000016,-5664.640930975466,10474.003348191643,295.3761377517534,79.74848328565297,-6.186860751862431,-1.376892175676136,-0.00025571351349586207,0.017212010554889225,-0.07730825902856608,-5767.02103946141,10482.753757953973,268.78498415098636
4.623045357000024,4.402000000000044,-5643.507532000882,10472.364070150174,295.0124965726438,79.74885574865414,-6.184735773627972,-1.3648448995382019,-0.0002597914975859499,0.01706139729798333,-0.0772814123945802,-5722.218079076227,10479.207417158885,268.20700297616395
4.859827521999989,4.635000000000048,-5628.195714894982,10471.17672102186,294.75138140451253,79.74919159874797,-6.183186641333014,-1.3522152021058784,-0.00025698856844430425,0.01690350311295599,-0.07726177882469676,-5707.199746963684,10477.889206285165,268.2659556229487
5.063971551000009,4.829000000000008,-5610.092588945889,10469.773309171238,294.4461443278798,79.74964883475774,-6.181387027913151,-1.333395383947098,-0.00024897963162152253,0.01666822195095107,-0.07723890599685235,-5667.192092639394,10474.83412819227,267.6001502653781
5.302317012000003,5.055000000000007,-5592.627351566758,10468.419739361594,294.1560746680802,79.7501428628752,-6.1797147435707185,-1.311479540677797,-0.00023766535596348885,0.016394236136799512,-0.07721758487601216,-5646.126731341734,10473.025660006797,267.62089406292955
5.539554964999979,5.274000000000001,-5576.996265641834,10467.208629348157,293.9007720361365,79.7506205473151,-6.17828868725289,-1.2890183722402593,-0.00022557363672705407,0.016113434112140213,-0.07719934877849144,-5609.715164528015,10470.443728310833,266.87038620871806
5.745977491000019,5.470000000000027,-5563.677865308851,10466.176930148615,293.6868516467058,79.7510492009148,-6.1771344741663325,-1.2679127103872239,-0.00021437346785968463,0.01584957934714629,-0.07718454849688228,-5593.6896110013395,10469.100540908155,266.8482429089037
5.921709138999972,5.6370000000000005,-5544.776774140355,10464.713103469634,293.38956419345425,79.75168432506631,-6.175600425259698,-1.2350988890154408,-0.00019786388732770686,0.015439355932554077,-0.07716481470542869,-5572.007856339636,10467.283556070064,266.82479704121
6.163132069000028,5.867999999999995,-5529.145374224947,10463.502779521761,293.14980223847635,79.75222738381812,-6.174427468587399,-1.2056285808989715,-0.00018424450596445975,0.015070933815432178,-0.07714967070031409,-5540.221276330482,10464.778463495732,264.0594263876027
6.3665573270000095,6.0680000000000405,-5513.912629481688,10462.323546126661,292.921865731383,79.75276664726594,-6.173366628675449,-1.1750922846230427,-0.00017143063321039216,0.01468918744506018,-0.07713592795660817,-5520.488232325197,10463.135442392895,263.87596625025157
6.570394438999983,6.2620000000000005,-5498.6797798616235,10461.144509107547,292.6998863419802,79.75331115414225,-6.172382971388425,-1.1429622166619022,-0.00015935041689126088,0.014287519026274115,-0.07712314231475403,-5494.299901492157,10461.225444927122,262.78329122442693
6.773386502999983,6.453000000000031,-5482.489777455777,10459.891594969638,292.47079006260736,79.75389081876783,-6.171415786495691,-1.1072847140441635,-0.00014751982020899416,0.013841505706090688,-0.07711052822271203,-5475.111265766702,10459.64460625326,262.56572292331583
6.977289079000002,6.645000000000039,-5470.048118026741,10458.928894868191,292.2997534722927,79.75433465344368,-6.170724629695877,-1.078897660539567,-0.00013925282574866305,0.013486634067507346,-0.07710148565747765,-5457.942402216917,10458.230294980673,262.3765860375982
7.1463989179999885,6.812000000000012,-5454.735211059465,10457.74417674375,292.09538463713653,79.7548755391018,-6.1699286736273615,-1.042986112325083,-0.00013010051304424323,0.013037699824281592,-0.07709104339907635,-5436.302623187154,10457.441559728948,260.1331169138354
7.3504173680000235,7.004000000000019,-5441.256576914045,10456.701500699957,291.92123704348586,79.75534432740153,-6.169272324608596,-1.0106228343556327,-0.00012297876380063422,0.01263312518157228,-0.07708241080398381,-5417.941962057704,10455.98472997255,259.83100134238936
7.53077736900002,7.170999999999992,-5425.46494017278,10455.48004151196,291.7242384791404,79.75588248356453,-6.168550524671487,-0.9719497557640421,-0.00011575181018826363,0.012149674185439325,-0.07707289566763831,-5396.5210844116045,10454.285232934684,259.48643334944524
7.742304862000026,7.369000000000028,-5409.593440953682,10454.252553518432,291.53401165371827,79.75640859639674,-6.167868562696562,-0.932441043396228,-0.00010963022491090201,0.011655779910236726,-0.07706388878022685,-5379.281869163644,10453.121676731478,255.4928298599283
7.9111073340000075,7.536000000000001,-5396.1145485839,10453.210218169857,291.3786536337688,79.7568419588823,-6.1673180273699355,-0.8985189158689086,-0.00010525665049447862,0.011231725240642629,-0.07705660943551229,-5359.918318233624,10451.597272200588,254.9830697806009
8.123067719999995,7.7379999999999995,-5380.4023752982675,10451.995303687072,291.204833743696,79.75732987414882,-6.166704064160289,-0.8586923189774839,-0.00010103292759123314,0.010733862401989525,-0.07704848705589606,-5345.924825444566,10450.410726196866,257.97220143948323
8.332201848000011,7.934000000000026,-5361.818820180889,10450.55852729919,291.00938803109585,79.75788072788761,-6.166008522979099,-0.8114064119274091,-9.708292326396733e-05,0.010142755972882696,-0.07703928737749521,-5324.884651304804,10448.749071852873,257.6527114402318
8.569593729000019,8.157000000000039,-5346.824271630626,10449.39935674658,290.85975088345975,79.75830316334904,-6.165466363164016,-0.7732750077789486,-9.459819931862084e-05,0.009666089740113452,-0.07703212318983543,-5306.850143646967,10447.324891837663,257.3856497018048
8.738042517999986,8.323000000000036,-5334.142651250086,10448.41907310565,290.7387745625619,79.758644298142,-6.165017910523546,-0.741143775351823,-9.289992237319337e-05,0.009264431108019307,-0.07702620529924542,-5292.959724164473,10446.383682230498,259.3060995169992
8.942118760000028,8.515000000000043,-5318.828925863837,10447.235428678532,290.59948234886883,79.75903600728007,-6.16448584175644,-0.7025952671122039,-9.123708268504454e-05,0.008782554874686923,-0.07701919660186674,-5276.251003955007,10445.072323862365,259.1793751512294
9.144786678999992,8.706999999999994,-5305.349596755471,10446.193658697786,290.48295591898074,79.75936204126042,-6.164024304270299,-0.6689879665083583,-9.00599646096269e-05,0.008362447977871832,-0.07701313027512269,-5258.559361300025,10443.683911013131,259.0513226917179
9.317551294999987,8.867999999999995,-5289.955977761505,10445.004040378082,290.356820878946,79.75971288664286,-6.163503095867045,-0.631084738894365,-8.895565008973856e-05,0.00788864177122629,-0.077006296403628,-5247.868528029635,10443.382187492703,256.60691134070214
9.487592339999992,9.036000000000001,-5273.844451910753,10443.759054632921,290.23256346852605,79.76005546654115,-6.162962626441148,-0.5920654787715558,-8.798744830412792e-05,0.007400886567658525,-0.07699923049152768,-5227.678296371496,10441.831503034742,256.32721751916006
9.735374476999993,9.271000000000015,-5258.131662065302,10442.544990435621,290.1189281173808,79.76036553907412,-6.1624395551327416,-0.5547793279067975,-8.715410032168141e-05,0.006934797533649509,-0.07699241277053503,-5217.628394762781,10441.319980958378,257.32043894946446
9.910652551999988,9.434000000000026,-5244.891397691823,10441.522051660113,290.0288269941334,79.76060870655871,-6.162001382038025,-0.5240205116649026,-8.649033298236024e-05,0.0065503034627325115,-0.07698671761223541,-5200.736178721328,10440.037243205443,257.1616222782354
10.113760593999984,9.634000000000015,-5229.736830729947,10440.351307537629,289.9319267182296,79.76086720636698,-6.161502624268676,-0.4896434237122956,-8.573256760238721e-05,0.0061205811050060125,-0.0769802526492489,-5182.905463646941,10438.683331462968,257.00001803602953
10.317896722,9.824000000000012,-5214.502455902198,10439.174496888112,289.84102171554895,79.76110635522666,-6.161004237576513,-0.4560468342906034,-8.493946277819929e-05,0.005700616286752265,-0.07697381097560418,-5171.572373734956,10437.903428591446,257.98716800498175
10.520124501999987,10.01400000000001,-5201.182312647223,10438.145635385861,289.7667247383094,79.76129907587344,-6.160571093376066,-0.42750849811982866,-8.420030013262413e-05,0.0053438815647124235,-0.07696822714738194,-5155.045691957289,10436.653120108402,257.9081025822846
10.690201969999976,10.173000000000002,-5185.868098372689,10436.962842162045,289.6871344202415,79.76150257531434,-6.160076611433962,-0.39574621789833625,-8.328045745156114e-05,0.004946847724987132,-0.07696186851178477,-5136.682675514472,10435.263987617182,257.8264574341999
10.896660392000001,10.367999999999995,-5170.3145621085705,10435.761664677399,289.6124461638993,79.76169045669882,-6.159578691540467,-0.36467989780564036,-8.226017599714816e-05,0.004558514273207535,-0.07695548208686476,-5127.842353868321,10435.301460117591,258.1233535248835
11.098610097999995,10.569000000000017,-5155.159801638745,10434.591379880269,289.5454152813248,79.76185634764833,-6.159098351625268,-0.33563329769412814,-8.117724533888228e-05,0.004195428243650876,-0.07694933594810571,-5109.896461069705,10433.986457719375,258.0750633132686
11.302005205,10.760000000000048,-5142.397875370355,10433.605947392321,289.4931790520507,79.7619837406885,-6.158697907138909,-0.31212777648397166,-8.019991739394535e-05,0.0039016067896177095,-0.07694422261211642,-5101.1066147078345,10432.975782180702,256.8777898082272
11.471387513000025,10.920000000000016,-5126.365679002093,10432.368088031399,289.43277464643904,79.76212877648517,-6.158200783853596,-0.28389775802719425,-7.888997234898922e-05,0.0035487290850750803,-0.07693788740523377,-5083.390021982559,10431.654584057744,256.76610284803735
11.70866226999999,11.143000000000029,-5108.5786838591775,10430.994858198414,289.37226224693813,79.76227181225849,-6.157657742412394,-0.2543133475459143,-7.734096602868909e-05,0.0031789218435954803,-0.07693098186258274,-5065.8488195427535,10430.34656036265,256.66044149180266
11.913676468000006,11.335000000000036,-5093.344059755256,10429.818779582722,289.32555919065516,79.76238066800887,-6.15720032365777,-0.2304563908512959,-7.594638203256877e-05,0.0028807085107466217,-0.07692517633353257,-5054.174341793276,10430.696096893096,256.2110972717953
12.116708818999996,11.533999999999992,-5080.103481219369,10428.79670837819,289.2885829401229,79.76246599016224,-6.156808822399691,-0.2108353247158276,-7.469325296236656e-05,0.0026354442540932207,-0.07692021498199675,-5038.670572857659,10429.607093518947,256.10472718516604
12.286202215999992,11.689999999999998,-5064.948586642821,10427.626947392568,289.2501731102795,79.76255401160725,-6.156368160179797,-0.18969575912927159,-7.322228101258606e-05,0.0023711988636562938,-0.07691463834932222,-5023.166791707439,10428.518162029188,256.0016635825864
12.489344721999998,11.878000000000043,-5049.873440052823,10426.463425607615,289.2158441016778,79.7626323691378,-6.155937909380274,-0.17006063502891341,-7.173216343275767e-05,0.0021257592042816754,-0.07690920077663166,-5012.63626091291,10426.453732675085,256.8516445687515
12.692728353999996,12.078000000000031,-5037.191163816021,10425.484652446741,289.18976750338845,79.76269191230836,-6.155582350317757,-0.15461950320921056,-7.046586475312955e-05,0.001932744672942474,-0.07690471218607331,-4996.614070524448,10425.25291025462,256.8041379138195
12.863598835999994,12.238,-5021.398129155844,10424.26588117323,289.16061724245003,79.76275882805955,-6.155147818914375,-0.13675442387410833,-6.888307701116994e-05,0.001709430831503663,-0.07689923227913065,-4985.619388862074,10425.5684615712,257.6683209141959
13.07518595099998,12.437000000000012,-5007.997969640453,10423.231839153026,289.13856937777945,79.76281001575504,-6.15478642187785,-0.12278758605297055,-6.754232517096762e-05,0.001534845148374648,-0.07689467897301139,-4971.515250396064,10424.572131036859,257.67892855323805
13.244198929999982,12.605000000000018,-4992.045389314352,10422.000915392922,289.1152746587734,79.76286511357233,-6.154365021587768,-0.10758776106608106,-6.595768395242376e-05,0.0013448471628666572,-0.07688937409094665,-4955.751794451049,10423.458652115276,257.6930396679197
13.421548077000011,12.770000000000039,-4978.80474063457,10420.979312265441,289.0981670545273,79.7629066301643,-6.15402255696486,-0.09614291695592828,-6.465798595477396e-05,0.001201786515462704,-0.07688506604363998,-4943.946347788717,10421.699353576672,256.70438406384045
13.633065922000014,12.971000000000004,-4962.772381306072,10419.74238635655,289.0798873358201,79.76295251141006,-6.153616616031733,-0.08367980341213092,-6.31096388104044e-05,0.0010459975214858906,-0.07687996269792263,-4926.737389450997,10420.423859104374,256.6594822611648
13.847180032999972,13.170000000000016,-4944.347123295312,10418.320944567804,289.0618034890361,79.76300020501665,-6.153161841694559,-0.07122934979011195,-6.137188586636086e-05,0.0008903668038753989,-0.07687424900211903,-4910.347898948204,10419.20917924961,256.61863389937145
14.057812033999994,13.367999999999995,-4931.026693140657,10417.293387010306,289.05042657268353,79.7630318659282,-6.152840726539861,-0.06344756262718412,-6.014701974537374e-05,0.0007930944470128115,-0.07687021651279746,-4900.05967704805,10417.888348841012,257.98532831833637
14.261254470999972,13.569000000000017,-4915.791944472771,10416.11822196537,289.0389223723153,79.76306564858538,-6.152481258202797,-0.05578715238771414,-5.878137292880067e-05,0.0006973393099370895,-0.07686570398952086,-4883.899830371188,10416.657146861085,258.03189234953754
14.464723011999979,13.761000000000024,-4900.397664440728,10414.930820669573,289.02868126353223,79.7630975574441,-6.152126169131034,-0.04934115559203584,-5.744098496827468e-05,0.0006167643479815945,-0.07686124784683734,-4870.336855103503,10416.18329308545,257.4751572099664
14.667769243999999,13.953000000000031,-4884.445037527507,10413.70042457784,289.0192703329668,79.76312863924088,-6.15176657142581,-0.04399092021562691,-5.60943311012862e-05,0.0005498864076502997,-0.07685673630857326,-4855.94740710184,10415.118421388028,257.4849930091534
14.870840585999986,14.14100000000002,-4869.369800603487,10412.537766080566,289.01126626895876,79.76315642598131,-6.151434542206232,-0.04016937988076291,-5.4861974552203546e-05,0.0005021171564929156,-0.07685257152356395,-4840.758541507975,10413.994448365911,257.4958989833558
15.078318480000007,14.335000000000036,-4853.815980419335,10411.338262904459,289.0036704494328,79.76318371805677,-6.151099482374508,-0.03741173067334555,-5.363031698593876e-05,0.0004676465444622068,-0.07684836944371365,-4826.34740275388,10412.772690391575,258.4532273622181
15.281807157999992,14.537000000000035,-4840.575289178319,10410.317198454179,288.9975634692538,79.76320597352023,-6.150820104152756,-0.035982309174348595,-5.2612579365225876e-05,0.00044977877759480394,-0.07684486616435793,-4812.053102739757,10411.706521456977,258.5158275831615
15.451292469999999,14.694000000000017,-4825.260751122761,10409.136265793328,288.9907194620391,79.76323067787673,-6.150503603308847,-0.03536067179728912,-5.146973047635914e-05,0.0004420083112626836,-0.07684089787231474,-4796.96467121925,10410.581181833055,258.5818557213596
15.65548316799999,14.886000000000024,-4809.946209353141,10407.955393436345,288.9839124341834,79.76325434076654,-6.150193925697056,-0.035787289885945386,-5.0361825542641694e-05,0.00044734103682567643,-0.07683701561910428,-4783.375085070509,10409.439724153688,259.664046790486
15.858883648000017,15.087000000000046,-4794.711427288364,10406.780730022358,288.9769826549543,79.76327686832026,-6.149892430087321,-0.03720501562060206,-4.929198291381363e-05,0.0004650626067324256,-0.07683323642920503,-4766.802425465533,10408.195781896686,259.80003976769206
16.063314074999994,15.27800000000002,-4776.605163604116,10405.384738226147,288.9682847864218,79.76330231992588,-6.1495423355768795,-0.04010726843241453,-4.806073083203631e-05,0.0005013407637412788,-0.07682884874087792,-4750.56912821453,10406.817136833204,259.5415398717617
16.335551071999987,15.539000000000044,-4755.308363121967,10403.74285718106,288.95703878101875,79.76333033106376,-6.149141555898143,-0.0451009768308041,-4.666257467013979e-05,0.0005637621150982915,-0.07682382690293887,-4730.99764953734,10405.336083933318,259.6701911890628
16.582284560000005,15.773000000000025,-4742.227179399643,10402.73441365444,288.949404083736,79.76334641366002,-6.14890114752701,-0.048966599951194026,-4.582897045621312e-05,0.0006120824030386532,-0.07682081523645135,-4717.214361414717,10403.35736809575,258.86624586485794
16.757583421999982,15.936000000000035,-4723.323270034102,10401.277158681896,288.9371660658747,79.76336803944265,-6.148561147649552,-0.055536328573760736,-4.465513898874004e-05,0.0006942040127290248,-0.07681655703272616,-4701.586068746229,10402.116647028244,258.91112955392094
16.96953761499998,16.137,-4710.162318121976,10400.262661409368,288.92767453511897,79.76338185753197,-6.148329549147189,-0.060758671968620975,-4.385826665530253e-05,0.0007594833104469692,-0.07681365733888268,-4685.95777367579,10400.875979492517,258.9546789618661
17.18188160599999,16.335000000000036,-4694.209646783484,10399.033018561735,288.9149652432096,79.7633971505833,-6.148054264868336,-0.06774298421354664,-4.291324825590886e-05,0.0008467872262165586,-0.07681021177050562,-4671.524948198642,10399.867231536675,259.249910969952
17.385650194999982,16.539000000000044,-4678.256973119752,10397.803430337659,288.90080474696924,79.76341073329235,-6.147784799242476,-0.0753877750485559,-4.198975286133049e-05,0.000942347133728634,-0.07680684036267005,-4655.101789649385,10398.572295406433,259.3088511907375
17.597804001999975,16.738,-4662.543587577576,10396.592338279634,288.8853114776609,79.76342232066185,-6.147524944936463,-0.08350777285929539,-4.1100020387270054e-05,0.0010438471401670246,-0.07680359065715514,-4639.45387470111,10398.145940313554,257.74073974400267
17.807205243999988,16.936000000000035,-4646.351620034941,10395.344413171457,288.86763098821456,79.76343231974617,-6.147262773124451,-0.09242263351324319,-4.020273204783052e-05,0.0011552829487309524,-0.0768003135933355,-4623.773203720543,10396.960157356087,257.6920422300967
18.019233558999986,17.137,-4627.686985773776,10393.905983704544,288.84494425541885,79.76344124935325,-6.146967489732555,-0.1033144116290445,-3.919188768478364e-05,0.0012914302578414395,-0.07679662488448513,-4604.17236384969,10395.477996201153,257.62855092400395
18.260691635,17.369000000000028,-4614.60578830804,10392.897894587475,288.82749599209035,79.76344578159127,-6.146764881164935,-0.11129518622855378,-3.84979066129728e-05,0.0013911900170584415,-0.0767940954095252,-4590.348184903544,10393.274409590984,258.3088355007107
18.430028522999976,17.537000000000035,-4595.781625402317,10391.447287446434,288.8000575408114,79.76344977576996,-6.146479370847211,-0.12320475852608273,-3.751928883357406e-05,0.0015400598126413354,-0.0767905332408434,-4573.076975127479,10391.891694934251,258.29658399921294
18.677441810999994,17.773000000000025,-4580.068234959141,10390.236450526303,288.7749674105647,79.76345075203754,-6.146246465831953,-0.13347678920195935,-3.672008138973817e-05,0.001668460347462685,-0.07678762959239549,-4556.262876740443,10391.170194386104,256.00418855518086
18.887881366999977,17.968000000000018,-4561.483362284744,10388.804402537196,288.74265268308307,79.7634491505462,-6.145977168470082,-0.14593611901848505,-3.579521384589606e-05,0.0018242021926175315,-0.07678427485760042,-4535.711179329928,10389.575298802436,255.79987686071965
19.160144473000003,18.226,-4538.990084186531,10387.071277385938,288.69960717514834,79.76344318120421,-6.145660079408091,-0.16135759681813133,-3.4704920946824245e-05,0.002016971005988114,-0.0767803286832398,-4515.013309835313,10387.781422404523,257.8791585701194
19.46538959100002,18.51800000000003,-4522.798115917731,10385.8237277088,288.6659226457333,79.76343629721717,-6.145437522937982,-0.17261232595905698,-3.393930243872081e-05,0.002157655417018304,-0.07677756155261273,-4500.087394460446,10386.612297404525,257.85863815181756
19.668991017999986,18.710000000000036,-4505.648988781344,10384.50248037266,288.62773150940916,79.76342662934125,-6.145207050902281,-0.184613226752779,-3.3145743732772005e-05,0.0023076670437599573,-0.076774698440917,-4484.375906617074,10385.381679847664,257.8348971899736
19.874800977999996,18.902000000000044,-4489.53678768853,10383.261166885033,288.5895100810968,79.76341552258967,-6.144995220863348,-0.19591283418237576,-3.2416106482786865e-05,0.002448912529907038,-0.07677206904599476,-4467.933990399844,10383.976780517145,257.8719374009702
20.07810946500001,19.10300000000001,-4474.621039300486,10382.112068159278,288.552082963159,79.76340351694216,-6.144803170383247,-0.20635416338523327,-3.175421371614319e-05,0.0025794295543146127,-0.07676968702717901,-4451.401071186219,10382.674585595574,257.8461543166616
20.280667633999997,19.29200000000003,-4459.785056564436,10380.969149647799,288.51292452771537,79.76339007314495,-6.144615909979786,-0.21668675968928627,-3.11088734923644e-05,0.0027085874580595006,-0.07676736608683643,-4436.159873090951,10381.961465695622,258.06410557746557
20.482901207999987,19.477000000000032,-4443.672863118998,10379.727954522174,288.4682364984232,79.76337395531591,-6.144416624167355,-0.22781401542443125,-3.04223804508555e-05,0.0028476786901478193,-0.07676489783798002,-4421.981875489949,10380.871749273989,258.0517237287715
20.687893611999982,19.670999999999992,-4425.8856434689515,10378.357770713139,288.41629684566846,79.76335444245953,-6.144201624414259,-0.23993484939293272,-2.968149781580404e-05,0.002999189763645465,-0.07676223700160567,-4403.077883016597,10379.41884045546,258.03258535980467
20.934928875000026,19.902000000000044,-4409.693693873195,10377.11051447349,288.3666899193337,79.76333535828442,-6.144010279501208,-0.25078390414340057,-2.9022256233030163e-05,0.003134803587727798,-0.07675987056492639,-4387.076598900189,10378.683944771521,259.6922558989226
21.14076811199999,20.105000000000018,-4393.741037868461,10375.881728277589,288.31567618985935,79.76331548695076,-6.143825813781019,-0.2612638789781912,-2.8386686778288375e-05,0.0032658039475211525,-0.07675759061831289,-4372.061396275148,10377.557911315489,259.7678180554501
21.35162072899999,20.305000000000007,-4380.6598628023385,10374.87415094392,288.2722907976297,79.7632985360251,-6.143677508146558,-0.26968087288669795,-2.7875756839631127e-05,0.0033710169547435135,-0.07675575853506844,-4357.755621895386,10376.184955026449,259.7717374544671
21.530444911000018,20.470000000000027,-4361.915500723338,10373.430408251526,288.2077471680193,79.76327345805707,-6.143469500778029,-0.2814353389184684,-2.7159458281013943e-05,0.003517948658577476,-0.07675319017953597,-4341.215982284062,10374.9252587385,259.84664019422564
21.77583094099998,20.704000000000008,-4346.122382978921,10372.214015849082,288.15124542383836,79.76325181151651,-6.143298340944296,-0.2910275694698266,-2.6570203329212874e-05,0.003637852315088479,-0.07675107776470602,-4322.774856904895,10372.339889710884,260.97931265228897
22.026578088999997,20.936000000000035,-4327.45779447652,10370.776504380272,288.08206042972387,79.76322591129977,-6.143100772037715,-0.3019653731544089,-2.5890376800275414e-05,0.0037745758095425043,-0.07674864029003015,-4306.844614489275,10371.051785840864,261.1141296371193
22.240916172000027,21.137,-4313.8980542356285,10369.732187133119,288.03021667145146,79.76320704644215,-6.142960364519007,-0.3096243920597485,-2.540742723551759e-05,0.0038703142524691768,-0.07674690847307697,-4291.860726788816,10369.840232188992,261.23936578329136
22.41057059100001,21.30600000000004,-4298.264475067048,10368.528180233456,287.9688464011441,79.76318541341446,-6.14280173085109,-0.31813373565709313,-2.486197162530132e-05,0.003976681875718917,-0.0767449521557988,-4275.346944198618,10368.183255450509,257.75485580694004
22.619818999000017,21.503000000000043,-4284.784504314937,10367.490056106511,287.91461480163514,79.76316700273797,-6.142667663395743,-0.3251869905861999,-2.4401163414185516e-05,0.004064848283143376,-0.07674329891765974,-4261.075962465855,10367.01166394333,257.67811644905214
22.800483368000016,21.670000000000016,-4268.911596125552,10366.267672022548,287.8499771882641,79.76333474395081,-6.1425514203012455,-0.2843440301302148,-5.371722644083127e-05,0.0035543074829643487,-0.07674168840029116,-4246.804908004172,10365.840122503963,257.62179236771016
23.014186241000004,21.869000000000028,-4253.118302131081,10365.0514562154,287.80441501758264,79.76373039286648,-6.142169199898285,-0.15270297387822668,-0.00012057788792236806,0.0019087879975682356,-0.07673654535270802,-4232.586172849011,10364.947930809345,259.94424441178893
23.217659895999986,22.06800000000004,-4240.59529540694,10364.087159391633,287.7864896081815,79.76390837095562,-6.141574982823881,-0.054061279566468404,-0.00015811283918505315,0.0006757658905995487,-0.07672896891995684,-4216.694095850157,10363.660317862792,260.07052363897867
23.387297848999992,22.226,-4225.440043373264,10362.920321325451,287.7849793220493,79.76398472093088,-6.140607509637806,0.05842474295439616,-0.00018765217520365474,-0.0007303091388565942,-0.07671683802922424,-4202.391239337865,10362.501668666593,260.20316101036343
23.590681861000007,22.41500000000002,-4212.039611290236,10361.888756148917,287.80095124404056,79.76394343587025,-6.139600983536175,0.15157855525236222,-0.0002019877438899463,-0.0018947324305989518,-0.07670433323470882,-4188.475336384057,10361.32437718259,259.73852246537064
23.759528553999985,22.581000000000017,-4197.1236761128785,10360.74073452096,287.8367398200281,79.76379862867202,-6.13838979664445,0.24826638620030086,-0.00020704845182661875,-0.003103333587455337,-0.07668937697995415,-4172.568491180436,10360.033250234215,259.88492564539257
23.96328275000002,22.76800000000003,-4181.170848989903,10359.513158346137,287.89429624412975,79.76355070506375,-6.137063260335592,0.34366420518184365,-0.0002020363897235704,-0.004295813873827333,-0.07667308186995125,-4158.065090605343,10358.47659322582,257.75059956692553
24.179265053999984,22.971000000000004,-4167.610995084822,10358.469926743739,287.95772879773034,79.7632826999571,-6.13595935000635,0.41820134816098664,-0.00019117168487832375,-0.005227538146612022,-0.07665958051408506,-4143.747477844777,10357.29369693365,257.7831863414037
24.356403096000008,23.137,-4151.897585017691,10357.261236782286,288.04655823828966,79.76292681698011,-6.134754189974252,0.49697454891566717,-0.0001729204893342859,-0.0062122185726128515,-0.07664490135503299,-4128.634513088465,10356.045272953332,257.82979583456824
24.565564102999986,23.335000000000036,-4136.02472912067,10356.040508695252,288.15137705610726,79.76253714409236,-6.1336532140375395,0.5684445094356794,-0.0001503185453787169,-0.007105612185124605,-0.07663155290341228,-4112.6338645345595,10356.103529706843,257.6594301516771
24.768316878000007,23.535000000000025,-4120.790059064556,10354.869052003294,288.2647899003185,79.76215265777665,-6.13273175358186,0.6294346120761295,-0.00012635004187873017,-0.007868009168339928,-0.07662043672087915,-4097.478944298652,10354.93172757585,257.7158164885286
24.972676992000004,23.72800000000001,-4105.555468862757,10353.697760492661,288.3892716304482,79.76177329311189,-6.131957324568992,0.6830613772333941,-0.00010153184338403716,-0.008538365656829843,-0.07661114804713609,-4081.5264842917986,10353.698396510956,257.78571891697703
25.176053341,23.918000000000006,-4089.6031014322502,10352.471422937202,288.5299520719003,79.76139530685819,-6.131308415124229,0.731537430153305,-7.583342157804562e-05,-0.00914433940752964,-0.07660342238824769,-4066.5600830773596,10351.680834138806,256.10482877546946
25.379023818000007,24.11700000000002,-4074.4484269225354,10351.306511332756,288.6720498332073,79.76106623761562,-6.130844389032132,0.7704540168890021,-5.258727003075741e-05,-0.009630817665856235,-0.07659795413012471,-4049.831847410918,10350.33402525016,256.0845921018127
25.582282828000018,24.307999999999993,-4058.9747744265555,10350.117154973066,288.82421278564743,79.76076945453707,-6.130516022230651,0.8032366649064812,-3.0675432201701796e-05,-0.010040620145130933,-0.0765941457276178,-4035.650543523981,10348.9310015953,257.8093513695247
25.788630049999995,24.50200000000001,-4042.9428574509834,10348.884939331627,288.9879765046688,79.76051119937894,-6.130318110847018,0.8300510227855515,-1.038027807491496e-05,-0.010375816716419,-0.0765919263672643,-4021.3734739692727,10347.767191031944,257.89641474257877
25.99274846899999,24.69100000000003,-4027.708598374332,10347.71405512082,289.1480638559874,79.7603191638807,-6.13025329362653,0.8488460486868641,6.303848564442127e-06,-0.010610767206863794,-0.07659130243504264,-4004.716930621404,10346.409408516922,258.00093746234666
26.196667588000025,24.885000000000048,-4012.4743774404906,10346.543175360015,289.3112613914119,79.76018165254044,-6.130291391464819,0.8614469561481269,2.0362745598306453e-05,-0.010768287368963327,-0.0765919089963536,-3992.03913582866,10345.976178155985,260.50890083116855
26.401074392999988,25.085000000000036,-3997.31994400667,10345.37841199169,289.4755337993752,79.76010094116822,-6.130416300797758,0.8680289395939873,3.176209910581837e-05,-0.010850566876478913,-0.07659354316185985,-3977.02405523052,10344.786425961192,260.7436288250606
26.57136816100001,25.24200000000002,-3984.478568763798,10344.39140597182,289.6154121361256,79.76007597248876,-6.130577916852175,0.8691823829676886,3.943158680282678e-05,-0.010864985756244927,-0.0765955814454864,-3962.4637987587107,10343.58977369246,260.19384734454167
26.778644066000027,25.435000000000002,-3968.686076319792,10343.177532683492,289.78728828965336,79.76009867481666,-6.130832681342364,0.8652742974329904,4.6600514377633905e-05,-0.010816131879547337,-0.0765987350531061,-3945.0657005726584,10342.208128649392,260.40969150531294
27.015205526999978,25.658000000000015,-3948.028212204485,10341.589604959683,290.01007470212227,79.76021387328231,-6.131235336432427,0.8516356900351912,5.2495840734580686e-05,-0.010645639677723216,-0.07660364333425984,-3927.6675772205126,10340.82640324736,260.6220308425238
27.25294605800002,25.882000000000005,-3935.505863608119,10340.626985867773,290.14304978463747,79.76032734225197,-6.131505131427408,0.8389155196735617,5.4407129131351394e-05,-0.010486628862128805,-0.07660689730776049,-3913.6737595221966,10340.224686707235,261.3445658429864
27.42391511300002,26.05000000000001,-3920.3514061854644,10339.46197523502,290.30100864299396,79.76050381909293,-6.131846428806293,0.8193272850453558,5.5286092082411e-05,-0.01024176306462065,-0.0766109820942602,-3898.6437223507983,10339.06017102128,261.5520581859043
27.629892799000004,26.241000000000042,-3907.430211749383,10338.468598870582,290.43251729272316,79.76068405194364,-6.132143493256737,0.7992237956858131,5.50183477959631e-05,-0.009990456873867503,-0.07661451195062541,-3883.613643954208,10337.89559106316,261.7544876105272
27.80256509100002,26.40100000000001,-3891.3185593065705,10337.2298772842,290.5916237741662,79.76094220376174,-6.132513792746355,0.7699585146554235,5.3593394360747325e-05,-0.009624623662823574,-0.07661887990774585,-3870.317942405601,10335.766705867027,262.9435535671491
28.00639318200001,26.604000000000042,-3877.998491701727,10336.20572963944,290.7184628226186,79.76117826475547,-6.1328144669845965,0.7424974986219209,5.170649213872429e-05,-0.00928134598719029,-0.0766224012156358,-3855.3142781671067,10334.541934741417,263.19149058086424
28.186753103,26.771000000000015,-3862.1260259299925,10334.985273571181,290.86333682977454,79.7614800724735,-6.1331608684590515,0.7061570986231293,4.8849849018666785e-05,-0.008827072829488362,-0.07662642942148268,-3838.7760109744218,10334.470778719391,260.9326722069452
28.398836156000016,26.971000000000004,-3840.749949590989,10333.341538535307,291.04642882685664,79.76190856097344,-6.13359961442023,0.6515751772015999,4.4346570780078535e-05,-0.00814477489637565,-0.07663148712722667,-3819.001192659773,10332.954738933537,261.04349874202734
28.678335697000023,27.235000000000014,-3827.6690123848743,10332.335614408543,291.1510019076878,79.76217615055307,-6.133849439289783,0.6152615522939183,4.14080865713514e-05,-0.007690840774863444,-0.07663434436838834,-3803.972265767215,10331.802489082995,261.1180424959902
28.85588742599998,27.402000000000044,-3811.557068625014,10331.096555884558,291.27142831204543,79.76250390953452,-6.134136090148714,0.5678244281134137,3.776033953747253e-05,-0.007097861023194794,-0.07663760289845478,-3789.193246134835,10330.755042550727,261.59493531335306
29.059791800000028,27.604000000000042,-3795.60458679175,10329.869710287016,291.38099245870796,79.76281963200785,-6.134396299835126,0.5181977646525429,3.424329181450861e-05,-0.006477513943445319,-0.07664054339013715,-3772.5682078266605,10329.485662437963,261.6817636839356
29.27246119199998,27.80400000000003,-3779.7318079081383,10328.648949310655,291.4799608971978,79.7631183882698,-6.134632055459008,0.46650210259130764,3.093812352239351e-05,-0.005831306419485371,-0.0766431953404012,-3754.1421491825395,10328.94344347985,257.48888715571576
29.483904169000027,28.003000000000043,-3761.067262963551,10327.213424494877,291.58294007407187,79.7634417942211,-6.13488095661948,0.4031750154442829,2.7394440166761674e-05,-0.005039706679528996,-0.07664598747871576,-3737.422303614076,10327.721909505199,257.27951053580995
29.730752831000018,28.237000000000023,-3742.482411473881,10325.783979547488,291.6705184189674,79.76372567100718,-6.13510031073715,0.33783013375790166,2.430141813372841e-05,-0.004222887402496562,-0.07664844923382907,-3719.6406826246425,10326.73743726436,259.20467426115465
29.976179763000005,28.468999999999994,-3723.897499802369,10324.354486216993,291.74268425666565,79.76396409830794,-6.135294018168988,0.2706683758776797,2.1675040122557998e-05,-0.0033833598152193498,-0.07665063489971824,-3702.1823582997245,10325.483297883322,259.10528571964875
30.213803224999992,28.69300000000004,-3708.5828567869426,10323.176502248962,291.7902705461617,79.76412212444122,-6.135436325635505,0.21426246346926936,1.9863910443427157e-05,-0.0026782830191104095,-0.07665225702059741,-3687.1046885649034,10324.40015088293,259.00801556320084
30.383755510000015,28.852000000000032,-3695.9003974198545,10322.200964351932,291.82143942361563,79.7642246794987,-6.135543763790815,0.16701807107812863,1.8594493409008477e-05,-0.002087726698664707,-0.07665349773026664,-3673.0965219334416,10322.915985895776,261.2221665306889
30.587201085999993,29.05400000000003,-3680.5059467266724,10321.01679880739,291.8491543260016,79.76431304860735,-6.135662992177137,0.10922505466481827,1.731908319161487e-05,-0.0013653131886567698,-0.07665489898042788,-3658.00734354187,10321.804563776355,261.23720744999156
30.791055622999977,29.247000000000014,-3668.062753459342,10320.059633181965,291.8633754524382,79.76435457476953,-6.135751482787144,0.06229937756249826,1.6479393549724726e-05,-0.0007787420799379992,-0.07665596204558,-3642.9181623627323,10320.693123179224,261.24163440405954
30.962268161999987,29.402000000000044,-3651.950406937405,10318.820206724537,291.8709543576424,79.7643682320696,-6.135856931579232,0.0014530218216636831,1.5624060094580274e-05,-1.816276825691995e-05,-0.07665726318072386,-3630.5705909389753,10320.021459089516,261.6268028326686
31.13215998200002,29.571000000000026,-3635.9975894443246,10317.593031542576,291.866345916493,79.76433676335361,-6.135952729408799,-0.058663641507955104,1.499898484494647e-05,0.0007332954254987682,-0.07665848729759106,-3612.351189893791,10318.695730160453,261.633909265852
31.377887407000003,29.80600000000004,-3620.3638375747273,10316.390381821106,291.85017128512897,79.76426297069679,-6.136039599684368,-0.11723791279512587,1.4566098237310558e-05,0.0014654741626901327,-0.07665964072759301,-3596.9775500845785,10318.798354663777,259.79444627802695
31.588164528999982,29.998000000000047,-3604.809866907753,10315.19385160931,291.8227211737175,79.76414848487154,-6.13612031944122,-0.17498309319607058,1.4277314798790143e-05,0.002187290071514945,-0.07666075651968818,-3583.510765843966,10317.881863652201,259.68510664464753
31.790362491999986,30.189999999999998,-3591.888125214994,10314.199799382099,291.79138899585456,79.76402338601767,-6.136183748309521,-0.22241620266591605,1.4122424130324492e-05,0.0027802057572775627,-0.07666166698996668,-3568.459684179653,10316.857537743663,259.5533511910792
31.960889685999973,30.349000000000046,-3573.7020073579374,10312.800745859031,291.7343683032745,79.7638036592534,-6.1362684224101995,-0.2881488515479608,1.400203201008339e-05,0.0036018680964405962,-0.07666293297688842,-3552.5528402441614,10314.530425687972,259.97581425895123
32.19961328599999,30.587000000000046,-3558.546949588193,10311.63485337168,291.6754680974861,79.76358412116483,-6.136335575509675,-0.3418305585678721,1.396138069737356e-05,0.004272894712419005,-0.07666398042015521,-3535.933487551532,10313.320906837838,259.84323046598143
32.402574748999996,30.77600000000001,-3545.8645919935016,10310.65917572002,291.6183960406963,79.76337705518877,-6.136389800570465,-0.38588215025375405,1.3953498204504191e-05,0.00482354539277432,-0.07666485478389795,-3519.9229854828827,10311.958090743314,259.3588284895906
32.608162445000005,30.968999999999994,-3529.6726998036684,10309.413486832615,291.53549167973523,79.76308468293723,-6.136456830965528,-0.44086249412984424,1.395987002818472e-05,0.0055108090091455925,-0.07666597054521107,-3504.847891148084,10310.849313505985,259.19869585149524
32.786462891999975,31.137,-3511.0879918930136,10307.983689310237,291.42673953822737,79.76271495462484,-6.136531200461674,-0.5020131647854397,1.3969969238508857e-05,0.006275205876829328,-0.07666725195896884,-3488.186011027609,10309.623810181627,259.0114107101348
32.997355288999984,31.335000000000036,-3497.927199611094,10306.971161278247,291.34120475415244,79.76243426357811,-6.136582455704543,-0.5439496843490961,1.3968171041082323e-05,0.006799423740992685,-0.07666815992384324,-3474.739034264216,10308.714825953792,258.2809415079235
33.201387754999985,31.537000000000035,-3481.81526221206,10305.731570003345,291.2272085449935,79.7620730877327,-6.136643830909199,-0.5936451611958827,1.394701317281744e-05,0.007420633131472917,-0.07666927120213596,-3460.481399566226,10307.670492186244,258.0733527589256
33.38030989499998,31.70500000000004,-3468.734336687372,10304.725159999321,291.1273549977952,79.76176835860625,-6.1366926680184655,-0.6325833637204376,1.3910128922694034e-05,0.0079073751600033,-0.07667017209308002,-3444.639652499978,10306.510110289404,257.83415352015754
33.590847697000015,31.902000000000044,-3452.7022939893027,10303.491683130578,290.9964151691507,79.76138450855747,-6.136751446664736,-0.6785037046274274,1.3837268127299536e-05,0.00848139895568786,-0.0766712727699903,-3427.8364271655837,10305.237476702405,258.2444998706598
33.79404888099998,32.10400000000004,-3436.6703272826217,10302.25819439224,290.8564118441903,79.76099304350035,-6.1368091508887215,-0.7223672531392608,1.3732222849573801e-05,0.009029714604060102,-0.07667236736850103,-3412.755150320761,10304.130419034722,258.0389002562693
34.00621830799997,32.303,-3418.006343812233,10300.822177888409,290.68256403585974,79.76053321661054,-6.136875124289088,-0.7707362625156441,1.3569467527583554e-05,0.009634353883728377,-0.07667363059965959,-3394.1852376815314,10302.0890902743,256.9731081115663
34.247889008000016,32.539000000000044,-3402.1340643966605,10299.600937939267,290.5260101914089,79.76014311297834,-6.1369303215845665,-0.8095221476628512,1.339854712382982e-05,0.010119201385511476,-0.0766746926695887,-3378.267217430851,10300.879397842551,256.6915544768416
34.42602583500002,32.70300000000003,-3388.9736888876964,10298.588343640515,290.39046553156254,79.75982311563914,-6.136975527823262,-0.8400068976246997,1.3236216986881393e-05,0.01050028125286255,-0.0766755629900353,-3362.717398208226,10299.354615812057,258.00235413637904
34.63669503,32.902000000000044,-3372.782508879828,10297.34253549523,290.2169792411599,79.75943673812213,-6.137030535329346,-0.8754075287181153,1.3013989774228586e-05,0.010942814866520168,-0.07667661913963508,-3348.0147132342527,10298.217353323515,257.8227411008488
34.84092362400003,33.10500000000002,-3356.7509222669983,10296.10899019633,290.03830635834845,79.7590653268862,-6.137084434195157,-0.9081336026439766,1.2773055694398483e-05,0.011351916492472568,-0.07667764712795,-3332.9147178985677,10297.049344768371,257.63302076900703
35.054450815999985,33.30600000000004,-3343.909752973763,10295.120918613658,289.8905460906749,79.75877805498445,-6.137127272651415,-0.9326503885241917,1.2567848433939753e-05,0.011658396826633532,-0.0766784565740326,-3317.760067472028,10295.797530556463,257.07559166407765
35.227453844000024,33.46600000000001,-3325.246268377237,10293.684827009432,289.6690015028867,79.75837947544146,-6.137189128459307,-0.965628765624699,1.2255116355852535e-05,0.012070655867212714,-0.07667960981145217,-3301.837597811447,10294.560965828434,256.8421464911213
35.463490772,33.69100000000003,-3309.9327060223786,10292.506484459114,289.4816484703111,79.75807200044781,-6.137239633891393,-0.9903005032160435,1.1989528393062015e-05,0.01237907588119711,-0.07668053421000987,-3284.322947196638,10293.200732703914,256.57997818056566
35.66668840099999,33.88100000000003,-3294.8584724781,10291.346543894906,289.29275169146666,79.75778840233512,-6.137289234333345,-1.012505920681863,1.1723625973861358e-05,0.012656665580423353,-0.076681424435183,-3269.387461736132,10291.643755890984,255.89781578310254
35.86966104499999,34.081999999999994,-3279.624774272318,10290.174319161071,289.09774987441995,79.75752248602343,-6.137339338497882,-1.0328744683641853,1.1453171929029245e-05,0.012911293449932514,-0.07668230398611531,-3253.5002581206472,10290.38621499679,255.6248790794106
36.072568235999995,34.27000000000004,-3263.9125798947543,10288.965260456453,288.89272783995887,79.75727131047458,-6.137391090425488,-1.0517290067141627,1.1175041512185213e-05,0.013146995386717564,-0.0766831899425553,-3238.9797183363885,10289.245394476538,255.70292979780137
36.27737633700002,34.47000000000003,-3250.433627239848,10287.928039428009,288.7140142299118,79.75707526617222,-6.137435615579931,-1.066191869300824,1.0938774105430863e-05,0.01332779716398214,-0.07668393294907627,-3226.31782068085,10288.243551815522,255.4969355915009
36.45596417399997,34.637,-3234.4024863151903,10286.694411555138,288.498434201259,79.7568665706958,-6.137488809359838,-1.0813430038423715,1.0662294431763513e-05,0.013517203572830443,-0.07668479614195611,-3209.699112179064,10286.928623385567,255.22413739544209
36.666068067000026,34.835000000000036,-3219.0094364456645,10285.509873035333,288.2887245469002,79.75669192634979,-6.137540202664066,-1.0938212733385735,1.0402967900017653e-05,0.013673196499042715,-0.07668560423667148,-3195.0720721007215,10285.67227076465,255.202697049251
36.86936161199998,35.033000000000015,-3204.0949556320434,10284.362149925182,288.0833794222842,79.75654672242558,-6.137590347460776,-1.1040472578468499,1.0158451175970773e-05,0.013801033486268433,-0.07668636853427402,-3180.828237459251,10284.539818227244,254.9771763279947
37.07201816999998,35.218999999999994,-3188.94122927448,10283.19600438544,287.8729273036292,79.7564238797264,-6.137641704306952,-1.112576633349172,9.917628512522585e-06,0.013907661012312885,-0.07668712649326803,-3165.7930954737267,10283.344442392636,254.7378735845138
37.24109560800002,35.37600000000003,-3175.7016741802495,10282.177153351471,287.6878370155521,79.75633651652882,-6.137686932626445,-1.1185563529384652,9.713837417463793e-06,0.013982414843494563,-0.07668777403420601,-3152.7716972066314,10282.089374701492,255.17292977710923
37.444763792,35.57400000000001,-3160.308712561472,10280.992575969347,287.4715129186422,79.75625798695904,-6.13773995696244,-1.123836750959108,9.484661416468739e-06,0.014048426363046342,-0.07668851027574597,-3136.947385254823,10280.818014088429,254.95805353901693
37.65690462200001,35.76800000000003,-3145.5538121647464,10279.857090466636,287.2633232742769,79.75620585223274,-6.137791244014105,-1.1272412750727625,9.273031440608447e-06,0.014090987166799926,-0.07668919954595088,-3121.4346402317933,10280.924162652258,253.84241296912637
37.859931467000024,35.95400000000001,-3129.522819641955,10278.62338995603,287.03655666340484,79.75617344604089,-6.137847461611435,-1.1292212593404747,9.051616156540922e-06,0.014115739452916474,-0.07668993134905633,-3105.6051064872345,10279.736496768748,253.57063240810908
38.064761327999975,36.144000000000005,-3114.2893916533753,10277.451056930051,286.8208331726149,79.75616586493274,-6.137901358340039,-1.1294637143302348,8.849313591179097e-06,0.014118770443409954,-0.07669061041124214,-3091.3585234150996,10278.66758808666,253.32618815232198
38.23508415700002,36.313000000000045,-3099.0559620708104,10276.278713467964,286.60518147046866,79.75617973550173,-6.137955687821087,-1.1281929734213336,8.654518869755103e-06,0.014102884583301882,-0.07669127429001521,-3075.2503686586874,10276.081352059839,254.85684059151043
38.43753949500001,36.50400000000002,-3085.736676351911,10275.253671599237,286.4169063216446,79.7562082971956,-6.138003509538112,-1.1259188248850789,8.489910068883042e-06,0.014074454876701907,-0.07669184296066844,-3061.0101682030563,10274.937645597356,254.71225970459716
38.653121516,36.70400000000001,-3069.94493948712,10274.0383420172,286.19427874967874,79.75626133264372,-6.138060556788349,-1.1218566934785246,8.301177675564945e-06,0.01402367317278508,-0.0766925031446859,-3044.0776454467446,10274.03137790557,253.7252943565384
38.89830513300001,36.935,-3051.2819602588656,10272.602028708512,285.93237722431144,79.75634885859314,-6.138128377279803,-1.115264318408616,8.086467638372184e-06,0.013941260349529491,-0.07669326452367531,-3027.889948402965,10272.760392043318,253.5109477075695
39.101197829,37.136000000000024,-3035.6497025203485,10271.398950509973,285.7143177055207,79.75644133569071,-6.138185438175982,-1.1083373898108606,7.91297506861246e-06,0.013854665296371013,-0.07669388704006219,-3012.097044548177,10271.520390785778,253.3038729442351
39.305282879,37.33300000000003,-3020.4959637266493,10270.232690455823,285.5043208793638,79.75654619115811,-6.138240894896179,-1.1004826978117948,7.74983695560752e-06,0.013756472194482281,-0.07669447768561088,-2996.957026214428,10270.876472540525,254.94513754760771
39.509204641,37.523000000000025,-3005.0231762706917,10269.041866618147,285.2915252873317,79.7566669574445,-6.138297580310793,-1.091405974146769,7.587839209723343e-06,0.013643002393905321,-0.07669506838131745,-2981.2276654449897,10269.67451176034,254.85428714996897
39.713195903999974,37.71600000000001,-2989.949147579094,10267.881723461893,285.0859866399946,79.75679690992693,-6.138352788459075,-1.0815874666076652,7.434154412750097e-06,0.01352025961336674,-0.07669563184984529,-2965.4982748902657,10268.47253948638,254.76564112495157
39.91666836500002,37.90500000000003,-2973.7584950662686,10266.635632137864,284.86736171107657,79.75694820092538,-6.1384119703237054,-1.0700698187364306,7.273207395737267e-06,0.013376275867311755,-0.07669622437591106,-2950.7738554375915,10267.556406980397,253.64649868614973
40.11946409799998,38.108000000000004,-2960.7580954672453,10265.635067290312,284.69355976736136,79.75707738830222,-6.138459340870587,-1.0601555700306988,7.146775012452053e-06,0.013252336662221177,-0.07669669088468467,-2935.77660664696,10266.422170398555,253.50755606306006
40.295739884,38.269000000000005,-2942.254421222299,10264.21093711505,284.44905032223795,79.7572713211014,-6.1385264216835544,-1.0451192292267235,6.97079317259589e-06,0.013064365965548419,-0.07669734095406455,-2919.93326361071,10266.004896020588,252.13215132288485
40.542195006999975,38.50300000000004,-2926.382697873595,10262.98936476188,284.2421681617422,79.7574454951642,-6.138583540559013,-1.0314470838154977,6.8232545050971996e-06,0.012893449606206711,-0.07669788580768366,-2902.612084461325,10264.74762602142,251.89575498544164
40.77974534499998,38.724000000000046,-2909.394331070408,10261.681839992314,284.0238221861858,79.75763838958515,-6.138644138706469,-1.0161119943178958,6.668668912572418e-06,0.01270174511883964,-0.07669845606626424,-2883.977232686801,10263.46606532756,252.72181657243766
41.016652126,38.948000000000036,-2890.5714907534516,10260.233112130632,283.78576352952246,79.75785757939667,-6.138710499834345,-0.9984104115260165,6.5011330039033436e-06,0.012480457613343831,-0.07669907292670675,-2869.0194272406397,10262.384535042645,252.5875272697861
41.18632843,39.11700000000002,-2878.0494871810984,10259.269331077921,283.6297459309536,79.75800570924918,-6.138754128701336,-0.986278794837133,6.39175246604542e-06,0.012328800610399964,-0.07669947461666671,-2854.06158945939,10261.302995451377,252.4558971686824
41.390121213999976,39.309000000000026,-2862.4966474957655,10258.07226868954,283.4386354380793,79.75819109129553,-6.138807676602616,-0.9708881706342514,6.258124855224104e-06,0.012136403259334036,-0.07669996419942393,-2840.3682050597886,10259.09783076649,255.0542853776673
41.59596003500002,39.50400000000002,-2846.4652207993777,10256.838362748218,283.24480533814454,79.75838275378116,-6.138862066052695,-0.9547206714970989,6.122873214102804e-06,0.011934294727591388,-0.07670045824391658,-2825.5155181297764,10257.953463561442,255.08671880713715
41.80689023299999,39.70400000000001,-2830.6730312176596,10255.622862664664,283.05706967230316,79.75857117258835,-6.138914770627266,-0.9385620898875673,5.9920863664065035e-06,0.011732298162231097,-0.07670093439749537,-2808.317629396237,10256.628395535208,255.12780361961066
42.01926345700002,39.900000000000034,-2814.8808042837773,10254.407352208742,282.87254704387794,79.75875821605685,-6.138966553112413,-0.9222459845878684,5.863706997380552e-06,0.0115283329007221,-0.07670140037531614,-2795.519965084068,10255.117902994672,258.6233756745427
42.22280824699999,40.10000000000002,-2799.7266122987166,10253.240943689516,282.69853191345436,79.75893563362672,-6.139015324396559,-0.9065039695710304,5.7427773637221714e-06,0.011331544712541525,-0.07670183805404873,-2780.7259259099856,10253.948367560715,258.8614865721717
42.42587629399998,40.29000000000002,-2787.044920591564,10252.26483685551,282.55520858648924,79.75908200075204,-6.139055419078805,-0.8933097252507456,5.643322320917769e-06,0.011166606103537915,-0.07670219737455719,-2764.6949909285627,10253.897056409893,256.4527985791917
42.62971608700002,40.483000000000004,-2771.172833743076,10251.043159666142,282.3787764465047,79.75926187866897,-6.139104652175001,-0.8768213424443432,5.520971628279947e-06,0.010960488562306657,-0.07670263844532488,-2750.6410862353396,10252.853586279503,256.5361412120707
42.79842867100001,40.638000000000034,-2755.8590278972356,10249.864446831509,282.2116603598286,79.75943142756421,-6.139151110802235,-0.8609936825361898,5.405220091516805e-06,0.010762631006768485,-0.07670305484267059,-2736.5871554760797,10251.810108960497,256.62196577741827
42.968536141000016,40.80600000000004,-2742.937979213187,10248.869901000295,282.07301380265193,79.75957102917833,-6.13918950113754,-0.8477390424804156,5.309312807144767e-06,0.0105969384468652,-0.07670339940648163,-2719.496132689595,10250.632309500335,254.6211482093966
43.176602616000025,41.00300000000004,-2724.1146834994174,10247.421045493717,281.8748469210202,79.75976817101738,-6.139244081341716,-0.8286557600102886,5.172379977818227e-06,0.010358384171413538,-0.07670389055476101,-2702.1787408338637,10249.35261825891,254.5928498673108
43.422179513,41.238,-2708.3222222524328,10246.205470456176,281.712045925699,79.75992743744558,-6.139288612396603,-0.8129110830630522,5.060068082070783e-06,0.01016156522835589,-0.07670429278650603,-2687.1599297562243,10247.91593212446,255.4377357480806
43.633305526000015,41.436000000000035,-2692.290449830075,10244.971468723737,281.5499397957683,79.76008302835582,-6.1393326355351565,-0.797225778265889,4.948445026890259e-06,0.009965488872684425,-0.07670469221224363,-2666.8266306037303,10246.386895387112,255.48328367060884
43.91084472,41.70500000000004,-2671.1539871204022,10243.344537711797,281.3409852071249,79.76027833750473,-6.139388842573944,-0.7770837356774395,4.804927881669659e-06,0.009713701004803517,-0.07670520538872427,-2650.4035467870813,10245.151894003064,255.5237378172262
44.11984064699999,41.902000000000044,-2655.2019066526245,10242.11665555077,281.1867752798222,79.76041804973748,-6.139429874614685,-0.7623432920069645,4.6993549592160485e-06,0.009529436826510864,-0.07670558276430328,-2634.3371308741503,10244.1079797957,253.85174303317567
44.32299412200001,42.101,-2640.1271656876443,10240.956299453432,281.0437349913362,79.76054387706911,-6.139467556116154,-0.7488181074583484,4.601727092459482e-06,0.00936036438241692,-0.07670593169933548,-2617.8777414982046,10242.880463515668,253.79327224930188
44.52582906499998,42.291,-2622.1012549997986,10239.568774525305,280.87599353496347,79.76068633492444,-6.139511239456463,-0.7331952781348562,4.4877313389272345e-06,0.009165070532023171,-0.07670633948314132,-2601.4087793685085,10240.951558157154,250.57281076824646
44.765752099999986,42.516999999999996,-2606.707421855753,10238.383845110242,280.7354995893408,79.76080109066896,-6.1395473759408326,-0.7203573195951322,4.392623783839217e-06,0.00900458934305851,-0.076706679781116,-2586.507280084581,10239.799653969461,250.34163265165031
44.96959452499999,42.71100000000001,-2591.3933284680033,10237.205048421529,280.5981546190237,79.76090887268897,-6.139582254537254,-0.7080807903715636,4.300064887044074e-06,0.008851126532653327,-0.07670701109074174,-2570.0371798824667,10238.52648926472,250.08872935771876
45.173206531999995,42.90300000000002,-2575.4411269269876,10235.977128226783,280.4575443740654,79.76101445003599,-6.139617476635027,-0.6958347444927796,4.205776545404241e-06,0.008698044991472647,-0.07670734879585628,-2554.102660947701,10236.49118006176,251.06873980692015
