Real_time_s,Simulation_time_s,x_ft,y_ft,alt_ft,vx_fps,vy_fps,vz_fps,roll_rad,pitch_rad,yaw_rad,adsb_x_ft,adsb_y_ft,adsb_alt_ft
0.0,0.0,1797.359999999994,6500.0,300.0,-80.0,-7.043639653167933e-08,4.993069599886272e-12,-1.5546483958387956e-26,-6.24133699985784e-14,3.1417089803846894,-10548.819317473073,6501.533540094552,284.96096059253483
0.20407925799997884,0.19100000000003092,1782.0799999999676,6499.999995148968,300.00000000026114,-79.99999999996285,7.751689760596027e-05,1.6689054674994322e-09,6.446341650609345e-05,-2.0832444603112012e-11,3.1417080109755604,1768.3122592907932,6497.475558157064,289.7379842586149
0.37266352099999267,0.3450000000000273,1769.8399999999644,6500.000020735382,300.00000000085345,-79.9999999989973,0.0004009354135880526,3.4331552816148963e-09,0.00010320080998204541,-4.288711394706284e-11,3.1417039684272243,1760.311138358247,6497.477064236648,289.738453133786
0.6088213319999909,0.5760000000000218,1751.6800000006178,6500.0001784193555,300.0000000021374,-79.9999999911245,0.0011921214719799267,4.883764762838927e-09,0.0001414121860396875,-6.102319778926887e-11,3.14169407869755,1751.268859242941,6497.555673070528,289.38046000236477
0.8162034960000142,0.771000000000015,1735.8400000035144,6500.000483429316,300.0000000032909,-79.99999997262441,0.00209335567940882,4.287698614456846e-09,0.00016021595642460792,-5.3583122438728186e-11,3.1416828133568657,1744.0335669903948,6497.562837025093,289.35533439573004
1.0244291729999873,0.9680000000000177,1719.8400000112795,6500.000983410851,300.00000000408045,-79.99999993947755,0.0031123573670382466,2.096548372501357e-09,0.00016750658010407257,-2.6204897614305734e-11,3.1416700759059086,1735.9943533848705,6497.570994662543,289.3274170543492
1.2273591269999997,1.1589999999999918,1704.7200000258347,6500.001648186573,300.00000000422654,-79.99999989440879,0.004110831355676161,-9.97948535206242e-10,0.000165589827915668,1.2467154942962073e-11,3.1416575950362127,1726.4544594713302,6497.83098293207,288.84182182134657
1.4304362920000244,1.3460000000000036,1689.760000049543,6500.002491697323,300.0000000036806,-79.99999983858865,0.005082445829553774,-4.468844510562292e-09,0.00015710275523605417,5.5847350197767254e-11,3.1416454498958384,1718.6435613073972,6497.86421292024,288.7695910589859
1.6338769330000105,1.5459999999999923,1673.6800000874314,6500.003596253208,300.00000000231546,-79.9999997699491,0.00606749797972443,-8.171225139288998e-09,0.00014260685617353537,1.0212404696901389e-10,3.141633136773941,1706.5885068726516,6498.211548064741,288.3436001544479
1.804070362999994,1.7030000000000314,1661.040000127236,6500.004600013495,300.0000000007246,-79.99999971315593,0.0067751078157903604,-1.0714388140355692e-08,0.0001284149565466458,1.3391307278705917e-10,3.1416242916675534,1698.7784861612379,6498.274815316638,288.23975272476736
2.015447822999988,1.90300000000002,1647.6800001790718,6500.005777387599,299.99999999863473,-79.99999965344404,0.00744691183365904,-1.2973286848898187e-08,0.00011171415504706836,1.6215033377699304e-10,3.1416158941276358,1690.9684654603625,6498.338190829084,288.13590529480365
2.1843923939999854,2.0710000000000264,1631.6800002540426,6500.007326471269,299.9999999957155,-79.99999958643696,0.008134990161001086,-1.4922478812004187e-08,9.049684425125213e-05,1.8651776832266144e-10,3.141607293153549,1674.1817446076032,6498.971889418226,286.4913575966052
2.396321107999995,2.2719999999999914,1615.8400003408553,6500.0089850612185,299.99999999254413,-79.9999995287538,0.008683757415372285,-1.591818575590104e-08,6.925086878506353e-05,1.9896735565664708e-10,3.1416004335607006,1665.6241662520642,6499.0859249407395,286.25061334723364
2.605038394000019,2.468999999999994,1599.7600004397605,6500.010768650666,299.99999998921345,-79.99999948189537,0.009105226210380943,-1.6291069400167784e-08,4.8371355701888735e-05,2.036317665390762e-10,3.1415951651932783,1656.1157458642601,6499.212694105545,285.983119736892
2.773910032999993,2.6340000000000146,1587.0400005240745,6500.012233299607,299.9999999865853,-79.99999945432995,0.00934428571992373,-1.6069339301196067e-08,3.2833941059303504e-05,2.008625445585448e-10,3.1415921769407413,1635.0868627856296,6500.456297583831,283.48505028230505
2.977630796000028,2.8310000000000173,1571.2000006342919,6500.01410199735,299.9999999834312,-79.99999943183127,0.009534961688244144,-1.5315171046688638e-08,1.5096425686276199e-05,1.9143790976368164e-10,3.14158979347779,1624.5119478486658,6500.680990269432,283.0219950101467
3.1809154279999916,3.0260000000000105,1555.2000007490615,6500.016018531123,299.9999999804451,-79.9999994219881,0.009617193550384205,-1.4271898086686162e-08,-6.926672489911444e-07,1.7839879445992358e-10,3.1415887655637356,1599.2695620339196,6500.8312478948,283.43513339784056
3.3837899349999816,3.2180000000000177,1540.0000008590246,6500.017846915414,299.99999997781794,-79.99999942362487,0.00960356914385469,-1.3240008819176658e-08,-1.3509086090521848e-05,1.6550122980112086e-10,3.141588935852978,1587.9586131858384,6501.041127178765,283.05956465368274
3.5871582809999722,3.4080000000000155,1522.000000987758,6500.019999734077,299.9999999749819,-79.9999994370164,0.009491360233591806,-1.188987833296263e-08,-2.587765568227838e-05,1.4862516704583893e-10,3.1415903384467168,1574.2664119444635,6501.295155880122,282.60492880577704
3.7911313430000178,3.6070000000000277,1508.880001079193,6500.021548732076,299.999999973108,-79.99999945300058,0.009355666257350218,-1.0936366997088317e-08,-3.3033441454710203e-05,1.3670631716161222e-10,3.1415920346085686,1545.865928369362,6501.252057209129,283.6511297535119
3.9601092199999925,3.774000000000001,1495.8400011671897,6500.02306372998,299.9999999713955,-79.99999947281162,0.009184704021937933,-1.0037600153240417e-08,-3.866135456273253e-05,1.2547154907049224e-10,3.141594171624181,1533.9136479100164,6501.435912834802,283.38625640056387
4.168554960999984,3.9700000000000273,1479.6000012719362,6500.024908331485,299.9999999694569,-79.99999950137516,0.008932451947543562,-9.030425821383602e-09,-4.374823982992703e-05,1.1288150087361666e-10,3.141597324762043,1519.3053051198458,6501.660566242354,283.0625223027086
4.377921673000003,4.170000000000016,1463.6800013687346,6500.026664043388,299.99999996774335,-79.99999953185139,0.008655206896456637,-8.131652182988044e-09,-4.6876079203872874e-05,1.0164637217304743e-10,3.14160079031363,1488.6347791403482,6501.393688432392,284.9484833427913
4.623045357000024,4.402000000000044,1445.2000014733364,6500.02863041459,299.99999996596335,-79.99999956834675,0.008311045114118934,-7.184777964024423e-09,-4.852858431910957e-05,8.980991995298076e-11,3.1416050923246033,1469.8273162214123,6501.618688573511,284.75424768696377
4.859827521999989,4.635000000000048,1427.2000015671151,6500.030467936464,299.99999996442784,-79.9999996034019,0.007966477969194995,-6.338787107655458e-09,-4.845180791982826e-05,7.923462555461526e-11,3.1416093994055085,1441.854139945913,6501.575235660455,282.2429603161541
5.063971551000009,4.829000000000008,1408.9600016542424,6500.032250885764,299.9999999630567,-79.99999963719247,0.007619606626254241,-5.5304062838657795e-09,-4.7078925828869934e-05,6.91295354682428e-11,3.141613735290182,1425.7207591585827,6501.742536287714,281.9260440985014
5.302317012000003,5.055000000000007,1392.9600017244975,6500.033750430213,299.9999999620001,-79.9999996647762,0.007324282139397223,-4.8412194631829244e-09,-4.5065855644072464e-05,6.051454063677169e-11,3.1416174268422274,1397.570593163469,6501.815555063303,280.02706310928147
5.539554964999979,5.274000000000001,1375.8400017937452,6500.035290395639,299.9999999610202,-79.99999969177604,0.007023192365854468,-4.11525042081487e-09,-4.2337141932450444e-05,5.143984436396678e-11,3.141621190461441,1381.5622573315297,6501.9676032787265,279.62749820926393
5.745977491000019,5.470000000000027,1362.3200018445086,6500.036462212208,299.9999999603567,-79.99999971119075,0.006798451154254343,-3.534664012523644e-09,-3.991937236169446e-05,4.418250990474701e-11,3.141623999725363,1366.354338287444,6502.11200433707,279.2479115543712
5.921709138999972,5.6370000000000005,1343.5200019098968,6500.038030342454,299.9999999595983,-79.99999973538978,0.006507470521075086,-2.7146446181922373e-09,-3.636890857558823e-05,3.3932312192932585e-11,3.1416276369825873,1341.3114486726884,6501.597714832149,279.0051796987198
6.163132069000028,5.867999999999995,1327.7600019605375,6500.0392938911655,299.99999995911037,-79.99999975325761,0.00628397837217709,-2.0202423221322835e-09,-3.336701993233678e-05,2.525235523639347e-11,3.1416304306347635,1325.6537678052903,6501.7035637927265,278.6360956293331
6.3665573270000095,6.0680000000000405,1311.760002008516,6500.040533232827,299.99999995875703,-79.99999976932126,0.00607603902370094,-1.3065441496879323e-09,-3.0409523903483313e-05,1.6331216232779133e-11,3.1416330298775623,1302.1429263025632,6500.646230997917,279.5898296826686
6.570394438999983,6.2620000000000005,1296.3200020519153,6500.041691132199,299.9999999585527,-79.99999978300687,0.005893097413758761,-6.198465089207321e-10,-2.7719300131601307e-05,7.747584184809572e-12,3.1416353166490154,1286.9879769639235,6500.682090045059,279.31507368040815
6.773386502999983,6.453000000000031,1281.040002092392,6500.042803527729,299.9999999584814,-79.99999979499397,0.005728062224484258,4.7496837643276914e-11,-2.5266642383676307e-05,-5.94123002149613e-13,3.1416373795904953,1269.3072027332105,6500.723893157471,278.99452501124534
6.977289079000002,6.645000000000039,1265.7600021306876,6500.043885554516,299.99999995853807,-79.99999980562508,0.005577612025857848,7.035150682171371e-10,-2.305295635835848e-05,-8.794271355071071e-12,3.141639260219865,1251.4121876927038,6501.181861284842,280.5803079665539
7.1463989179999885,6.812000000000012,1253.200002160708,6500.044754116285,299.99999995868035,-79.99999981347266,0.005463896090024948,1.237497281857345e-09,-2.1430408616124704e-05,-1.546899614278426e-11,3.14164068167044,1236.0385376443376,6501.240407588413,280.4038007970929
7.3504173680000235,7.004000000000019,1239.600002191887,6500.0456751892325,299.999999958926,-79.99999982119843,0.005349585880575985,1.7983569909985793e-09,-1.986710399090118e-05,-2.247968700259408e-11,3.141642110549827,1219.8107959251986,6501.302185003716,280.21748767388345
7.53077736900002,7.170999999999992,1223.7600022266151,6500.046724238544,299.9999999593319,-79.99999982930852,0.005226899079461235,2.4297767036183507e-09,-1.830911084702976e-05,-3.037238213328321e-11,3.141643644136683,1201.819835913126,6501.433361062984,279.1688058772634
7.742304862000026,7.369000000000028,1207.7600022601284,6500.047760075182,299.999999959865,-79.99999983669335,0.005112623231274975,3.028586793300618e-09,-1.7005189098603405e-05,-3.7857465934891305e-11,3.1416450725865506,1186.3715854340712,6501.495424109012,278.94724996886765
7.9111073340000075,7.536000000000001,1194.3200022871824,6500.048613001414,299.9999999604059,-79.9999998423787,0.005022873737708946,3.513980659072412e-09,-1.6104513647406903e-05,-4.392486002522878e-11,3.141646194456607,1170.65667558224,6502.057560113426,279.67775993399226
8.123067719999995,7.7379999999999995,1178.24000231834,6500.049614151162,299.9999999611556,-79.9999998486716,0.004921626963278052,4.0661450432547984e-09,-1.5239283352887787e-05,-5.082688733186149e-11,3.1416474600427353,1153.496616797072,6502.156833843945,279.4898285794128
8.332201848000011,7.934000000000026,1162.6400023473927,6500.050566367157,299.999999961988,-79.99999985434569,0.004828516439975633,4.563543301885858e-09,-1.459483370464162e-05,-5.7044344418432225e-11,3.141648623925512,1135.478555071419,6502.261050785878,279.29250065721175
8.569593729000019,8.157000000000039,1144.800002379288,6500.051633492016,299.9999999630546,-79.99999986042654,0.004726694550386708,5.091672517496272e-09,-1.4056251690163635e-05,-6.3645941227447e-11,3.1416498967003026,1120.0317979193264,6502.307691587075,280.83325950659736
8.738042517999986,8.323000000000036,1132.240002400951,6500.052371331653,299.99999996387515,-79.99999986450106,0.004657224232309256,5.434672086185545e-09,-1.3783673837599251e-05,-6.793342708510121e-11,3.1416507650798664,1103.7971589820718,6502.399159330965,280.7516482699976
8.942118760000028,8.515000000000043,1116.1600024277695,6500.053300259773,299.9999999650005,-79.9999998695223,0.0045701586130897035,5.840229838866609e-09,-1.3532757494713319e-05,-7.300288881159619e-11,3.141651853400826,1090.0486753189236,6501.574675515355,282.4603501145878
9.144786678999992,8.706999999999994,1103.3600024484033,6500.054027248377,299.99999996595403,-79.99999987338843,0.004501973800659482,6.133313646186748e-09,-1.339862088210609e-05,-7.666643097976191e-11,3.1416527057113752,1073.8799034851013,6501.61265502403,282.4837139895053
9.317551294999987,8.867999999999995,1087.9200024724807,6500.054889729272,299.99999996716264,-79.99999987792711,0.004420586127796328,6.452919448225415e-09,-1.3292460139979893e-05,-8.066149855398595e-11,3.1416537230576544,1058.5621196417746,6501.648621791909,282.5058481868448
9.487592339999992,9.036000000000001,1071.6800024968727,6500.055780070535,299.9999999684986,-79.99999988257652,0.004335630262237001,6.750352450539164e-09,-1.3226187623142419e-05,-8.437940789093152e-11,3.1416547850062146,1043.7374507259763,6501.739881299338,282.1147596234154
9.735374476999993,9.271000000000015,1055.8400025197743,6500.056631872311,299.99999996985673,-79.99999988700418,0.004253149142341521,6.99872849597729e-09,-1.3188066384675832e-05,-8.748410692637541e-11,3.1416558160203305,1027.6662851446006,6501.780859016733,282.11408004028783
9.910652551999988,9.434000000000026,1042.640002538179,6500.057329243834,299.9999999710231,-79.9999998906197,0.004184591554384747,7.18201043147099e-09,-1.3164928237411637e-05,-8.97751308491269e-11,3.1416566729902016,1011.5951195624249,6501.821821317702,282.1134004571955
10.113760593999984,9.634000000000015,1027.3600025587505,6500.058122358235,299.9999999724088,-79.99999989472393,0.004105380015572929,7.360998977867234e-09,-1.3137598930371672e-05,-9.201248817638635e-11,3.1416576631344,998.3840312016113,6501.6400296069405,283.13665013275295
10.317896722,9.824000000000012,1012.1600025784451,6500.058896318458,299.9999999738184,-79.99999989872039,0.004026750386735015,7.503164638147481e-09,-1.3101569449513772e-05,-9.37895601146586e-11,3.1416586460046707,982.3990461344222,6501.668420515006,283.1945335606711
10.520124501999987,10.01400000000001,998.8000025951272,6500.059564306246,299.9999999750782,-79.99999990216041,0.003957818052541945,7.602020538134872e-09,-1.3057726006520356e-05,-9.502526040516822e-11,3.141659507658731,968.8013351841927,6502.139817059063,282.9811549916716
10.690201969999976,10.173000000000002,983.5200026135141,6500.06031415254,299.999999976537,-79.99999990600762,0.0038792754152231113,7.685168906541324e-09,-1.2988942586780867e-05,-9.6064616929437e-11,3.1416604894415494,952.6248878006924,6502.195695590387,283.0237736720895
10.896660392000001,10.367999999999995,967.8400026316247,6500.06106808711,299.99999997804827,-79.99999990985431,0.0037991201681242645,7.741583177608046e-09,-1.2895429041837766e-05,-9.67697975107823e-11,3.1416614913819663,936.7819754141043,6502.25040740594,283.0655136168341
11.098610097999995,10.569000000000017,951.7600026494268,6500.061825012341,299.99999997960543,-79.9999999136871,0.00371753572036863,7.767935082472084e-09,-1.2773941504101376e-05,-9.709919856646509e-11,3.1416625111873824,924.2127322073175,6502.689157317927,279.5718372373192
11.302005205,10.760000000000048,939.1200026628873,6500.062408486147,299.99999998083564,-79.99999991661616,0.0036539607388953468,7.76156171828622e-09,-1.2660051697852651e-05,-9.701953317523462e-11,3.1416633058745136,910.2254148103851,6502.758031065502,279.4249575644691
11.471387513000025,10.920000000000016,923.6000026787876,6500.063111244989,299.9999999823371,-79.99999992010858,0.0035766824988676597,7.732603886257258e-09,-1.249931934106616e-05,-9.665756211712307e-11,3.141664271852356,893.7697472839398,6502.839044452801,279.2521579493418
11.70866226999999,11.143000000000029,905.9200026960764,6500.063893616055,299.99999998404184,-79.99999992394233,0.0034898806404241906,7.669897643594484e-09,-1.2290290378292306e-05,-9.587373583511174e-11,3.1416653568754267,878.5913534703824,6503.093809962742,279.7144138215871
11.913676468000006,11.335000000000036,890.6400027103607,6500.064554425868,299.9999999855005,-79.99999992712911,0.0034160492335823635,7.588644402941898e-09,-1.209024631268319e-05,-9.485807151789812e-11,3.141666279767894,863.0500892182022,6503.180562127376,279.5866715355947
12.116708818999996,11.533999999999992,877.3600027222824,6500.065117388222,299.99999998675435,-79.99999992980267,0.0033528537710952972,7.498413650910803e-09,-1.1904059686603289e-05,-9.373018786418361e-11,3.141667069711092,850.4348659131574,6502.958246809338,279.0082095195972
12.286202215999992,11.689999999999998,862.0000027355233,6500.0657555049165,299.99999998818504,-79.99999993278207,0.0032809966794430604,7.375523095834844e-09,-1.1676886217650449e-05,-9.219405652005285e-11,3.1416679679246586,834.6449634974465,6503.028538835453,278.8495180611112
12.489344721999998,11.878000000000043,847.0400027478763,6500.066363814102,299.9999999895537,-79.99999993556816,0.0032123452893519974,7.237600315200062e-09,-1.1446241221575506e-05,-9.047002207812661e-11,3.1416688260669776,819.1806260794787,6503.097368499509,278.6940985914308
12.692728353999996,12.078000000000031,833.6800027584834,6500.066896340052,299.99999999075357,-79.99999993796193,0.003152167287310297,7.098411230294665e-09,-1.123473578857781e-05,-8.873015861679292e-11,3.141669578291965,804.435558820997,6502.206047676292,279.71363896061456
12.863598835999994,12.238,818.2400027702499,6500.067499327778,299.9999999921097,-79.99999994061797,0.003084022241832888,6.922443881193211e-09,-1.098602219028609e-05,-8.653056661818042e-11,3.14167043010501,789.7979224533482,6502.218179325701,279.6311972310185
13.07518595099998,12.437000000000012,802.4000027817974,6500.0681044134,299.9999999934639,-79.99999994322351,0.0030156775448564144,6.723882762214794e-09,-1.0728715608563725e-05,-8.404855229538315e-11,3.1416712844137145,774.3470840648367,6502.230973249647,279.5441754052971
13.244198929999982,12.605000000000018,789.0400027911406,6500.068604340486,299.99999999457435,-79.99999994532972,0.0029592776417827816,6.544244060203824e-09,-1.0511750254067109e-05,-8.180306810782062e-11,3.141671989412508,761.0663073265926,6502.431837002165,279.9652136794077
13.421548077000011,12.770000000000039,775.8400028000306,6500.069089092081,299.9999999956423,-79.9999999473309,0.002904675733130419,6.357698303522227e-09,-1.029877056404377e-05,-7.947124564239128e-11,3.141672671936382,745.6656437238139,6502.4555309883635,279.9071054313654
13.633065922000014,12.971000000000004,759.680002810475,6500.069670415737,299.9999999969076,-79.99999994967676,0.0028393334693849427,6.117235804160552e-09,-1.0041457770750767e-05,-7.646546369661609e-11,3.141673488714707,730.2649801206488,6502.479213996693,279.84899718327995
13.847180032999972,13.170000000000016,741.0400028219491,6500.0703247343035,299.9999999983044,-79.99999995224617,0.0027659929782914124,5.824496749718443e-09,-9.751246601754816e-06,-7.280622462039714e-11,3.1416744054708907,714.6023634831765,6502.042822124708,279.6283264009661
14.057812033999994,13.367999999999995,727.9200028296666,6500.070775122252,299.99999999924484,-79.99999995397093,0.00271565087296003,5.612012778264659e-09,-9.552176847999396e-06,-7.015017431394288e-11,3.1416750347472444,700.9478567794526,6502.040713919844,279.5687060592104
14.261254470999972,13.569000000000017,711.7600028387951,6500.071318655427,300.0000000003564,-79.99999995600534,0.0026550440812579046,5.341970916069174e-09,-9.313604867341364e-06,-6.677465021160157e-11,3.1416757923321903,686.0534424400188,6502.320361024289,280.499122700747
14.464723011999979,13.761000000000024,696.3200028471357,6500.071826622751,300.0000000013674,-79.99999995785977,0.0025985666223475746,5.075610426403145e-09,-9.093100274076717e-06,-6.344514332230309e-11,3.141676498300476,671.6780223654471,6502.333683273415,280.4912968461993
14.667769243999999,13.953000000000031,681.0400028550465,6500.072318685408,300.00000000231466,-79.99999995961377,0.0025439924201458275,4.8062614989590635e-09,-8.882250763001351e-06,-6.007828098424088e-11,3.1416771804780534,654.9066989447505,6502.349214351453,280.4821666825019
14.870840585999986,14.14100000000002,666.0800028624748,6500.072790419903,300.0000000031911,-79.99999996125678,0.0024917904697009706,4.537971388034738e-09,-8.68290061224125e-06,-5.67246538698814e-11,3.141677833002487,640.226427930472,6501.713541287494,282.361183778741
15.078318480000007,14.335000000000036,650.4000028699345,6500.073274517782,300.0000000040548,-79.99999996290434,0.0024383194640931346,4.255821287890988e-09,-8.481441043325505e-06,-5.319777692327858e-11,3.141678501390108,625.8948135115945,6501.691821809651,282.45502696819443
15.281807157999992,14.537000000000035,636.9600028760761,6500.073681202454,300.0000000047518,-79.99999996425883,0.0023934668273722266,4.0114956320346664e-09,-8.314660092460808e-06,-5.014370568680392e-11,3.141679062048106,612.1253645645919,6500.530853113637,281.88375208835976
15.451292469999999,14.694000000000017,621.7600028827519,6500.074132104057,300.00000000549113,-79.99999996572885,0.0023438167382680824,3.733020358048833e-09,-8.132369739801634e-06,-4.666276418026592e-11,3.1416796826742637,597.049806046249,6500.440335268996,281.9432175547615
15.65548316799999,14.886000000000024,606.4800028891883,6500.074575960712,300.0000000061811,-79.99999996714416,0.0022950005200647354,3.4512007174118525e-09,-7.955520803882768e-06,-4.314001812721299e-11,3.1416802928770338,581.1807970792971,6500.345043632242,282.0058127824959
15.858883648000017,15.087000000000046,591.1200028953895,6500.075012834177,300.00000000682246,-79.99999996850717,0.0022469856038637593,3.1685440382044483e-09,-7.783721458079562e-06,-3.960680910668308e-11,3.141680893063529,565.3117881120769,6500.249742526095,282.0684080101738
16.063314074999994,15.27800000000002,575.7600029013322,6500.07544056954,300.0000000074099,-79.9999999698126,0.002200016664277907,2.8881111293761624e-09,-7.617619098950849e-06,-3.61013972814768e-11,3.1416814801753112,548.6493286962246,6500.149666225494,282.1341329991744
16.335551071999987,15.539000000000044,551.6800029101597,6500.076093250493,300.0000000082244,-79.99999997175065,0.0021283749969725234,2.453852935943204e-09,-7.36750265470455e-06,-3.0673169234537495e-11,3.1416823756962016,527.2261665897369,6500.020981973887,282.21863655637105
16.582284560000005,15.773000000000025,535.8400029156536,6500.076510948376,300.00000000869125,-79.99999997295716,0.002082529624787918,2.1734504186676238e-09,-7.209120374243151e-06,-2.7168137390050567e-11,3.1416829487633846,512.1506080701039,6499.930416689765,282.2781020224865
16.757583421999982,15.936000000000035,522.3200029201619,6500.0768603574525,300.00000000904583,-79.99999997394623,0.002044180559337426,1.9361782004449533e-09,-7.077436200828407e-06,-2.420223437166595e-11,3.1416834281267247,496.2815991018549,6499.835076321532,282.3406972499242
16.96953761499998,16.137,506.3200029252738,6500.077265545054,300.0000000094143,-79.99999997507042,0.001999698950774155,1.6623790066265396e-09,-6.92539771838344e-06,-2.0779744124880632e-11,3.141683984146858,480.41259013339345,6499.739727560717,282.4032924773106
17.18188160599999,16.335000000000036,490.4000029301462,6500.077659951055,300.0000000097251,-79.99999997614131,0.001956388862990912,1.3964995434881062e-09,-6.777904633450017e-06,-1.7456250539688333e-11,3.1416845255229786,465.337031613169,6499.649138411534,282.46275794328017
17.385650194999982,16.539000000000044,474.0800029349223,6500.078055417289,300.00000000998665,-79.99999997719199,0.0019129417434095438,1.1336035392191681e-09,-6.630286837063607e-06,-1.417005021005094e-11,3.141685068611994,450.26147309277246,6499.558542008435,282.52222340920594
17.597804001999975,16.738,458.2400029393596,6500.078430831343,300.0000000101926,-79.9999999781679,0.001871683352445318,8.854025050659316e-10,-6.490234679405549e-06,-1.1067537032241743e-11,3.141685584341901,435.1859145722082,6499.467938400427,282.581688875089
17.807205243999988,16.936000000000035,442.32000294362723,6500.078799985384,300.0000000103493,-79.99999997910722,0.0018310948402040738,6.454061179673274e-10,-6.352453297339561e-06,-8.067581956339537e-12,3.1416860916983227,419.3169056030207,6499.372558565487,282.64428410228993
18.019233558999986,17.137,426.3200029477316,6500.079162929223,300.00000001045964,-79.99999998001113,0.0017911682320936972,4.130841681773963e-10,-6.21679353520941e-06,-5.163557359266838e-12,3.1416865907809415,451.9726369941574,6500.981286177274,284.085184383432
18.260691635,17.369000000000028,407.8400029522481,6500.079572283149,300.0000000105291,-79.99999998100714,0.0017461163639632057,1.563844332870836e-10,-6.063451817294106e-06,-1.954810430345859e-12,3.141687153929311,445.087847381663,6500.980798724326,284.149344179131
18.430028522999976,17.537000000000035,391.68000295601274,6500.079921809274,300.0000000105434,-79.99999998183793,0.0017076275292321262,-5.7033699154675865e-11,-5.9321533671498355e-06,7.129164289266677e-13,3.1416876350397622,421.16266289380974,6500.589135082684,285.89874988951135
18.677441810999994,17.773000000000025,375.84000295954723,6500.080256924153,300.0000000105162,-79.9999999826174,0.0016707124577696733,-2.5651568559074227e-10,-5.8059050142418435e-06,3.2064414502380796e-12,3.1416880964781706,413.14330926166804,6500.569399794588,286.0484591218178
18.887881366999977,17.968000000000018,357.28000296349444,6500.080640378569,300.00000001043446,-79.9999999834886,0.00162846142861849,-4.765108264800623e-10,-5.661011233804615e-06,5.956380921995423e-12,3.1416886246160516,387.17849291955366,6500.336961930348,285.8229697250591
19.160144473000003,18.226,336.48000296768157,6500.0810585925665,300.0000000102833,-79.99999998441366,0.0015823650261333406,-7.058179630553259e-10,-5.5024470963504995e-06,8.822720358336834e-12,3.1416892008211024,372.0468021986217,6500.282672002989,286.0337064274471
19.46538959100002,18.51800000000003,318.4800029711162,6500.081410934414,300.0000000101071,-79.99999998517256,0.0015435204735521674,-8.89271376950346e-10,-5.368447386434585e-06,1.1115888224577269e-11,3.141689686378027,346.2727245131242,6501.894069013292,283.6217221246998
19.668991017999986,18.710000000000036,300.56000297436884,6500.0817531108405,300.00000000989064,-79.99999998589166,0.0015057886873919707,-1.0583951030204104e-09,-5.237955900232683e-06,1.3229934983136344e-11,3.14169015802537,334.9744570136243,6501.976750137943,283.5786640767271
19.874800977999996,18.902000000000044,285.12000297704486,6500.0820412199755,300.0000000096743,-79.9999999864834,0.0014740157120682103,-1.1935197549504944e-09,-5.1278562971037995e-06,1.4918993284325408e-11,3.1416905551875756,323.8977241708535,6502.0578032580115,283.53645030417704
20.07810946500001,19.10300000000001,270.0800029795431,6500.082316009371,300.0000000094398,-79.99999998703615,0.001443704092369987,-1.3157055539800517e-09,-5.022650683063965e-06,1.6446315915856214e-11,3.1416909340828356,295.03510503081077,6502.904550041951,282.1183510260812
20.280667633999997,19.29200000000003,252.5600029823267,6500.082628999434,300.00000000913826,-79.99999998765148,0.0014091920516457824,-1.445185953191886e-09,-4.902682595353981e-06,1.8064821058029355e-11,3.141691365483359,283.4009025361814,6503.031191258728,281.9885536352808
20.482901207999987,19.477000000000032,239.0400029843844,6500.082865426165,300.00000000888764,-79.99999998810664,0.0013831101235768088,-1.536688096837538e-09,-4.811923417755775e-06,1.9208597980521534e-11,3.1416916915074733,271.15437359436834,6503.164492070138,281.85192480284076
20.687893611999982,19.670999999999992,223.52000298665126,6500.083131421161,300.00000000858165,-79.99999998860851,0.001353770617010258,-1.630788989278386e-09,-4.709737837414833e-06,2.0384859265828383e-11,3.1416920582513184,240.57961255063057,6502.3236715965895,283.34977005967113
20.934928875000026,19.902000000000044,205.12000298921598,6500.083439479072,300.0000000081962,-79.9999999891763,0.0013197905414032865,-1.7293369036124255e-09,-4.591275966755688e-06,2.1616708348271542e-11,3.14169248300228,226.51958708764408,6502.396010560984,283.3193412200827
21.14076811199999,20.105000000000018,189.04000299135248,6500.083702365737,300.0000000078433,-79.99999998964945,0.0012907918073542324,-1.8042302285630467e-09,-4.490107582307719e-06,2.255287503601123e-11,3.141692845486469,200.59367647088,6502.593258958306,280.4853376461106
21.35162072899999,20.305000000000007,173.2000029933657,6500.083955674412,300.00000000748037,-79.99999999009536,0.0012628536240347657,-1.867289011694214e-09,-4.3925876838094674e-06,2.3341109944265735e-11,3.141693194713773,187.0611055121756,6502.666880310479,280.28178234147714
21.530444911000018,20.470000000000027,156.88000299534903,6500.08421093921,300.00000000709514,-79.99999999053485,0.001234699313021042,-1.9217850131011466e-09,-4.294291891343491e-06,2.402231008170284e-11,3.141693546642675,161.95756125655458,6503.250418928145,278.8279865972089
21.77583094099998,20.704000000000008,140.88000299720812,6500.08445566522,300.00000000670656,-79.99999999094682,0.001207711185154046,-1.9643909406136796e-09,-4.200054822562502e-06,2.455488428824276e-11,3.1416938839942867,147.05687474368318,6503.361199800609,278.53227694000066
22.026578088999997,20.936000000000035,122.40000299925455,6500.084731669723,300.0000000062481,-79.99999999140046,0.0011772777946335198,-2.0019222718604736e-09,-4.093810548360087e-06,2.50240260520018e-11,3.141694264411683,129.1760509281375,6503.4941301462995,278.1774253513442
22.240916172000027,21.137,108.96000300067882,6500.084928027733,300.00000000591126,-79.99999999171615,0.0011556269288170696,-2.0219042534036157e-09,-4.018244687928201e-06,2.5273800908604708e-11,3.1416945350475167,105.36624717589592,6503.070589529854,280.9164343842545
22.41057059100001,21.30600000000004,93.12000300228961,6500.085154812548,300.0000000055083,-79.99999999207341,0.001130624660463699,-2.037755608603736e-09,-3.931006678400648e-06,2.547194294540847e-11,3.1416948475758835,91.38695106865453,6503.140696602425,280.8198131884567
22.619818999000017,21.503000000000043,79.68000300360242,6500.085343389556,300.00000000516366,-79.99999999236451,0.0011098348184451017,-2.045290897075201e-09,-3.858497796284301e-06,2.5566134132181058e-11,3.1416951074489194,76.63102739984241,6503.214694286043,280.71782414844756
22.800483368000016,21.670000000000016,63.76000300509491,6500.085562277205,300.00000000475546,-79.99999999269562,0.0010857060251557463,-2.046721809592915e-09,-3.774379714326938e-06,2.558402062897399e-11,3.1416954090588476,55.25948435023535,6502.465268681966,282.1262525260871
23.014186241000004,21.869000000000028,47.84000300652253,6500.085776406172,300.0000000043472,-79.99999999301247,0.0010621027900844652,-2.0403190796871854e-09,-3.6921351510786406e-06,2.5503986592185418e-11,3.1416957040992974,40.8942728579655,6502.490618640249,282.11176682709413
23.217659895999986,22.06800000000004,34.48000300767265,6500.085952507968,300.0000000040046,-79.99999999326782,0.0010426924565065494,-2.0283359127585016e-09,-3.6245296454794093e-06,2.5354197075996835e-11,3.1416959467284773,21.086271287305095,6503.1946594434285,282.31248175791325
23.387297848999992,22.226,19.20000300893636,6500.086149963662,300.0000000036202,-79.99999999354849,0.0010209326919640568,-2.0100523040623444e-09,-3.5487791432828646e-06,2.5125652045020454e-11,3.141696218725545,6.4331421957305235,6503.2581094200505,282.3101073043127
23.590681861000007,22.41500000000002,4.080003010134923,6500.086341295118,300.00000000324127,-79.99999999381475,0.0009998495546926852,-1.9845423111319127e-09,-3.4754356878749018e-06,2.4806777207221268e-11,3.1416964822647717,-8.219986895892657,6503.321555858466,282.307732850717
23.759528553999985,22.581000000000017,-8.319996988919165,6500.086495248757,300.0000000029362,-79.99999999402505,0.0009828817710025657,-1.9600919765244436e-09,-3.4164472661882236e-06,2.4501148082248274e-11,3.1416966943620768,-28.482761335096654,6501.959136846425,284.40261391021016
23.96328275000002,22.76800000000003,-24.159996987757356,6500.086688133875,300.00000000255005,-79.99999999428339,0.0009616281838281134,-1.922391864384487e-09,-3.342583013971433e-06,2.4029896749416347e-11,3.1416969600319264,-42.5107924001214,6501.944914968828,284.50878999507773
24.179265053999984,22.971000000000004,-37.75999698679983,6500.08685041917,300.0000000022251,-79.99999999449638,0.0009437405765780235,-1.885809533080101e-09,-3.2804409371126784e-06,2.357261766490366e-11,3.1416971836270253,-59.01435835902075,6501.928179610683,284.63370303610697
24.356403096000008,23.137,-53.59999698572968,6500.087035622762,300.0000000018558,-79.99999999473454,0.0009233284910281907,-1.8387614280823765e-09,-3.2095156113906155e-06,2.2984516417252613e-11,3.141697438778105,-74.6767510830366,6502.681844773742,283.4206812493752
24.565564102999986,23.335000000000036,-69.51999698470084,6500.087217727006,300.00000000149396,-79.99999999496369,0.0009032581943642315,-1.7862369123697326e-09,-3.1397888116765656e-06,2.2327960032114793e-11,3.141697689656823,-89.55567785201494,6502.70805759456,283.46182275352527
24.768316878000007,23.535000000000025,-85.51999698371168,6500.087396759624,300.0000000011412,-79.99999999518407,0.0008835251072664665,-1.7287837117059493e-09,-3.071235218662975e-06,2.160979508321598e-11,3.141697936320421,-105.88215529830266,6502.745417173414,281.4351599318701
24.972676992000004,23.72800000000001,-100.8799969828032,6500.087564942035,300.0000000008138,-79.9999999953866,0.0008649914113580412,-1.6703566991905889e-09,-3.0068469521849317e-06,2.0879457481859784e-11,3.1416981679916294,-120.73128172109637,6502.772048475975,281.3610971874149
25.176053341,23.918000000000006,-115.9999969819462,6500.087727046598,300.0000000005028,-79.99999999557777,0.0008471271877474273,-1.609356704685552e-09,-2.944802377336414e-06,2.011695760260327e-11,3.141698391294433,-137.23031107979608,6502.801635315706,281.27880524914406
25.379023818000007,24.11700000000002,-131.2799969811161,6500.087887467611,300.0000000001999,-79.99999999576302,0.0008294484433518884,-1.544633949360959e-09,-2.883412027315194e-06,1.93079232088764e-11,3.141698612278746,-156.41835346738446,6502.765961135339,283.4767953214354
25.582282828000018,24.307999999999993,-146.79999698030934,6500.088046983938,299.99999999990587,-79.99999999594331,0.0008118676379012052,-1.4763006405806083e-09,-2.8223632449031763e-06,1.8453756897768136e-11,3.1416988320388226,-172.13276997991028,6502.790147517161,283.5288928845129
25.788630049999995,24.50200000000001,-162.87999697950895,6500.088208699383,299.99999999961534,-79.99999999612224,0.0007940416572114177,-1.4031720781100244e-09,-2.7604595654340386e-06,1.7539649915672985e-11,3.14169905486359,-187.7807001466006,6502.2520821399885,285.99285416536645
25.99274846899999,24.69100000000003,-178.07999697878432,6500.08835828887,299.9999999993543,-79.9999999962842,0.0007775556812555351,-1.3321425305322372e-09,-2.7031983073916656e-06,1.6651780613908605e-11,3.1416992609382977,-204.7014503745027,6502.242324849731,286.2025369792214
26.196667588000025,24.885000000000048,-193.59999697807595,6500.088507827446,299.999999999101,-79.9999999964427,0.0007610735312370705,-1.257410121517457e-09,-2.645953234563868e-06,1.5717625543604614e-11,3.1416994669651803,-220.46097264561647,6502.2332340943585,286.3978297960613
26.401074392999988,25.085000000000036,-208.5599969774222,6500.088648962013,299.9999999988713,-79.9999999965892,0.0007455155702039971,-1.1844883209733177e-09,-2.591905696611599e-06,1.4806103078042295e-11,3.1416996614397013,-234.75263204096095,6502.951505074212,285.7525506932205
26.57136816100001,25.24200000000002,-221.9199969768618,6500.08877257252,299.9999999986782,-79.99999999671499,0.0007318926967959056,-1.118958697993926e-09,-2.5445832000701345e-06,1.3986982822827033e-11,3.1416998317256253,-249.62937184125042,6502.982856669138,285.89169566342895
26.778644066000027,25.435000000000002,-237.35999697623961,6500.088912607772,299.99999999846835,-79.9999999968547,0.000716457420549823,-1.042550722025897e-09,-2.4909582709043347e-06,1.303188316090179e-11,3.1417000246665854,-266.9855682749483,6503.019430270026,286.05403146202224
27.015205526999978,25.658000000000015,-255.3599969755482,6500.089072139677,299.999999998242,-79.99999999701025,0.0006988729814983698,-9.527927835234008e-10,-2.42984290397112e-06,1.1909908972852643e-11,3.1417002444720827,-285.9439579575432,6502.148843945486,285.9588476450257
27.25294605800002,25.882000000000005,-273.2799969748929,6500.089227072623,299.9999999980378,-79.99999999715764,0.0006817955762848496,-8.640533965994142e-10,-2.3705082160340572e-06,1.0800666674111702e-11,3.1417004579396552,-300.96552458148,6502.131618889734,286.08472038953687
27.42391511300002,26.05000000000001,-286.7199969744232,6500.089340789397,299.9999999978968,-79.9999999972635,0.0006692586786587516,-7.970814440627529e-10,-2.3269330371917407e-06,9.963517296586856e-12,3.1417006146508824,-313.8013973278614,6501.763200661149,285.7775918202605
27.629892799000004,26.241000000000042,-301.9999969739101,6500.089467528963,299.99999999775014,-79.99999999737913,0.0006552888450124575,-7.218773921323334e-10,-2.278375350226306e-06,9.023466678159116e-12,3.141700789273809,-328.5642224948375,6501.726669416472,285.8783186914386
27.80256509100002,26.40100000000001,-314.8799969734948,6500.089572304376,299.9999999976384,-79.99999999747288,0.0006437396437818643,-6.593287415355233e-10,-2.2382225936563977e-06,8.241608571522871e-12,3.1417009336388304,-343.3270476618357,6501.690135981693,285.9790455626286
28.00639318200001,26.604000000000042,-331.0399969729941,6500.089701162246,299.9999999975112,-79.99999999758596,0.0006295331491509092,-5.815630880737758e-10,-2.188828723659579e-06,7.269537933129872e-12,3.14170111122002,-358.0514623477682,6501.586102450681,284.6010533014758
28.186753103,26.771000000000015,-344.1599969726044,6500.089803680315,299.9999999974209,-79.9999999976741,0.0006182309408417644,-5.198143918535807e-10,-2.149519848666732e-06,6.49767925406846e-12,3.1417012524976293,-373.55656383462826,6501.543829779546,284.62159526968105
28.398836156000016,26.971000000000004,-360.47999697213845,6500.0899286459635,299.999999997321,-79.99999999777938,0.0006044539450283344,-4.440081110194965e-10,-2.101593839461017e-06,5.550100771828432e-12,3.1417014247100834,-393.0668577682136,6502.940449189172,283.3794850932762
28.678335697000023,27.235000000000014,-381.5999969715689,6500.090086233683,299.9999999972141,-79.99999999790874,0.0005870817567840908,-3.481753513839076e-10,-2.0411498894726984e-06,4.3521913109759724e-12,3.1417016418624453,-407.7244526236469,6502.981219192323,283.32829450444603
28.85588742599998,27.402000000000044,-394.8799969712272,6500.090182996021,299.9999999971612,-79.99999999798632,0.0005764145374012162,-2.904000505698592e-10,-2.0040318733228272e-06,3.6300000721147622e-12,3.1417017752026926,-424.0106691297034,6503.026516903221,283.27141607242487
29.059791800000028,27.604000000000042,-411.0399969708285,6500.090298377486,299.99999999710855,-79.99999999807694,0.0005636947794120489,-2.2190415101655163e-10,-1.9597719684746326e-06,2.7738013519099876e-12,3.1417019341996735,-439.6399059632879,6502.318299457143,284.1119610997907
29.27246119199998,27.80400000000003,-426.7999969704565,6500.090408445359,299.99999999706876,-79.99999999816153,0.0005515617254669535,-1.5636906718311833e-10,-1.9175521769790454e-06,1.95461282672142e-12,3.141702085862854,-456.66776704090927,6502.317973181616,284.10927289835644
29.483904169000027,28.003000000000043,-442.87999697009553,6500.09051831052,299.99999999704374,-79.9999999982441,0.0005394505669687626,-9.238136022629895e-11,-1.8754099609016075e-06,1.1547665123022266e-12,3.141702237252341,-473.4966926584976,6503.322868274686,286.7857800388825
29.730752831000018,28.237000000000023,-464.15999696964076,6500.090660002571,299.99999999702806,-79.99999999834792,0.0005238312788691388,-1.1259814432378489e-11,-1.8210648908499744e-06,1.4074721807165777e-13,3.1417024324934495,-492.09745727774344,6503.394068734851,286.9735756595407
29.976179763000005,28.468999999999994,-482.95999696926157,6500.090781766685,299.9999999970328,-79.99999999843466,0.0005104095795586964,5.568865310246495e-11,-1.7743718732148095e-06,-6.961086028087079e-13,3.141702600264698,-508.79925956659736,6502.410805447649,285.80349131671363
30.213803224999992,28.69300000000004,-498.1599969689705,6500.090877921556,299.9999999970474,-79.99999999850154,0.0004998124645052144,1.0748775521931755e-10,-1.7375120774033683e-06,-1.3435973612165636e-12,3.141702732728641,-524.5335172123707,6502.406602991473,285.87998580754316
30.383755510000015,28.852000000000032,-510.9599969687306,6500.090957345925,299.9999999970675,-79.99999999855575,0.0004910594109333651,1.4840417114118477e-10,-1.707069341646661e-06,-1.855052544793445e-12,3.1417028421418154,-538.9833456625809,6502.402741790293,285.9502358501499
30.587201085999993,29.05400000000003,-527.1199969684466,6500.0910556418885,299.99999999710207,-79.99999999862152,0.00048022423868520383,1.9814278198355916e-10,-1.6694083694481889e-06,-2.47678516303219e-12,3.141702977581474,-552.1883442665996,6502.69629088332,283.5577234042032
30.791055622999977,29.247000000000014,-542.5599969681846,6500.091147526329,299.99999999714436,-79.99999999868167,0.0004700976224507476,2.416914682261665e-10,-1.6342097115380429e-06,-3.021143724947452e-12,3.141703104164181,-566.5423525459167,6502.708939856496,283.49116026349145
30.962268161999987,29.402000000000044,-554.959996967981,6500.091219911745,299.99999999718364,-79.99999999872813,0.0004621210314420429,2.7514391040402276e-10,-1.606486938693401e-06,-3.4392992391771677e-12,3.1417032038715735,-580.0989159208405,6502.72088466174,283.4282950750473
31.13215998200002,29.571000000000026,-568.3199969677743,6500.091296533618,299.9999999972313,-79.99999999877649,0.0004536747956895504,3.098018093105661e-10,-1.577142090932587e-06,-3.8725229627568394e-12,3.1417033094495244,-595.2345776517553,6501.60791457891,285.1483002185075
31.377887407000003,29.80600000000004,-586.7999969674956,6500.09140021489,299.9999999973067,-79.99999999884045,0.000442246796833721,3.528212840001449e-10,-1.5374274679112644e-06,-4.4102663793892436e-12,3.141703452299515,-611.8985872696907,6501.550802521363,285.1851322097858
31.588164528999982,29.998000000000047,-602.4799969672748,6500.091486134656,299.9999999973798,-79.99999999889228,0.00043277707336497346,3.863895923108172e-10,-1.5045185989656092e-06,-4.829870219425933e-12,3.141703570671063,-626.975548352591,6501.499127939449,285.2184563923769
31.790362491999986,30.189999999999998,-615.1999969670989,6500.091554478637,299.9999999974433,-79.99999999893268,0.0004252444728957007,4.10828338681398e-10,-1.4783368421609696e-06,-5.135354537586289e-12,3.141703664828573,-641.9260018075751,6501.258861500873,282.78634713576605
31.960889685999973,30.349000000000046,-630.7199969668984,6500.091636261133,299.9999999975247,-79.9999999989801,0.00041623079583103515,4.396233067819386e-10,-1.447013913152703e-06,-5.4952916259761545e-12,3.141703777499541,-657.8077972422606,6501.193226178983,282.6754010132599
32.19961328599999,30.587000000000046,-648.7999969666702,6500.091729349804,299.9999999976285,-79.99999999903284,0.0004059688309738755,4.670831230825296e-10,-1.4113599293734583e-06,-5.838539315747934e-12,3.141703905774106,-674.3658156233319,6500.949599426816,283.002710418344
32.402574748999996,30.77600000000001,-662.1599969665132,6500.0917966615825,299.9999999977063,-79.99999999907016,0.0003985506216671914,4.871151046006439e-10,-1.3855809559715105e-06,-6.088939075016404e-12,3.1417039985017254,-687.8346009192782,6500.884871696554,282.93153376493035
32.608162445000005,30.968999999999994,-677.5999969663318,6500.091872918444,299.99999999780385,-79.99999999911158,0.000390145694889262,5.049135179552998e-10,-1.3563764576925442e-06,-6.3114192307777295e-12,3.141704103563314,-704.4725121672166,6500.804912295656,282.8436096636582
32.786462891999975,31.137,-693.6799969661616,6500.091950631332,299.99999999790697,-79.99999999915292,0.00038157869554762463,5.229343433415097e-10,-1.3266021618903983e-06,-6.5366795368853165e-12,3.1417042106508104,-720.2172467720205,6500.1910346230825,283.74168913333295
32.997355288999984,31.335000000000036,-709.519996965994,6500.09202551373,299.9999999980085,-79.99999999919184,0.0003733244349861911,5.378818063889635e-10,-1.297908101356724e-06,-6.7235228145070936e-12,3.141704313829072,-734.5265657169732,6500.093332754773,283.7188176726423
33.201387754999985,31.537000000000035,-725.7599969658347,6500.092100608912,299.99999999812206,-79.99999999923003,0.00036504577381657065,5.485705368454053e-10,-1.2691273503234494e-06,-6.857131935023572e-12,3.14170441731234,-748.0221210173213,6501.762085502216,281.5108497660291
33.38030989499998,31.70500000000004,-739.0399969657097,6500.092160775522,299.99999999821495,-79.99999999926004,0.0003584130439524848,5.556591298872595e-10,-1.2460631108729928e-06,-6.945739339954211e-12,3.1417045002214667,-762.1805721430327,6501.763579872316,281.3663296476485
33.590847697000015,31.902000000000044,-754.8799969655605,6500.092231111957,299.99999999832573,-79.9999999992944,0.0003506599170535907,5.610620944209094e-10,-1.2190994517215985e-06,-7.013276387349456e-12,3.141704597135557,-779.4853457411283,6501.765404702717,281.18969394740657
33.79404888099998,32.10400000000004,-771.039996965427,6500.0923013039255,299.99999999843874,-79.99999999932793,0.0003429221834050769,5.665160316201721e-10,-1.1921893060036928e-06,-7.081450593389171e-12,3.141704693857231,-794.514850625848,6501.84036495012,280.7601540982862
34.00621830799997,32.303,-786.8799969652963,6500.092368600149,299.9999999985495,-79.99999999935942,0.0003355041366767576,5.688490191070964e-10,-1.1663875031742724e-06,-7.1106129284919924e-12,3.1417047865828183,-811.8409278466243,6501.8470669541075,280.5649436710442
34.247889008000016,32.539000000000044,-805.7599969651435,6500.092446915816,299.9999999986816,-79.99999999939514,0.0003268705546665239,5.680144107135934e-10,-1.136359135009003e-06,-7.100180313921161e-12,3.141704894502598,-829.1827715930589,6501.5320254066555,282.25395653173365
34.42602583500002,32.70300000000003,-821.5999969650312,6500.092511062109,299.99999999879236,-79.99999999942368,0.0003198001450750786,5.668299976056181e-10,-1.1117651962473404e-06,-7.0853751423423705e-12,3.1417049828827217,-844.160983315341,6501.51894622832,282.1957175217314
34.63669503,32.902000000000044,-834.9599969649365,6500.092564086554,299.99999999888576,-79.99999999944683,0.0003139552033575988,5.64606968331556e-10,-1.0914374883032228e-06,-7.057587270201606e-12,3.1417050559444952,-859.9275219703794,6501.505177383291,282.13441330067593
34.84092362400003,33.10500000000002,-851.0399969648228,6500.0926266230945,299.99999999899825,-79.99999999947359,0.00030706171223661476,5.61475072688682e-10,-1.0674616507272891e-06,-7.0184385674748275e-12,3.141705142113138,-874.9712133461004,6502.295190070438,281.35574588239604
35.054450815999985,33.30600000000004,-866.7199969647116,6500.09268627903,299.9999999991079,-79.9999999994986,0.000300486185673819,5.551646377744729e-10,-1.0445923452250615e-06,-6.9395581243459555e-12,3.1417052243072234,-889.1775204223767,6502.326458892155,281.2613434188152
35.227453844000024,33.46600000000001,-879.919996964618,6500.09273550879,299.9999999992002,-79.99999999951882,0.00029505994926174166,5.4767101845857e-10,-1.0257217764941128e-06,-6.845887877296038e-12,3.141705292135181,-904.9623060626866,6502.361200606368,281.1564517926121
35.463490772,33.69100000000003,-897.9999969645193,6500.092801498172,299.99999999932663,-79.99999999954531,0.0002877872308718983,5.366641770905437e-10,-1.0004368602357675e-06,-6.708302353172402e-12,3.1417053830441644,-921.8750579879027,6501.694902911767,282.5251309928053
35.66668840099999,33.88100000000003,-913.199996964447,6500.092855714438,299.99999999942565,-79.99999999956654,0.00028181237396511283,5.307557841011329e-10,-9.79669128235765e-07,-6.6344474350256584e-12,3.141705457729879,-937.6472709498051,6501.688231794962,282.50744243736347
35.86966104499999,34.081999999999994,-928.7999969643728,6500.092910188414,299.9999999995257,-79.99999999958744,0.0002758078089503859,5.231270430172912e-10,-9.588024913509178e-07,-6.539088165677925e-12,3.1417055327869443,-953.5674226821981,6500.963457261347,283.00659752214233
36.072568235999995,34.27000000000004,-944.1599969642997,6500.0929626884445,299.99999999962415,-79.9999999996072,0.00027002217872290315,5.128345874962181e-10,-9.386972062007581e-07,-6.410432466297829e-12,3.141705605107325,-967.7403744022282,6500.918296932774,283.0189014551997
36.27737633700002,34.47000000000003,-957.6799969642354,6500.093007991604,299.99999999971084,-79.99999999962387,0.0002650285843623857,5.009862313287268e-10,-9.213488699658184e-07,-6.26232800983282e-12,3.1417056675272566,-982.7007123289293,6500.87062674604,283.0318889400909
36.45596417399997,34.637,-973.759996964159,6500.093060782564,299.9999999998123,-79.999999999643,0.0002592093526195233,4.84246404192942e-10,-9.011263258480449e-07,-6.053080165482358e-12,3.141705740267657,-995.9898919801358,6501.219719810767,280.343627543851
36.666068067000026,34.835000000000036,-989.3599969640848,6500.093110887042,299.99999999990325,-79.99999999966066,0.00025368669128490604,4.683409938627531e-10,-8.819314210195634e-07,-5.854262531602539e-12,3.141705809300926,-1011.6988430649111,6501.19309990763,280.19561192132363
36.86936161199998,35.033000000000015,-1005.2799969640091,6500.093160920524,299.999999999996,-79.99999999967794,0.00024817155509582845,4.490229808219573e-10,-8.627637588943572e-07,-5.612787363968533e-12,3.1417058782401313,-1027.769996184715,6500.358771169406,283.4599283804495
37.07201816999998,35.218999999999994,-1020.239996963938,6500.093206942289,300.00000000007856,-79.99999999969353,0.0002430998279508217,4.293904161486128e-10,-8.451353289038257e-07,-5.36738030122541e-12,3.1417059416367223,-1041.9853725393516,6500.289566778723,283.5169131040007
37.24109560800002,35.37600000000003,-1032.7999969638781,6500.093244853731,300.00000000014444,-79.99999999970613,0.00023892183377485692,4.129275128729132e-10,-8.306213373458455e-07,-5.161594007066787e-12,3.1417059938616516,-1056.2007488939942,6500.220361568672,283.5738978275484
37.444763792,35.57400000000001,-1048.319996963822,6500.09329080184,300.00000000022436,-79.99999999972113,0.00023385709608181123,3.9081161239006647e-10,-8.130237164626986e-07,-4.885145246925155e-12,3.1417060571708753,-1070.0768698988034,6499.6360479913155,283.7882679994241
37.65690462200001,35.76800000000003,-1063.999996963784,6500.093336235388,300.00000000029746,-79.99999999973558,0.00022884919887147936,3.7558567094419755e-10,-7.95622627929855e-07,-4.694820974945626e-12,3.1417061197695935,-1085.8605794442578,6499.527417399333,283.861304863119
37.859931467000024,35.95400000000001,-1078.9599969637477,6500.093378673637,300.0000000003672,-79.99999999974882,0.0002241722244517923,3.594541222053009e-10,-7.793728067535227e-07,-4.493176612167678e-12,3.1417061782317752,-1102.433474466992,6499.413354239257,283.93799356999466
38.064761327999975,36.144000000000005,-1094.3199969637105,6500.093421346052,300.00000000043474,-79.99999999976185,0.00021946896468809054,3.4089033944354316e-10,-7.630275587810462e-07,-4.261129324009149e-12,3.1417062370225253,-1118.3531524861307,6500.117617438709,283.53351021173825
38.23508415700002,36.313000000000045,-1109.5999969636734,6500.093462907199,300.0000000004971,-79.99999999977427,0.00021488804724412858,3.230720440703022e-10,-7.471105968210083e-07,-4.0384006284779574e-12,3.1417062942839955,-1133.364333326078,6500.060439756399,283.57586449968204
38.43753949500001,36.50400000000002,-1123.1199969636407,6500.093498960157,300.00000000055223,-79.99999999978489,0.00021091344293291652,3.057856981770071e-10,-7.333033037339621e-07,-3.822321302134697e-12,3.1417063439665505,-1148.6135318954023,6501.057126072975,284.41277768159944
38.653121516,36.70400000000001,-1139.039996963602,6500.093540557669,300.00000000060953,-79.99999999979683,0.0002063277509352487,2.849672050164809e-10,-7.173634384054547e-07,-3.5620901344074584e-12,3.1417064012877027,-1164.4442743272618,6501.062325598214,284.5067442497289
38.89830513300001,36.935,-1157.599996963557,6500.093587912821,300.00000000067445,-79.99999999981016,0.00020110731907632714,2.594376683160573e-10,-6.992133100284282e-07,-3.2429709220963824e-12,3.141706466543104,-1182.6496281239006,6501.06830400718,284.6148058030728
39.101197829,37.136000000000024,-1173.1199969635195,6500.093626588962,300.00000000072134,-79.99999999982074,0.0001968440656405028,2.3914581497827727e-10,-6.843868108646797e-07,-2.989322752559414e-12,3.1417065198337735,-1198.4988135701083,6501.558351746336,283.8922733125702
39.305282879,37.33300000000003,-1188.3199969634827,6500.093663672545,300.0000000007656,-79.99999999983069,0.00019275662636968136,2.1733508199986022e-10,-6.701716342074092e-07,-2.7166885876887282e-12,3.1417065709267664,-1212.760269676011,6501.5891563471005,283.9329268303865
39.509204641,37.523000000000025,-1204.639996963443,6500.09370263526,300.000000000807,-79.99999999984092,0.00018846111733138436,1.9421146814639653e-10,-6.552341208493443e-07,-2.4276434116944766e-12,3.1417066246206318,-1228.6346153501297,6502.235868817848,281.24667454958256
39.713195903999974,37.71600000000001,-1220.0799969634056,6500.0937386947,300.00000000084304,-79.99999999985022,0.0001844864814928731,1.7261183448493486e-10,-6.414095562302041e-07,-2.1576479883671933e-12,3.141706674303582,-1244.3990486515445,6502.307829991833,281.1225205203266
39.91666836500002,37.90500000000003,-1235.199996963369,6500.093773269252,300.0000000008737,-79.99999999985889,0.00018067583945470685,1.5152313391918706e-10,-6.281586004396376e-07,-1.894039228926129e-12,3.1417067219366093,-1257.7988169577518,6502.368996387213,281.0169895954555
40.11946409799998,38.108000000000004,-1248.3199969633372,6500.093802692021,300.0000000008966,-79.99999999986613,0.00017743212799708192,1.3300420155693313e-10,-6.16881568321885e-07,-1.6625525724902923e-12,3.141706762483004,-1274.7449721706878,6500.348250094212,286.72261942127227
40.295739884,38.269000000000005,-1264.159996963299,6500.093837511927,300.0000000009228,-79.99999999987457,0.0001735940022398814,1.0994757700175031e-10,-6.035338316285035e-07,-1.3743447632733609e-12,3.141706810459578,-1290.7541057721726,6500.2925335126365,286.9549727530613
40.542195006999975,38.50300000000004,-1282.9599969632532,6500.093877863625,300.00000000094474,-79.9999999998841,0.00016914573962097785,8.496478511668305e-11,-5.880644790920397e-07,-1.0620598621721866e-12,3.1417068660628624,-1307.5145968620811,6500.692611335915,286.90085465210717
40.77974534499998,38.724000000000046,-1297.9999969632167,6500.093909396607,300.00000000096065,-79.99999999989136,0.00016567045014558753,6.421626772340173e-11,-5.759788030157569e-07,-8.027033928192434e-13,3.1417069095039825,-1326.4648766619687,6500.6609599757885,287.1536420991819
41.016652126,38.948000000000036,-1318.639996963173,6500.093951620024,300.0000000009727,-79.99999999990087,0.0001610164705415242,3.7905606128520284e-11,-5.597975478379532e-07,-4.738201202930377e-13,3.14170696767873,-1343.1157501263037,6500.633148356636,287.375756592423
41.18632843,39.11700000000002,-1331.3599969631716,6500.093977048001,300.0000000009801,-79.99999999990646,0.00015821387426104616,2.40518064195468e-11,-5.500528342394481e-07,-3.0064762243886715e-13,3.1417070027111844,-1358.4127274639343,6500.645625712654,286.79542479068857
41.390121213999976,39.309000000000026,-1346.7999969631703,6500.094007319689,300.00000000098163,-79.99999999991297,0.00015487721542339404,1.2404601721699732e-11,-5.3845332390368e-07,-1.5505756195470693e-13,3.141707044419422,-1373.495594852804,6500.622606021481,286.9517780039864
41.59596003500002,39.50400000000002,-1363.119996963169,6500.094038625669,300.00000000098163,-79.99999999991961,0.00015142596289993506,5.542135229966184e-13,-5.264555167898315e-07,-6.927707667829414e-15,3.1417070875600803,-1389.276610315731,6500.647045673863,285.9564723347012
41.80689023299999,39.70400000000001,-1379.0399969631674,6500.09406849073,300.00000000098163,-79.99999999992576,0.00014813373509048013,-1.1400205203121043e-11,-5.15007779753264e-07,1.4250252807745225e-13,3.1417071287129295,-1405.102897489214,6500.625909872247,286.04841335253326
42.01926345700002,39.900000000000034,-1394.639996963166,6500.094097124527,300.00000000098163,-79.99999999993153,0.0001449774844216101,-2.3639611531766344e-11,-5.040317276049834e-07,2.954951087600525e-13,3.1417071681660644,-1420.137870304025,6500.6058301505855,286.13575731947174
42.22280824699999,40.10000000000002,-1409.8399969631644,6500.09412443661,300.00000000097293,-79.99999999993693,0.0001419667554558259,-3.2826528901205106e-11,-4.935627008440806e-07,4.1033157735007574e-13,3.141707205800178,-1435.8065162465418,6501.30308375555,283.7620882514965
42.42587629399998,40.29000000000002,-1425.1999969631631,6500.094151460526,300.00000000096395,-79.99999999994216,0.00013898830765904388,-4.2594969102291175e-11,-4.8320632484685e-07,5.324370812870807e-13,3.141707243030777,-1450.0458850301732,6501.32330587851,283.7101425753123
42.62971608700002,40.483000000000004,-1438.6399969631618,6500.0941746424605,300.0000000009561,-79.99999999994655,0.0001364332946431508,-5.1405125098885866e-11,-4.74324526560821e-07,6.425640323715982e-13,3.1417072749684403,-1465.076329857339,6501.344650951945,283.65531102822735
42.79842867100001,40.638000000000034,-1453.8399969631603,6500.094200344934,300.0000000009473,-79.99999999995137,0.00013360060079477645,-6.174460405073079e-11,-4.6447461852680203e-07,7.718075206129556e-13,3.1417073103771154,-1479.0656176562857,6502.3851771864465,283.18616855897926
42.968536141000016,40.80600000000004,-1466.7999969631592,6500.0942218381715,300.00000000093974,-79.99999999995532,0.00013123147888663596,-7.069766092933029e-11,-4.562414424189671e-07,8.837207326025637e-13,3.1417073399911404,-1493.2532136292384,6502.46025132812,283.11191115808197
43.176602616000025,41.00300000000004,-1485.7599969631574,6500.094252599502,300.0000000009176,-79.99999999996078,0.00012784032858923278,-7.96326988167757e-11,-4.444536003158761e-07,9.95408707684632e-13,3.1417073823805204,-1511.2720759947024,6503.032592564145,281.07728461093853
43.422179513,41.238,-1501.759996963156,6500.094277938367,300.000000000899,-79.99999999996517,0.00012504702806052985,-8.65758785001426e-11,-4.347411096811202e-07,1.0821984549123499e-12,3.1417074172967787,-1527.024485421809,6503.145255994203,280.87560922220007
43.633305526000015,41.436000000000035,-1517.5999969631544,6500.094302478079,300.0000000008805,-79.99999999996936,0.00012234203589537812,-9.338804516461853e-11,-4.2533465592808776e-07,1.1673505393379095e-12,3.1417074511091814,-1544.3521357916295,6503.269185191383,280.65376629458615
43.91084472,41.70500000000004,-1539.1199969631525,6500.094334970082,300.00000000085544,-79.99999999997475,0.00011876016665273467,-1.0233301449469416e-10,-4.1287796995209803e-07,1.2791626574154402e-12,3.1417074958825486,-1562.3025556468378,6502.4634687017515,279.87811801458065
44.11984064699999,41.902000000000044,-1554.799996963151,6500.094358042835,300.00000000083713,-79.9999999999785,0.00011621695699961145,-1.1027496210188462e-10,-4.04032285267733e-07,1.3784370035163852e-12,3.141707527672671,-1579.619546570036,6502.52692029887,279.6211174495634
44.32299412200001,42.101,-1569.9999969631497,6500.094379936768,300.0000000008184,-79.99999999998195,0.00011380348750922835,-1.1783353674820182e-10,-3.956386919188252e-07,1.4729191875566278e-12,3.141707557841041,-1594.558637880993,6501.950205988415,280.1900050989215
44.52582906499998,42.291,-1585.1999969631481,6500.094401376112,300.0000000007918,-79.99999999998528,0.00011144064983145262,-1.2194115058721407e-10,-3.874224955072067e-07,1.5242643614538438e-12,3.141707587376513,-1611.1375409995785,6501.970762784711,279.99427657169286
