Real_time_s,Simulation_time_s,x_ft,y_ft,alt_ft,vx_fps,vy_fps,vz_fps,roll_rad,pitch_rad,yaw_rad
0.0,0.0,0.00039780028604835397,4059.346604205468,281.28326379634746,0.0005410210934530528,24.375011350423513,0.6620252064848838,0.00013705542617997355,-0.02715331878546357,1.5708904578698581
0.20407925799997884,0.19100000000003092,0.0008014819718574919,4074.6207266020992,281.71322606867005,0.000801914892938467,24.373352611382387,0.7205122054151548,0.00014685917145202516,-0.02955286490467302,1.5708797523009566
0.37266352099999267,0.3450000000000273,0.0012491297873466682,4086.935217770919,282.0859656171382,0.0010209377930572442,24.372013109566662,0.7644814875438243,0.00014900562008230054,-0.03135690399817912,1.5708707638366353
0.6088213319999909,0.5760000000000218,0.002127799164690635,4105.405683487636,282.685032871514,0.0013471957512462404,24.370036857537816,0.825080448993944,0.0001445306691083165,-0.033843419587794875,1.5708573727715573
0.8162034960000142,0.771000000000015,0.003059257366180586,4120.996468091691,283.22513846633206,0.0016084537904927651,24.368429052498396,0.8712743117004926,0.00013537263495253348,-0.035739000455716666,1.5708466479549847
1.0244291729999873,0.9680000000000177,0.004164793851451061,4136.746120874262,283.799577714408,0.001850615090809752,24.366887519097354,0.9133702463306416,0.00012264517580028235,-0.03746653317662401,1.5708367056484254
1.2273591269999997,1.1589999999999918,0.005379981009826279,4152.015147849457,284.38141456610725,0.0020594575367208668,24.365492876297015,0.9498466474936768,0.0001081601308727857,-0.03896354181529823,1.5708281300622369
1.4304362920000244,1.3460000000000036,0.006689827950776718,4166.963572310512,284.9721973455333,0.0022360064976729055,24.36424143508947,0.9814225863233464,9.285991784484158e-05,-0.04025950361259798,1.5708208794874365
1.6338769330000105,1.5459999999999923,0.008201997104219785,4182.950367644226,285.6242574861128,0.0023935405861464517,24.363039224135875,1.0108264114982097,7.611765048800597e-05,-0.04146637679593905,1.5708144088481744
1.804070362999994,1.7030000000000314,0.009456789746528084,4195.49946044579,286.1490171456881,0.0024944275002692137,24.362203172489732,1.0307794915327584,6.314752709827635e-05,-0.04228538066547029,1.5708102643516442
2.015447822999988,1.90300000000002,0.011123341934523356,4211.484967877815,286.8313796850103,0.002595464695203015,24.361279906690836,1.052373779332528,4.7293836601953366e-05,-0.04317178236041096,1.570806113020289
2.1843923939999854,2.0710000000000264,0.012569044008262729,4224.912345980999,287.41474601605535,0.0026576213301758777,24.360632958512333,1.0672444882470966,3.482402624775443e-05,-0.043782214493736246,1.5708035586706017
2.396321107999995,2.2719999999999914,0.014337243118212231,4240.976804130574,288.12251025006543,0.002706885147085023,24.360016952034574,1.0812135632534514,2.116883023402575e-05,-0.04435565007649656,1.5708015335884562
2.605038394000019,2.468999999999994,0.016095215406763997,4256.721209641376,288.82409250102154,0.0027312675641242255,24.359581626779896,1.0909773180168156,9.284701356875042e-06,-0.044756464422772875,1.5708005306646733
2.773910032999993,2.6340000000000146,0.017575950485533273,4269.907951912828,289.4159107492435,0.0027358193880253462,24.35934305076557,1.0962913163996486,5.26516881802001e-07,-0.0449746137506612,1.5708003427046053
2.977630796000028,2.8310000000000173,0.01934277853986741,4285.651980720377,290.1254467240696,0.0027247686716285243,24.35920669987767,1.099316846169123,-8.49105976337434e-06,-0.04509881826895714,1.5708007957321881
3.1809154279999916,3.0260000000000105,0.021080510925169858,4301.2361147344345,290.8288141607943,0.0026989828058953708,24.35922503051094,1.0989106553407892,-1.5916872331019852e-05,-0.04508214332045943,1.5708018543827624
3.3837899349999816,3.2180000000000177,0.022772139749691788,4316.580531485331,291.5202916987795,0.0026617833071873208,24.359385400048918,1.0953501023843044,-2.1859063531922916e-05,-0.044935975321175894,1.57080338222347
3.5871582809999722,3.4080000000000155,0.024420520794132563,4331.765234954442,292.20160219186073,0.002615828574568247,24.35967495467197,1.088891757783741,-2.6489453445559086e-05,-0.044670849410352695,1.570805270030561
3.7911313430000178,3.6070000000000277,0.026114228269250393,4347.669432002942,292.9101073701873,0.0025603438304145046,24.36010591241197,1.0792077560469233,-3.0152917522833066e-05,-0.04427331069062363,1.5708075496190637
3.9601092199999925,3.774000000000001,0.02750649734563542,4361.016402755962,293.4992875589223,0.002509402220238927,24.36056187988764,1.068866034200088,-3.2391089270625447e-05,-0.04384877955700953,1.5708096427370961
4.168554960999984,3.9700000000000273,0.029103893260380456,4376.681447664014,294.1829393816646,0.0024461133085243373,24.361196713951784,1.0542981934326794,-3.4165491306117286e-05,-0.04325077821084254,1.5708122433607383
4.377921673000003,4.170000000000016,0.030691232241481407,4392.666626593223,294.87022651372695,0.0023791823116401686,24.361942489213895,1.0369226064304469,-3.5166553916009945e-05,-0.0425375407267742,1.5708149937932554
4.623045357000024,4.402000000000044,0.03247696805868521,4411.210072280437,295.65227776044406,0.0023003117463096033,24.36291552038655,1.0138037557018922,-3.548758153028076e-05,-0.041588585791852366,1.570818235014138
4.859827521999989,4.635000000000048,0.034209947883937775,4429.834215198835,296.4190410622892,0.0022214106576410706,24.363988776285378,0.9876750348040675,-3.509503573076295e-05,-0.04051613035309919,1.5708214776040392
5.063971551000009,4.829000000000008,0.03560704530462803,4445.3416504091065,297.04162056614996,0.002156915110996564,24.364941558814667,0.9638849429594538,-3.435310551645639e-05,-0.03953970470350118,1.5708241282329298
5.302317012000003,5.055000000000007,0.03718338673115955,4463.407787361045,297.7471730606621,0.0020839437396110213,24.366101790649388,0.9340959184647785,-3.31484391566463e-05,-0.0383171156746993,1.5708271272388004
5.539554964999979,5.274000000000001,0.03865999756198793,4480.9151819620165,298.40916952592994,0.002016030849347399,24.367262160672862,0.9033198374117428,-3.1741844855172224e-05,-0.03705407641971197,1.5708299183662267
5.745977491000019,5.470000000000027,0.03994094285325287,4496.584606689768,298.9825485248615,0.0019578402224640626,24.368317037412865,0.8744008983279596,-3.0364493206055724e-05,-0.03586730752188438,1.5708323099102766
5.921709138999972,5.6370000000000005,0.041003342789505376,4509.936129125197,299.45622884782364,0.0019103055416407782,24.369220134482322,0.8488594629712569,-2.9145764731955847e-05,-0.034819185937221976,1.5708342634910584
6.163132069000028,5.867999999999995,0.04243083236292644,4528.405214504758,300.0880109980721,0.0018477545373373515,24.370464703351594,0.8123439717871594,-2.7446211145204874e-05,-0.033320797768451905,1.5708368341670216
6.3665573270000095,6.0680000000000405,0.04362933357208304,4544.396519775897,300.6123925742462,0.0017965597477494035,24.37152764637813,0.7798031509307236,-2.6002475899181393e-05,-0.03198557063143076,1.5708389380721797
6.570394438999983,6.2620000000000005,0.044760418904804616,4559.908746155241,301.1004295998376,0.0017494739640527687,24.372537535005037,0.7475741061009576,-2.4655729625375278e-05,-0.030663192632784025,1.5708408730463044
6.773386502999983,6.453000000000031,0.045845314660521094,4575.181713273936,301.5607244818604,0.0017054659680298624,24.37350459367149,0.7153509024681466,-2.339975684871233e-05,-0.029341107918692346,1.5708426814613845
6.977289079000002,6.645000000000039,0.046908680125208255,4590.535244777092,302.0029910844372,0.001663409208032789,24.37444361151462,0.6826066672432605,-2.2218076053397093e-05,-0.02799769835037274,1.5708444096020142
7.1463989179999885,6.812000000000012,0.04781249881305287,4603.890091014335,302.3708918334217,0.0016285311177656567,24.375229708447392,0.6539342538134921,-2.1263126679569012e-05,-0.026821386468831237,1.5708458426854335
7.3504173680000235,7.004000000000019,0.048828388941500274,4619.244689736319,302.77437612586544,0.001590216436582505,24.376094414684854,0.6208659739287629,-2.0251365110090415e-05,-0.025464776148763486,1.5708474168692772
7.53077736900002,7.170999999999992,0.04969275445793936,4632.600425349871,303.1084235550473,0.001558308736854218,24.376810038126237,0.5921029781915343,-1.944545840100058e-05,-0.024284826248311124,1.5708487277210834
7.742304862000026,7.369000000000028,0.05069530102720942,4648.435866891361,303.48406056283574,0.0015220594637108016,24.377612010991523,0.5581095993596645,-1.8578489047811684e-05,-0.022890352805882183,1.5708502168144698
7.9111073340000075,7.536000000000001,0.051522885661930105,4661.79241793137,303.78377395529265,0.0014926907830601157,24.37824773423515,0.5296141804499604,-1.79180723881615e-05,-0.02172145060955076,1.5708514231511246
8.123067719999995,7.7379999999999995,0.0525027737408805,4677.948699484405,304.1255275411829,0.0014584937195180794,24.378965673129134,0.4954660242522654,-1.7200735682903656e-05,-0.02032070809666815,1.5708528276825733
8.332201848000011,7.934000000000026,0.05343218821936648,4693.625534404817,304.4355574445564,0.001426570817397471,24.379608151481364,0.46277461589872515,-1.658343835519055e-05,-0.01897975814029162,1.570854138669173
8.569593729000019,8.157000000000039,0.054465045503712894,4711.462419291723,304.7628876001802,0.0013915716110769792,24.38027437367161,0.4262341234832996,-1.596507462618512e-05,-0.017480965112748915,1.5708555758224372
8.738042517999986,8.323000000000036,0.05521752243116073,4724.740406966983,304.9893612065774,0.0013663381106227303,24.380725976441525,0.39956851076120137,-1.555648579043865e-05,-0.01638723815128704,1.5708566118571032
8.942118760000028,8.515000000000043,0.05607087600937486,4740.098377608026,305.23330963300253,0.001337919389468046,24.381202254659737,0.36936543875897515,-1.5131536004320486e-05,-0.015148441012744316,1.57085777855154
9.144786678999992,8.706999999999994,0.056906519704546805,4755.456638268726,305.4584171881885,0.0013102451593601213,24.38163050139325,0.3399240750398731,-1.4750540167590322e-05,-0.01394090818629586,1.5708589145596723
9.317551294999987,8.867999999999995,0.057593925829119985,4768.335381615934,305.63302460011874,0.001287556038232433,24.381953969599643,0.31587175645718546,-1.446065102807211e-05,-0.0129544213502448,1.570859845842879
9.487592339999992,9.036000000000001,0.05829858531861969,4781.774246816917,305.8018618360742,0.0012643361946376515,24.382258377368725,0.291428929056119,-1.4181452598603956e-05,-0.011951931012616152,1.5708607988275696
9.735374476999993,9.271000000000015,0.05926300885758129,4800.572928944907,306.0157700992851,0.0012325778814967444,24.3826302972515,0.25844587113923584,-1.382494694482871e-05,-0.010599193232101916,1.5708621021159728
9.910652551999988,9.434000000000026,0.0599176511607259,4813.612177617129,306.1493838437953,0.0012110091160991666,24.382853546447194,0.23644759666647447,-1.3596415274335828e-05,-0.009696986515336613,1.5708629871662456
10.113760593999984,9.634000000000015,0.06070528363680066,4829.611412635309,306.29753537079273,0.0011850168085880248,24.383091554271477,0.2104776751931076,-1.3332076677935345e-05,-0.008631902278048246,1.5708640536482668
10.317896722,9.824000000000012,0.06143780737381092,4844.810825416145,306.4227263034416,0.0011607866348729633,24.383283644770653,0.18690465815354243,-1.3093850769429339e-05,-0.007665128930207079,1.5708650477518455
10.520124501999987,10.01400000000001,0.06215534009805047,4860.010353444678,306.5335018454843,0.0011369815068046276,24.383445586149087,0.16442644126110392,-1.2864839618546509e-05,-0.006743262059995893,1.5708660243503971
10.690201969999976,10.173000000000002,0.0627444697944116,4872.730033938423,306.61562256282986,0.0011173759149408745,24.38356001034721,0.14647857615884305,-1.2678270718660066e-05,-0.006007196160983236,1.5708668286188285
10.896660392000001,10.367999999999995,0.06345313069951143,4888.329720983263,306.70382801164726,0.0010937110043258255,24.383676736096213,0.12555330885243046,-1.2453853149387045e-05,-0.005149027103282468,1.570867799360856
11.098610097999995,10.569000000000017,0.06416790144820952,4904.409473627433,306.7811058903302,0.0010697490213191242,24.38377278337864,0.1052601738945837,-1.2225764561431915e-05,-0.004316786139387046,1.570868782239575
11.302005205,10.760000000000048,0.0648325280571549,4919.689295843436,306.8424183115054,0.0010473866493588965,24.38384401202973,0.08721295770451458,-1.201073933324922e-05,-0.003576654989387799,1.570869699465631
11.471387513000025,10.920000000000016,0.06537857143736622,4932.489181081281,306.88528360927785,0.0010289540399516467,24.383890649254383,0.07301880899439504,-1.1831200358150193e-05,-0.002994542694430232,1.5708704554816872
11.70866226999999,11.143000000000029,0.06612359715427023,4950.32906145855,306.93297565890214,0.0010037157736648632,24.383938767618915,0.054636705389154896,-1.1581221450810668e-05,-0.002240680817316529,1.5708714906014563
11.913676468000006,11.335000000000036,0.06675037762093038,4965.688986926541,306.9636287483636,0.0009824159439032402,24.383966937149484,0.04014278105096782,-1.1365859392618696e-05,-0.001646276588203888,1.5708723641668436
12.116708818999996,11.533999999999992,0.0673859891667926,4981.608929378671,306.98611981403275,0.0009607539939033564,24.38398569035577,0.026399422109964203,-1.1142438360627993e-05,-0.001082654019328712,1.5708732525657318
12.286202215999992,11.689999999999998,0.06787439363975849,4994.088894240047,306.9976502630365,0.0009440725074330097,24.383994369377145,0.01654396934609372,-1.0967162926643683e-05,-0.0006784768006980714,1.5708739366960005
12.489344721999998,11.878000000000043,0.06845172417009243,5009.1288596068325,307.0050892438726,0.00092431465454748,24.383999312899427,0.00571438303670266,-1.0756013802544978e-05,-0.00023434998362799867,1.5708747469832818
12.692728353999996,12.078000000000031,0.0690526853989382,5025.128828422589,307.00602282957254,0.0009037065606469835,24.383999554048728,-0.00457509310702819,-1.0531793314213598e-05,0.00018762660092382398,1.5708755921318895
12.863598835999994,12.238,0.06952376292996337,5037.928805728915,307.0021040043451,0.0008875321752249369,24.38399708805258,-0.011883692220039127,-1.0352962121580695e-05,0.0004873559397572502,1.5708762554478408
13.07518595099998,12.437000000000012,0.07009793904397552,5053.848778456539,306.9921592708946,0.0008677939059467144,24.383991888040008,-0.019870856647467728,-1.0131602256311118e-05,0.0008149136388950464,1.5708770649166242
13.244198929999982,12.605000000000018,0.07057272479819231,5067.288755344702,306.9799262324094,0.0008514572354057446,24.383986467050974,-0.025675858434762062,-9.945945477867822e-06,0.0010529797880070258,1.570877734884098
13.421548077000011,12.770000000000039,0.07103031396114969,5080.488732132726,306.9649669934788,0.0008357043087511753,24.38398084488803,-0.030552540685339535,-9.765009722142566e-06,0.001252975117955489,1.5708783809119407
13.633065922000014,12.971000000000004,0.0715763322782843,5096.568703012851,306.9434502658083,0.0008168998452581394,24.383974256223567,-0.03542321993898993,-9.546849786310479e-06,0.0014527243162847342,1.5708791520839294
13.847180032999972,13.170000000000016,0.07210480110728851,5112.4886735036835,306.9192827277718,0.0007986965557684653,24.38396860999043,-0.039117631524324216,-9.333733519758104e-06,0.0016042341839782113,1.5708798986031225
14.057812033999994,13.367999999999995,0.07261892189259699,5128.328644060055,306.8931290131312,0.0007809888313903665,24.38396430359569,-0.04171607650551313,-9.124913319835132e-06,0.0017107978826792364,1.5708806248010179
14.261254470999972,13.569000000000017,0.07312919002278856,5144.408614906079,306.86513849203,0.0007634165566136637,24.383961540208507,-0.04330153392402413,-8.916565614497234e-06,0.001775818407970358,1.570881345446286
14.464723011999979,13.761000000000024,0.07360586070579687,5159.768588688763,306.8376750867774,0.0007470102891197579,24.38396055851195,-0.04385114505750755,-8.721286737418077e-06,0.001798358295291804,1.5708820182753345
14.667769243999999,13.953000000000031,0.07407228621116323,5175.128564948533,306.81009443807136,0.0007309633532625583,24.383961170291418,-0.043509900329245184,-8.529862565938098e-06,0.0017843636800510454,1.5708826763700017
14.870840585999986,14.14100000000002,0.07451926854995011,5190.168544922334,306.78350619416165,0.0007155909125021202,24.383963204567564,-0.04235476642233793,-8.346272408646699e-06,0.00173699101230118,1.5708833068049246
15.078318480000007,14.335000000000036,0.07497068943412606,5205.6885283818865,306.75702785615647,0.0007000763548247183,24.38396661115076,-0.040346204191290085,-8.160970630529552e-06,0.0016546187764530948,1.5708839430696517
15.281807157999992,14.537000000000035,0.07543035777557991,5221.848516260758,306.73103372183454,0.0006842868193334545,24.383971265598305,-0.03742793399423626,-7.97252182674469e-06,0.0015349389284819517,1.570884590612628
15.451292469999999,14.694000000000017,0.07578041741570887,5234.408510799718,306.71229678491267,0.0006722701396625336,24.383975441683063,-0.03460068590262134,-7.829277641963049e-06,0.0014189919633946241,1.5708850834279633
15.65548316799999,14.886000000000024,0.07620018551222085,5249.768508990211,306.6915063999205,0.0006578667732700551,24.383980881643616,-0.03052754272192534,-7.657880527684711e-06,0.0012519501991347646,1.5708856741238237
15.858883648000017,15.087000000000046,0.076630026383089,5265.848512819209,306.67266527979456,0.0006431227224672726,24.383986566616073,-0.025587213516031063,-7.4828320214093725e-06,0.0010493447178262173,1.5708862787913316
16.063314074999994,15.27800000000002,0.07702952884681971,5281.128521700319,306.6579504538398,0.000629429605623097,24.38399155695427,-0.020281869179925662,-7.320663999657102e-06,0.0008317698195101828,1.570886840358482
16.335551071999987,15.539000000000044,0.07756174943117812,5302.008541061508,306.6434998828922,0.0006111944828262307,24.383996954808843,-0.012171044780157965,-7.105450756943354e-06,0.0004991408100378181,1.5708875881957793
16.582284560000005,15.773000000000025,0.07802580581265076,5320.728563979901,306.6367067781678,0.0005953015420733108,24.383999642279946,-0.0041341171204639406,-6.918535174352578e-06,0.0001695423939730889,1.5708882399759863
16.757583421999982,15.936000000000035,0.07834189728053943,5333.768581956009,306.6357245407341,0.0005844803310090995,24.38399992280358,0.001850166093823783,-6.791608346566605e-06,-7.587603626778026e-05,1.5708886837595366
16.96953761499998,16.137,0.07872379698254311,5349.848604968878,306.639007093203,0.0005714080150447136,24.383998097477622,0.009615389600547636,-6.63864506907e-06,-0.00039433172422690256,1.570889219859988
17.18188160599999,16.335000000000036,0.0790916354176486,5365.688626899535,306.64735652342085,0.0005588211318406614,24.383993611969007,0.017641405550378964,-6.491720394727835e-06,-0.0007234826846144061,1.5708897360501768
17.385650194999982,16.539000000000044,0.07946216823215918,5382.008646647642,306.66149248537823,0.0005461436651528193,24.383985866663,0.02624797369985653,-6.344095138283226e-06,-0.0010764424732140382,1.5708902559524367
17.597804001999975,16.738,0.0798155036185067,5397.928660886192,306.6809214921297,0.0005340566903436745,24.383974977670835,0.03492854309329351,-6.203630937099927e-06,-0.001432437228242578,1.5708907516358146
17.807205243999988,16.936000000000035,0.08015929932074688,5413.768667784215,306.7059441344984,0.0005222973027722406,24.38396065928168,0.043798331311193824,-6.067215529232103e-06,-0.0017961921368321687,1.570891233882087
18.019233558999986,17.137,0.08050057041327306,5429.848664875722,306.73728625147106,0.0005106240011704739,24.383942408389874,0.05299399593516466,-5.932018499489913e-06,-0.00217331166944039,1.570891712595112
18.260691635,17.369000000000028,0.08088499733334499,5448.408645653962,306.7810657817999,0.0004974757425404544,24.38391655056481,0.06379190877738514,-5.779933809623747e-06,-0.0026161407296227887,1.5708922517914012
18.430028522999976,17.537000000000035,0.08115718756729035,5461.848618916933,306.81791723947794,0.00048816548217091657,24.38389458583784,0.0716978971707497,-5.6723638452281595e-06,-0.0029403705072553877,1.5708926335931
18.677441810999994,17.773000000000025,0.08153096999168372,5480.7285598108765,306.8770663156439,0.00047537958576181595,24.383859154752635,0.08287638516181924,-5.524733875652867e-06,-0.0033988081799544607,1.5708931579230336
18.887881366999977,17.968000000000018,0.08183239886365223,5496.328489167014,306.9324961880008,0.0004650690662130192,24.383825924876508,0.0921360355617909,-5.405746088995186e-06,-0.0037785535081669066,1.5708935807390383
19.160144473000003,18.226,0.07460007793127006,5516.968170569602,307.00869889626443,-0.0031185062689693126,24.3839759768308,0.03408571951032595,0.08529006507962472,-0.0013978766276786067,1.5710405475222948
19.46538959100002,18.51800000000003,0.1653693103252856,5540.327328683287,306.95831097062353,0.35380222850108095,24.380865259101295,-0.16640072317583962,0.26071083687012037,0.006824226057001325,1.5564022126314137
19.668991017999986,18.710000000000036,0.50044223225849,5555.682930303534,306.82329429361556,0.8533224380013661,24.36732867604096,-0.2908436188309599,0.3454569789316885,0.011927921319890962,1.5359078534597774
19.874800977999996,18.902000000000044,1.1954455301195808,5571.025697296502,306.6109712222964,1.5158996750754767,24.333371388399495,-0.41053751271607203,0.4092337025526365,0.016837140459960046,1.5086959276853937
20.07810946500001,19.10300000000001,2.408196499516637,5587.057059883003,306.30924853629455,2.3471062591379273,24.264973143325093,-0.5306849932393007,0.4594224886665188,0.021765371690673347,1.4744845063341971
20.280667633999997,19.29200000000003,4.079311380659599,5602.080418080273,305.95413890601816,3.231859103861223,24.160448383748026,-0.6381822851359094,0.49488763139384817,0.026175159818301916,1.437935551192743
20.482901207999987,19.477000000000032,6.266227522855773,5616.712462584412,305.5430630704105,4.170680395765017,24.01333704634559,-0.7379193282573004,0.52130868224042,0.030267058091205976,1.3989462981715814
20.687893611999982,19.670999999999992,9.185882299154555,5631.947524930536,305.0483907985781,5.211518167815924,23.805881812775805,-0.8363764120931056,0.5423724775195934,0.03430694065604909,1.3553953769482074
20.934928875000026,19.902000000000044,13.54307004616882,5649.893678016878,304.38008898658273,6.502480075953355,23.482002215343904,-0.9448707956370604,0.5608729516960851,0.03875932425366723,1.3007685116840944
21.14076811199999,20.105000000000018,18.187631351448694,5665.441803479064,303.727210162844,7.664418704671403,23.125116066957432,-1.0320604678346883,0.5727144884516708,0.04233795989590882,1.2508737120942577
21.35162072899999,20.305000000000007,23.525152366797073,5680.509344917471,303.02908363641654,8.819966929414282,22.705837606762945,-1.1102152671390624,0.5814098555182918,0.04554622571083504,1.2004071139242956
21.530444911000018,20.470000000000027,28.500331871643546,5692.721197424386,302.41576580509565,9.77302413599654,22.309218522018448,-1.168855925297281,0.5869081192523766,0.04795373950536603,1.1580229868057337
21.77583094099998,20.704000000000008,36.43723984628725,5709.649743783968,301.4940715757763,11.11283364236347,21.66885682180215,-1.2429917431108388,0.592760599747683,0.05099781274375921,1.0970394495217841
22.026578088999997,20.936000000000035,45.315272781614105,5725.9194594748615,300.52733171424296,12.416084355864111,20.94551441132601,-1.3060364899394994,0.5968970227633584,0.053586849248227174,1.0358188421593737
22.240916172000027,21.137,53.800915614014905,5739.550511875314,299.6533325069573,13.51660735600262,20.249736826538253,-1.3523830964828394,0.5995164700764285,0.05549037746590452,0.9823365246857813
22.41057059100001,21.30600000000004,61.49123164150726,5750.645357699515,298.8961881345753,14.416777500538625,19.616735878996213,-1.3855164934873667,0.601201116804839,0.05685134133983797,0.9371313195170855
22.619818999000017,21.503000000000043,71.07928106535108,5763.1210253595655,297.9920001121139,15.432793823900976,18.82549108847349,-1.4174681890021448,0.6027099535558514,0.0581638663310147,0.884225559406076
22.800483368000016,21.670000000000016,79.71391936176596,5773.286779436862,297.21058099430434,16.26289850568494,18.11149990273264,-1.439152343281664,0.603694251906277,0.059054674041390816,0.8392412058534946
23.014186241000004,21.869000000000028,90.58749020635376,5784.876895990004,296.26548101213683,17.211255883008647,17.21117364868895,-1.4586392852059267,0.6045978306275114,0.05985525801869875,0.7855121353865554
23.217659895999986,22.06800000000004,102.06786332917653,5795.865352986471,295.3094265853463,18.1118172409476,16.259652283431727,-1.471475399890213,0.6052785558018532,0.06038262640397959,0.7316798952129733
23.387297848999992,22.226,111.59506974246992,5804.138239772681,294.54538808527207,18.79063855084022,15.469638089644535,-1.4770430688288858,0.6056990425683844,0.06061137788983062,0.6888819998658472
23.590681861000007,22.41500000000002,123.44336861043968,5813.48752372274,293.62884964536624,19.558294422647233,14.486764042192833,-1.478594894810227,0.6060928207711564,0.06067513640197755,0.6376367182250338
23.759528553999985,22.581000000000017,134.2321415621056,5821.190468649847,292.82404650955567,20.19093093662917,13.591480641982468,-1.4756076277163255,0.6063607416828972,0.06055240182067073,0.5925924882227328
23.96328275000002,22.76800000000003,146.78907323391573,5829.273060654565,291.9205404376693,20.855129546667758,12.54948975987964,-1.4674243961693267,0.6065996076009533,0.06021619077634148,0.5418186600075221
24.179265053999984,22.971000000000004,160.863468965913,5837.317523069887,290.9466621189632,21.51628232528503,11.38053313478937,-1.4534498500750073,0.6042928669071762,0.059642057117719534,0.48663653052166467
24.356403096000008,23.137,172.6894270446382,5843.309504613869,290.1573491298348,22.00551500784771,10.405092061883565,-1.4390359353453468,0.5881035786147008,0.0590498929175137,0.4418010171339133
24.565564102999986,23.335000000000036,187.12534482047178,5849.763650369796,289.2264307164915,22.51081083556321,9.264556718371288,-1.418041021153288,0.5518506008627748,0.058187399715716855,0.39054864089848595
24.768316878000007,23.535000000000025,202.01515271061618,5855.547033029403,288.300682440107,22.927104053551847,8.184693663433125,-1.3921728892163359,0.49968637793810045,0.05712476907186996,0.3430026642005166
24.972676992000004,23.72800000000001,216.6201266104869,5860.479806761239,287.4245062058594,23.241737678905057,7.248799149119704,-1.3623496470410905,0.4379868620656729,0.055899747449703156,0.3024427888752954
25.176053341,23.918000000000006,231.17332127013782,5864.786153681499,286.58171195748145,23.477636050377683,6.451074883571758,-1.3280415402632173,0.3699570298023876,0.05449060892674622,0.2682736595261772
25.379023818000007,24.11700000000002,246.55511215839906,5868.800899292936,285.7235257961285,23.659650480019717,5.757142162915074,-1.2867436727639676,0.2947905911581439,0.052794522988518756,0.23880914647576867
25.582282828000018,24.307999999999993,261.41644423987105,5872.263827990232,284.9269138742738,23.78334771444214,5.233436421906273,-1.2421637218642003,0.22214153131973677,0.0509638137095586,0.21671075587976163
25.788630049999995,24.50200000000001,276.57952262175684,5875.481068285241,284.1479636451339,23.86921633065135,4.839230201718444,-1.192400442575428,0.15061544740951346,0.04892044874927636,0.20014452436164287
25.99274846899999,24.69100000000003,291.3961611970331,5878.40648993388,283.4209483793448,23.922228933824048,4.583268230274243,-1.1402066335457373,0.08516146690632001,0.046777501551471125,0.18941276913052696
26.196667588000025,24.885000000000048,306.63233065512304,5881.275004673184,282.7094290459808,23.952118800667915,4.438602811016852,-1.083635568276835,0.023635215428926205,0.044455077596779094,0.18334925948125536
26.401074392999988,25.085000000000036,322.35323428241907,5884.169133783917,282.0145093998918,23.960533366762256,4.4074944735765085,-1.022882811360063,-0.03285403940087922,0.04196124857035665,0.18203080609554267
26.57136816100001,25.24200000000002,334.69478751961515,5886.444251254856,281.4974389980072,23.95313689045508,4.4584822973512015,-0.9739736708126849,-0.07180407460748148,0.03995377646189716,0.18414390108390588
26.778644066000027,25.435000000000002,349.85738283522124,5889.296382284754,280.89666134484025,23.928984278755657,4.598884862122737,-0.9129213614071673,-0.11328839862519399,0.03744811396318708,0.18999003885352517
27.015205526999978,25.658000000000015,367.3520127199877,5892.730761198081,280.250924673912,23.881423631088072,4.852690300848141,-0.8416995881391663,-0.15265390787078956,0.0345253801682544,0.2005862978519044
27.25294605800002,25.882000000000005,384.8836543248438,5896.39426990626,279.65479719299594,23.812961800564498,5.18935616149551,-0.7699928013409241,-0.18333148210784064,0.03158304080384455,0.2146832077404679
27.42391511300002,26.05000000000001,397.9964821287951,5899.313901067235,279.24232098791265,23.749542230004938,5.479680743572376,-0.7154011558881564,-0.2141334438406083,0.029343170571685163,0.2268758731544116
27.629892799000004,26.241000000000042,412.85824280691037,5902.839579703628,278.81116074649117,23.656514304356428,5.875767139899336,-0.6512660635800551,-0.26262475390868606,0.026711924273741233,0.24356818267072122
27.80256509100002,26.40100000000001,425.2575715680716,5906.001317491913,278.48064964719964,23.554473347961345,6.277571363840772,-0.5986142933289571,-0.29325582693909963,0.024551938976083404,0.26057515474909
28.00639318200001,26.604000000000042,440.9049129793687,5910.333189955226,278.10036423062047,23.395194204570764,6.852725141811852,-0.5333875338930564,-0.3209042102122096,0.021876235300061796,0.28505742013627655
28.186753103,26.771000000000015,453.6920631588114,5914.194653113324,277.81963494668884,23.24056375641492,7.363708324229489,-0.481094585088904,-0.33499428265530135,0.019731210801855033,0.3069567305238612
28.398836156000016,26.971000000000004,468.88801626785687,5919.195201877048,277.52055128047647,23.030416339953966,8.00018454977588,-0.4200314012374987,-0.3433488263823294,0.01722655088164115,0.33445044200560625
28.678335697000023,27.235000000000014,488.7229551294371,5926.441939475926,277.18603336898354,22.71846530631092,8.850644223903872,-0.34188733223579143,-0.34300888981206007,0.014021431040876463,0.3716071874338449
28.85588742599998,27.402000000000044,501.12606618780615,5931.405037354023,277.0088597960932,22.505584501773704,9.380394598212089,-0.2938016600997256,-0.33770192516162595,0.012049245745135218,0.395023568691659
29.059791800000028,27.604000000000042,515.9697437218699,5937.791675136027,276.82930944953745,22.23710712306007,10.001718144822846,-0.2369745749956592,-0.3273649409473894,0.0097186000392369,0.4227839811306535
29.27246119199998,27.80400000000003,530.4891449336695,5944.513121360521,276.68855379950116,21.965767803328212,10.585452232414394,-0.18083651640779227,-0.3285830846594827,0.007416265277612944,0.4491848488515948
29.483904169000027,28.003000000000043,544.7567524501017,5951.575941799333,276.58638064053844,21.674479182112552,11.170547878688785,-0.12356485833446719,-0.35174318990463815,0.005067479672609604,0.4759904291602157
29.730752831000018,28.237000000000023,561.2741922353833,5960.385838278718,276.5126138442609,21.28146928025837,11.902727063393227,-0.060081011241890615,-0.3658198181127994,0.0024639561876637515,0.5100716304195707
29.976179763000005,28.468999999999994,577.338246864026,5969.682370061422,276.4860641176413,20.851645515562716,12.640741051714834,-0.000978229393780243,-0.367711130359605,4.011907407095587e-05,0.5450987714917028
30.213803224999992,28.69300000000004,592.5286023746447,5979.189527179651,276.5019020072376,20.41251962412958,13.338130102709636,0.05276322436823588,-0.36035860400326825,-0.002163846496864256,0.5788982228157844
30.383755510000015,28.852000000000032,603.1128981089058,5986.245053028938,276.5365821696897,20.09331201806804,13.81413495149656,0.08912736131289427,-0.3511882540909475,-0.003655164386233352,0.6024030781455646
30.587201085999993,29.05400000000003,616.3194745832477,5995.558294660447,276.60731194673014,19.685976824443134,14.38832857817547,0.1333161433572937,-0.3360890968098446,-0.0054673875309467716,0.6312759085928049
30.791055622999977,29.247000000000014,628.6852876995918,6004.803878130816,276.701756000689,19.300799225798652,14.900620648819958,0.17352096560433786,-0.3192976260737512,-0.00711624022298341,0.6575624901842707
30.962268161999987,29.402000000000044,638.4405144814883,6012.458628054318,276.7957705320571,18.997802195524944,15.284671527001635,0.20441147596825335,-0.3048930201113595,-0.00838311356244366,0.6776251653211052
31.13215998200002,29.571000000000026,648.9061489018651,6021.017599571129,276.9180466801012,18.66495117820122,15.688871619543908,0.241579843880153,-0.3370740923129653,-0.009907470819873821,0.6990999869916783
31.377887407000003,29.80600000000004,663.131948514998,6033.307087437934,277.1201711468133,18.13885972127686,16.29350487436135,0.28796340242905294,-0.35775456658929483,-0.011809796207532409,0.7319720816931347
31.588164528999982,29.998000000000047,674.4401164738924,6043.700812579952,277.31065140213315,17.669140778388037,16.80110634112284,0.322096053880305,-0.3645765486802363,-0.01320970298375272,0.7603376566936525
31.790362491999986,30.189999999999998,685.4458746956399,6054.4138205476265,277.52161535222353,17.177477458078773,17.30286150131419,0.353140260623728,-0.36350745251100264,-0.014482963589545143,0.789150847724565
31.960889685999973,30.349000000000046,694.3231342119494,6063.522437755979,277.7105243335132,16.761765925305987,17.70538671533407,0.3767496859479919,-0.35793647457750394,-0.015451306451157958,0.8128850279280576
32.19961328599999,30.587000000000046,707.2062452213431,6077.538702813984,278.01511285392655,16.13811144579747,18.274946100260813,0.40885204625001276,-0.34357592390593483,-0.016768011280961028,0.8475285699926796
32.402574748999996,30.77600000000001,717.0898768681467,6088.9785443625915,278.2741387269129,15.651086188817134,18.69322113694064,0.4317877207556331,-0.3286193414164084,-0.017708754601263938,0.8738614584869034
32.608162445000005,30.968999999999994,726.8746177557083,6100.919342312921,278.5527300877026,15.167872924599632,19.086901006991337,0.4530970013728068,-0.31141084513612655,-0.018582802811830387,0.8994274165821676
32.786462891999975,31.137,735.1488819852088,6111.507736570124,278.8075571470737,14.752187293954993,19.409470755290016,0.4742056977279002,-0.3376969903899009,-0.01944863752924012,0.9210098717559748
32.997355288999984,31.335000000000036,744.5914649773583,6124.222025896299,279.1223865289199,14.201162381613047,19.815653454828826,0.49630753503617303,-0.36480881949495103,-0.02035522454170082,0.9490902115699206
33.201387754999985,31.537000000000035,753.8404394798438,6137.469634627816,279.4568419523388,13.585784580253385,20.242060050542158,0.5147020976647285,-0.3783076761266579,-0.02110975697300692,0.9798015007543615
33.38030989499998,31.70500000000004,761.2148708992971,6148.702612889748,279.7433997289413,13.048340175803819,20.592288007004303,0.5272089654377875,-0.3812235241030771,-0.021622787018745895,1.006115983456472
33.590847697000015,31.902000000000044,769.4796094674741,6162.117607019582,280.08729199657023,12.40433243843326,20.986220105726215,0.5390347215100763,-0.37697014442809496,-0.022107883196835765,1.0370849273007423
33.79404888099998,32.10400000000004,777.5214525703943,6176.130190107665,280.44691207041524,11.743703272770185,21.36268016108893,0.5484394007483745,-0.3661009531846882,-0.022493669773797003,1.0682768449219784
34.00621830799997,32.303,785.0176636353866,6190.1705205675025,280.80653797512684,11.105606785469266,21.701072117850142,0.5553583190661885,-0.35073532513703937,-0.022777490832406905,1.097906237119677
34.247889008000016,32.539000000000044,793.3781942531122,6207.093002572841,281.23869401205366,10.375728990902232,22.059151882099403,0.5634910380582472,-0.35770445016557123,-0.02311110548355762,1.1312574336359404
34.42602583500002,32.70300000000003,798.8545341336797,6219.011936260756,281.5450728573369,9.828508748834674,22.308125061648447,0.572213254027602,-0.4049113154856752,-0.023468905002431616,1.155920123903551
34.63669503,32.902000000000044,805.0711367803523,6233.663526067453,281.9222014212179,9.038829080723762,22.6394347689809,0.5788075592760277,-0.45307629626741525,-0.0237394161714131,1.1910516474058808
34.84092362400003,33.10500000000002,810.85139513074,6248.835429682992,282.3093287588359,8.130506403532278,22.981239158300248,0.5804897684581385,-0.48092529270979534,-0.023808423970893167,1.2308664276662682
35.054450815999985,33.30600000000004,815.9579005703954,6264.0786005970385,282.6920201562255,7.167460788751506,23.299632998124558,0.5779826940092857,-0.49146620734502344,-0.02370557863016861,1.272478665389122
35.227453844000024,33.46600000000001,819.5606622782578,6276.35801978071,282.9945559875883,6.380395942543338,23.527452068940967,0.5735876220977042,-0.49000158915870784,-0.023525284306986628,1.3060925275416384
35.463490772,33.69100000000003,823.9274106027249,6293.815208362266,283.4149113451836,5.276775860932716,23.799501444743047,0.5646445743258345,-0.476248303616686,-0.02315842557069836,1.3527243076939497
35.66668840099999,33.88100000000003,826.9853214620802,6308.7006808061515,283.76394134232976,4.371822138386714,23.982459120499502,0.5552312347556501,-0.4565909985664254,-0.022772278033140535,1.3906000396065574
35.86966104499999,34.081999999999994,829.6189957582717,6324.559629328679,284.1263081430157,3.4598727830961584,24.131157646456924,0.5440284613897293,-0.4302347317736005,-0.022312729986375825,1.4285053497227151
36.072568235999995,34.27000000000004,831.5484966963271,6339.471942792195,284.4582197472707,2.6615176254804824,24.232458187948563,0.5326819865087106,-0.4021986376116767,-0.021847291970342464,1.461518355102928
36.27737633700002,34.47000000000003,833.079327512047,6355.394981186563,284.8035341965101,1.8754070454683025,24.306209376775232,0.5200866719522904,-0.37065049546967543,-0.021330631467270388,1.493907674778727
36.45596417399997,34.637,833.9743162547244,6368.722259804238,285.0855147993874,1.2708235794156442,24.34553579986039,0.5092642220785866,-0.3440598192311939,-0.02088669852461376,1.5187605192889602
36.666068067000026,34.835000000000036,834.6210490464539,6384.545803178197,285.41215840278943,0.6151119534398496,24.371190525613436,0.4961508330724427,-0.3133483325694308,-0.02034879760034497,1.5456786882090838
36.86936161199998,35.033000000000015,834.8587657026192,6400.380931972543,285.7303106483989,0.02241226698427262,24.379210003680548,0.4827766428741428,-0.28444159833177285,-0.01980020487703068,1.569993320618192
37.07201816999998,35.218999999999994,834.7439345693609,6415.257752747086,286.0212788058244,-0.48120868308359155,24.374721139213797,0.46996126336443717,-0.25955864850527943,-0.01927453946838174,1.590652196830048
37.24109560800002,35.37600000000003,834.4185687147542,6427.811454782554,286.26626885273004,-0.9043261324629791,24.362127234304598,0.4984043196777061,-0.3116863649571972,-0.02044123151886946,1.6080157654185667
37.444763792,35.57400000000001,833.6675238263995,6443.630352665964,286.609000903897,-1.5766731458302838,24.326474390665656,0.5623179809335589,-0.384780029662321,-0.023062983694909975,1.635635163178259
37.65690462200001,35.76800000000003,832.4659150598231,6459.099726255511,286.98367966956255,-2.380151658162809,24.259637300463957,0.6199452671488096,-0.43923511599510373,-0.025427002842923138,1.6687112250102163
37.859931467000024,35.95400000000001,830.8045124669239,6473.882059075054,287.3759652843538,-3.2522745881795605,24.15683101126425,0.6705829527236845,-0.47711687430156535,-0.02750440752544931,1.704739604243929
38.064761327999975,36.144000000000005,828.5394795330972,6488.906704147222,287.80681508333066,-4.206827219486315,24.007645679190595,0.717641754646978,-0.49836063055479024,-0.0294350952171842,1.744380135045297
38.23508415700002,36.313000000000045,826.0195087259693,6502.1842647357935,288.2133086893186,-5.07767197973838,23.837474748398527,0.7559767759841147,-0.5040382292223808,-0.0310079495368019,1.7807879987780362
38.43753949500001,36.50400000000002,822.5821856328232,6517.064797622974,288.7215760532452,-6.094553339372569,23.593437436755497,0.8863326190746054,-0.5292727383917969,-0.03635694820751333,1.82370230755401
38.653121516,36.70400000000001,818.289672088191,6532.466616532111,289.3382156902405,-7.201811968965391,23.274191698849148,1.0126011698004116,-0.5492110624095522,-0.041539220618649925,1.871001274687145
38.89830513300001,36.935,812.4156412912258,6549.969573824262,290.14947057653785,-8.512398130693128,22.82118215484004,1.14550387183069,-0.5658259867223084,-0.04699497836106399,1.9279324540127554
39.101197829,37.136000000000024,806.4930786382837,6564.899220265387,290.9339530395249,-9.662765932021465,22.35279251209251,1.25023096046545,-0.5763176307619723,-0.05129508388308718,1.9789370981882468
39.305282879,37.33300000000003,799.9513832527563,6579.213957189021,291.7671242165204,-10.783290830883095,21.828797136409243,1.3430228718410147,-0.5815903235185164,-0.05510592059877319,2.029743750055668
39.509204641,37.523000000000025,792.9643880429331,6592.686548708242,292.62437912615843,-11.812365204971785,21.2843361683789,1.42285562725731,-0.5687823939700328,-0.05838518168280955,2.0775706452472393
39.713195903999974,37.71600000000001,785.2320007957501,6606.0199316713715,293.54325093664534,-12.765515617388225,20.72160345795585,1.4953986604447311,-0.5397987440190193,-0.061365549770554126,2.12304909678989
39.91666836500002,37.90500000000003,777.1026983931243,6618.734500430636,294.4852316882925,-13.58039420851323,20.19215851089165,1.5585518318678506,-0.4986655520853233,-0.06396058700741433,2.1629826451134884
40.11946409799998,38.108000000000004,767.8460017567035,6632.0370375663115,295.53827130276494,-14.319542411161656,19.6700020440774,1.6190060905221042,-0.4451727990555864,-0.06644512669579362,2.2001771510431745
40.295739884,38.269000000000005,760.1760719705527,6642.348987498873,296.400974075642,-14.804551875720191,19.303979981561618,1.6616427506515712,-0.39845018731161547,-0.068197647651344,2.2251530518930673
40.542195006999975,38.50300000000004,748.6147531995745,6657.0157468797215,297.6929224402809,-15.364915135650044,18.85614456363581,1.7159985634482684,-0.32797272370281705,-0.07043217316350374,2.2546426431063864
40.77974534499998,38.724000000000046,737.3448064022439,6670.5804326802245,298.94925312615186,-15.753066479053874,18.529074410848366,1.758907042447243,-0.2623213207922441,-0.07219635592445293,2.2755117620015035
41.016652126,38.948000000000036,725.6720208842904,6684.1148754341275,300.25221929040333,-16.03073415553755,18.285949924148756,1.7941721785333067,-0.19972299412785718,-0.07364645086286355,2.290687409296015
41.18632843,39.11700000000002,716.7475631628329,6694.221800231516,301.25121406648884,-16.17574738008025,18.15570327961093,1.8152385845307517,-0.15617240780681246,-0.07451277088658463,2.2987028438000383
41.390121213999976,39.309000000000026,706.5255234025788,6705.6290151095955,302.39910585912673,-16.282578161233772,18.058154272901607,1.8330762885422702,-0.11130981500803364,-0.07524635987289345,2.3046521496730676
41.59596003500002,39.50400000000002,696.0891727613172,6717.164247337371,303.5749164166585,-16.339072454693927,18.00587156134779,1.8446562380905935,-0.07094934995156517,-0.07572261576374713,2.307817728951134
41.80689023299999,39.70400000000001,685.3603696748102,6728.972060202652,304.7869040414116,-16.35177957557394,17.993814013256454,1.8497075359082227,-0.034974557829289495,-0.07593036916718636,2.3085380204168287
42.01926345700002,39.900000000000034,674.8485100233476,6740.545675114252,305.97619505767125,-16.327165558083035,18.01632799437281,1.8479844258929392,-0.004868455950890684,-0.07585949974053048,2.3071660710273703
42.22280824699999,40.10000000000002,664.1472602995702,6752.37853299376,307.1869073203525,-16.27103620039432,18.067890209658312,1.8396141816717486,0.02099624748588831,-0.07551524644993385,2.304031471204544
42.42587629399998,40.29000000000002,654.0219670367093,6763.657250684181,308.33044806616067,-16.193696773140037,18.138650338605768,1.8256518599139562,0.04141944111993891,-0.07494102073646967,2.29972054693079
42.62971608700002,40.483000000000004,643.7914064595764,6775.163861430452,309.4817035129255,-16.09593520823817,18.227432650779573,1.8058307599855463,0.05850493242340711,-0.07412588458282941,2.2942899914137467
42.79842867100001,40.638000000000034,635.6228593839271,6784.448102094293,310.3963153803674,-16.005826036254113,18.308556207632073,1.785989498671292,0.06984999738774697,-0.07330996868390742,2.289304432792279
42.968536141000016,40.80600000000004,626.8228650222399,6794.559145824086,311.37551796245555,-15.898446750910372,18.40431068720916,1.7607370721840294,0.08005789122152594,-0.07227160447140211,2.2833889686505886
43.176602616000025,41.00300000000004,616.5821438789096,6806.485043035897,312.50482843577737,-15.762126776429243,18.524417386395616,1.7264923916987451,0.08960901870488665,-0.07086360877363958,2.2759195942311807
43.422179513,41.238,604.4849420584305,6820.815409473032,313.8212013117907,-15.587974273914934,18.675477107339532,1.679603777448834,0.09813384856475581,-0.06893597588960092,2.2664428604558644
43.633305526000015,41.436000000000035,594.3991373781283,6832.98146200411,314.9008418062474,-15.433729326388935,18.807045242278082,1.6353911871123408,0.10330526580080276,-0.06711859182436938,2.2581101943244715
43.91084472,41.70500000000004,580.8600297429365,6849.648205229502,316.31951914360127,-15.216306530966099,18.988972120207816,1.569206606494442,0.10801588635936014,-0.06439844937996221,2.2464599942309684
44.11984064699999,41.902000000000044,571.0680908892424,6861.956332035841,317.32011856923174,-15.052967894338554,19.122948106506808,1.5167298006163368,0.11012738820496847,-0.06224202747490931,2.237779929596587
44.32299412200001,42.101,561.2845855730246,6874.477236383647,318.2956407732159,-14.885598022628443,19.257848234681255,1.4607220402669574,0.11137878247745024,-0.05994082796961439,2.2289486448941656
44.52582906499998,42.291,552.0462577742471,6886.51406227054,319.1921589767366,-14.724275737684112,19.38561020048154,1.4047338380812298,0.11192792514389242,-0.05764074963121602,2.220495693711471
44.765752099999986,42.516999999999996,541.1886840421097,6900.934581100875,320.21234481296324,-14.531227771232146,19.53559561066637,1.3354323634321894,0.11196501856872651,-0.054794163704711414,2.2104554239086562
44.96959452499999,42.71100000000001,531.9828297517824,6913.40140531167,321.0465266662344,-14.364976097286611,19.6622472568829,1.2739507579976912,0.11161085753033902,-0.052269154762671105,2.20187304003131
45.173206531999995,42.90300000000002,522.9762289016836,6925.818606299987,321.83314408465577,-14.20028359648349,19.785434263067256,1.211607527833831,0.11100990241459856,-0.049709099930614675,2.193428561660313
45.375907805,43.101,513.7966699413374,6938.704376683528,322.6029330907604,-14.030496049968438,19.910076379976363,1.1460781542045055,0.11021616422545809,-0.04701856080485607,2.184781502748401
45.57838178999998,43.29000000000002,505.13745499460384,6951.079539350047,323.29767734074835,-13.868643159261318,20.026685595819025,1.0826157986591318,0.1093558369895717,-0.04441321520313877,2.176592824916617
45.781833174999974,43.48400000000004,496.3533100491659,6963.856550300551,323.969761454998,-13.70280060878265,20.143950713649154,1.016838788715664,0.10841848374992655,-0.04171316326427662,2.168256113177515
45.952056235999976,43.64300000000003,489.23264866155705,6974.383716907992,324.48927983165214,-13.5671290032769,20.23822627359749,0.9626338386572703,0.1076359135188601,-0.03948835732132124,2.1614757256743937
46.19372174199998,43.867999999999995,479.277086933737,6989.3639327715955,325.1760533044301,-13.375595581044601,20.36880771398761,0.8857602176413876,0.10653885039455618,-0.03633346358663392,2.1519628901206627
46.430302368000014,44.10200000000003,469.07275063958923,7005.044264490276,325.8302801676711,-13.176890389728054,20.501205287287686,0.8059760702383708,0.10543928846274658,-0.03305950397045131,2.1421653719406475
46.633598183000004,44.295000000000016,460.7712658254322,7018.053104803558,326.3237936511889,-13.013381431234128,20.607835688648983,0.7405862239290066,0.10457966849651525,-0.030376483458133097,2.1341562885622913
46.803675844,44.45300000000003,454.0523659359776,7028.752793321698,326.6970322193749,-12.879750652269218,20.69344884169545,0.6874984885226474,0.10391283280174586,-0.028198394443318692,2.1276452842986284
47.04120225499997,44.678,444.60365166132095,7044.0655070611765,327.18133633859765,-12.6897519727406,20.81283506745268,0.6128191621963625,0.10302137242340854,-0.025134667553493716,2.1184398298401454
47.244127194999976,44.867999999999995,436.73400768943816,7057.064331321161,327.54759991264615,-12.529547125475503,20.9113968897335,0.5508039131577476,0.1023210865700667,-0.02259066627191643,2.110723944434298
47.41402707999998,45.036,429.858371496963,7068.608605370623,327.83959941374155,-12.388032077513913,20.99688567979286,0.4968993825846948,0.10173809198897146,-0.02037950378522014,2.1039421593922407
47.616831278999996,45.22800000000001,422.0962868127287,7081.859495853152,328.1371055272458,-12.22645913735631,21.09271400730804,0.43654182924969054,0.10111007845694638,-0.017903756207592436,2.0962369087652775
47.819201088,45.41900000000004,414.4756179410804,7095.1007988311385,328.39568468082825,-12.065863121298115,21.186117018676516,0.3779534485364259,0.10051930655152119,-0.015500681699242163,2.0886168874681674
48.02430664000002,45.620000000000005,406.5642472233826,7109.097833453964,328.6287247442045,-11.896975557654867,21.28239431896497,0.3179947057222787,0.09992617590729255,-0.013041492668292045,2.0806435825927005
48.19411404599998,45.77800000000002,400.42380020815204,7120.14489077841,328.7843528447751,-11.764317309396834,21.356642811482406,0.27221694803952423,0.0994752792466489,-0.011163986177374144,2.0744086077769923
48.398996141,45.96800000000002,393.13079738012505,7133.479936410168,328.9404456444974,-11.604895935654936,21.44429907459256,0.21882303869899264,0.09894456587494659,-0.008974163831280295,2.06694716985639
48.600883582999984,46.15899999999999,385.89949239227116,7146.93976674724,329.06430722913456,-11.444756356604275,21.53065489535987,0.16705602383604834,0.09841698166687975,-0.006851105818681877,2.0594855005326176
48.838007463999986,46.38500000000005,377.472501140363,7162.935229118914,329.1697761442561,-11.25548099976011,21.63057652577394,0.10845564482559798,0.09779124060336067,-0.004447836057357761,2.0507077969093004
49.07608148999998,46.61900000000003,368.8947511186576,7179.57403671216,329.2342472637015,-11.059764310210001,21.73150896122506,0.050869155852919616,0.09713173301650933,-0.0020861722011245366,2.041676799128692
49.34804719900001,46.867999999999995,359.9326192729769,7197.363889317189,329.25537827221694,-10.851919224441328,21.83609992988705,-0.006708085009040136,0.09640562663268318,0.00027510075651472285,2.0321345294921622
49.51747240100002,47.037000000000035,353.9460530792283,7209.486137196193,329.24362167851297,-10.711121743793306,21.905465616653824,-0.04362461979832999,0.09589417273403751,0.001789067264912123,2.0256976246134153
49.729199085999994,47.23900000000003,346.89287438738324,7224.025499528176,329.203306904642,-10.543200660114362,21.986657096251406,-0.08535556595252206,0.09525830249031815,0.003500480439442069,2.018048317500713
49.970598843999994,47.46100000000001,339.27012350977174,7240.066111116127,329.1278637703106,-10.35921544767159,22.073733092584234,-0.12813534364458196,0.09452479000378546,0.005254917568978863,2.009700507910372
50.173764601000016,47.65100000000001,332.8523454833254,7253.844415023575,329.0392597526995,-10.202276025069018,22.146483020899087,-0.16220269278531865,0.09386604198723539,0.006652061488471517,2.0026063205384306
50.377211456,47.84200000000004,326.49922578184714,7267.740521302729,328.92940728179053,-10.04508964212581,22.217965291660807,-0.19403190569923737,0.09317335453616232,0.007957428367772678,1.9955245603854697
50.547640855,48.012,320.92693870151606,7280.145965624214,328.8153982375947,-9.905718245433258,22.280207538974718,-0.22034986390347708,0.09253065179628851,0.009036780030601677,1.9892645527276045
50.751316352,48.20300000000003,314.75931163462207,7294.125082514317,328.6702587962811,-9.749810677278173,22.348586664351245,-0.2476325169113711,0.09177864892916765,0.010155706879875347,1.9822824503110295
50.964334769999994,48.40100000000001,308.468386974873,7308.66123488973,328.5024427540132,-9.58901010070437,22.41775170446612,-0.2734041069791949,0.09096599438004264,0.011212673084263564,1.975103364748213
51.16799459700002,48.60300000000001,302.15758717404964,7323.536795846831,328.3147165735851,-9.425911109558916,22.486516015573173,-0.2970744625209693,0.09010284068092173,0.012183472699082539,1.9678439078244923
51.371290527999975,48.79400000000004,296.2900032140772,7337.643954732993,328.1233662065642,-9.272679267544712,22.549864331058945,-0.3170076533757674,0.08925585640062342,0.013001007698200756,1.9610434057340658
51.541201417000025,48.95300000000003,291.47850896270916,7349.417610383068,327.954939784607,-9.145890478369965,22.60137229389842,-0.33183398029636035,0.0885290687035029,0.013609096643113277,1.9554305387276574
51.744558720999976,49.148000000000025,285.66755829029756,7363.893275383879,327.73834579418974,-8.991394074321507,22.66303734639462,-0.34788911508658893,0.08761254949378505,0.014267589769034158,1.9486078466282812
51.94816973000002,49.34200000000004,279.9842054575303,7378.333441765308,327.5132769973183,-8.838880874097585,22.722740493138403,-0.3615319836724472,0.08667436752232745,0.014827149889851609,1.9418903214918184
52.151160584000024,49.543000000000006,274.1976074261612,7393.334193449441,327.2715799592444,-8.682178396585925,22.782885864678125,-0.37329072734913454,0.08567703881981778,0.01530943664715315,1.9350059776406712
52.354456368,49.73700000000002,268.7104626469272,7407.84982672633,327.03151004455674,-8.532265883659502,22.83930074195204,-0.3824088249865798,0.08469201472309461,0.0156834193419341,1.928436275511918
52.56361706000001,49.934000000000026,263.2356284171613,7422.6262087363275,326.7823660204526,-8.3814315193547,22.894963475057384,-0.3894986038158802,0.08367160115176354,0.015974211193784543,1.9218418810480724
52.81076002200001,50.16900000000004,256.83146011146056,7440.299200192839,326.4800220179916,-8.203414774053691,22.95925205256787,-0.39520530324738834,0.0824308929793415,0.016208276151923166,1.9140788165144067
53.015306506,50.358000000000004,251.78041190256877,7454.54846351472,326.23439472338595,-8.061863205207857,23.00936008709981,-0.3939112119666325,0.08141557538988199,0.016155198261506114,1.9079199136551077
53.21886277499999,50.561000000000035,246.45203245878278,7469.887313716752,325.97522120097454,-7.911509885965648,23.061690171795632,-0.3819865764556968,0.08031074675067858,0.015666101125716342,1.9013902190940017
53.423110785999995,50.75300000000004,241.5044272587716,7484.426773278891,325.7376538947683,-7.77090351889569,23.109645941904205,-0.36983636931141706,0.07925634073160584,0.015167755865521526,1.895296993561424
53.62632953899998,50.94400000000002,236.67011314258568,7498.920122005734,325.5091190042546,-7.632604557542104,23.155892583796614,-0.35699063864592573,0.07820034516228284,0.014640887540178272,1.8893159096511098
53.83152821200002,51.137,231.8727989296867,7513.594298576043,325.286545675224,-7.494459305016693,23.201177996459514,-0.3433297282096505,0.0771276755151458,0.014080589026890904,1.8833532504152424
54.07568957699999,51.367999999999995,226.24508626088505,7531.19476179852,325.03174773761685,-7.331300486730149,23.253496448521393,-0.3261780067603396,0.07583839194047431,0.013377122085672884,1.876325766210352
54.27856270500001,51.56900000000002,221.44820260102065,7546.54121493204,324.82078421023556,-7.191274432979443,23.297393110223087,-0.3106481893179071,0.07471347935613752,0.012740182222828913,1.8703071472833905
54.44826225999998,51.72800000000001,217.71899695333283,7558.701285537415,324.6612620980773,-7.08183244603918,23.33105850302853,-0.29801733961008436,0.07382243457476188,0.012222144431269972,1.8656109616481742
54.652092143999994,51.92099999999999,213.26862388076975,7573.484906365045,324.4765574822689,-6.95054710155933,23.370700281477507,-0.28234613964669797,0.07274076784886213,0.011579415189790021,1.859986391072388
54.85567070799999,52.122000000000014,208.72145341403532,7588.907568493931,324.2948087831667,-6.815638430842057,23.41059439742665,-0.2657042329841666,0.07161503336256797,0.010896879192195555,1.8542165167001543
55.06039218400002,52.31,204.548786600743,7603.356327217532,324.1348530445235,-6.691190751154636,23.44664089894911,-0.24990575745908014,0.07056369538668904,0.010248939611047394,1.84890277361381
55.231307930000014,52.46800000000002,201.10105211270664,7615.516425464527,324.0079866275323,-6.587890353054612,23.476013769736007,-0.23650407928059808,0.06968191388202202,0.009699302762029694,1.84449822177845
55.445392137,52.67099999999999,196.74914014840408,7631.16177794469,323.8551589610614,-6.456862192787845,23.512557195347306,-0.21918202273593992,0.06855190936343054,0.008988885558075267,1.8389193706909224
55.62183399899999,52.835000000000036,193.29687119067145,7643.818966733109,323.74015022667703,-6.35243493515503,23.541111720284533,-0.20514718600612825,0.06764169994114581,0.008413288108272809,1.8344793698551813
55.824270238999986,53.03200000000004,189.22380895379314,7659.043066058485,323.61198437369376,-6.228702498486909,23.574292466940037,-0.188297288188554,0.0665523613372134,0.007722242891394458,1.8292255796141348
56.02699017499998,53.22200000000004,185.3709119537952,7673.746266404863,323.49869278242215,-6.111123149520398,23.605169086610484,-0.17211113893544552,0.06550646490276163,0.00705842269591381,1.8242399620533936
56.265203799999995,53.446000000000026,180.92203664759597,7691.104880861409,323.37804496902214,-5.9747034401562455,23.64019691246622,-0.15318205583565692,0.06428046497627724,0.00628211426385981,1.8184637077858474
56.433312462,53.613,177.6699199354684,7704.062819787191,323.29708969256166,-5.874536478097672,23.66537331808822,-0.13922242362568918,0.06337149190807621,0.005709612481857304,1.8142279634413996
56.67736881899998,53.835000000000036,173.43142375428593,7721.309432477626,323.20128250306544,-5.743455061514296,23.697627630512443,-0.12093238673624032,0.062170642337308686,0.0049595182492613715,1.8086918139057229
56.881142431,54.03399999999999,169.71244404768055,7736.788830548821,323.1266128901325,-5.627933435499444,23.725404710381238,-0.10484547882755159,0.061101793296599295,0.004299779042832066,1.8038191282359606
57.11900610499998,54.257000000000005,165.6340907336942,7754.15631604551,323.05532636703833,-5.500726538416183,23.75529108394555,-0.08722996505723865,0.05991333367135008,0.0035773524085737276,1.798460216601863
57.32245544900002,54.447,162.23223471366092,7768.970713410749,323.00466222303015,-5.394194675090465,23.77975711015964,-0.07260571094036293,0.05890900407571208,0.002977601213557054,1.7939775286411956
57.491289688999984,54.61400000000003,159.2964957818917,7782.004166574073,322.967559554298,-5.301943314905396,23.80053034615589,-0.06006935546868283,0.058032658271057844,0.0024634771057616377,1.79009950558186
57.733971381,54.835000000000036,155.48890000173097,7799.26930317511,322.9289196931916,-5.181886596173495,23.826992523329015,-0.0439840635393286,0.056882802558210155,0.0018038097341155767,1.7850577214787764
57.90312410199999,55.00200000000001,152.66883668431853,7812.328305458477,322.90733364008867,-5.092670019452398,23.84623930905558,-0.0322317925033951,0.05602153874317104,0.0013218426339756226,1.7813147261041622
58.15020261400002,55.23700000000002,148.78261765559165,7830.722291821006,322.8876835655239,-4.969297182038847,23.872270007455104,-0.016315880771271916,0.05482089881486261,0.0006691228048524407,1.7761437417329728
58.43110446000003,55.49800000000005,144.5770614517855,7851.174419872937,322.87994934841134,-4.8352677843078204,23.89978328879771,0.0004502960962591809,0.053503912810415395,-1.846653940975646e-05,1.7705325052463272
