Real_time_s,Simulation_time_s,x_ft,y_ft,alt_ft,vx_fps,vy_fps,vz_fps,roll_rad,pitch_rad,yaw_rad,adsb_x_ft,adsb_y_ft,adsb_alt_ft
0.0,0.0,-8.386738162480122e-14,9800.0,300.0,-2.855691769377043e-13,-80.0,3.2138076840535677e-13,4.497471153466608e-15,-4.0172596050669595e-15,-1.5706800000000039,-1.3405346958069195,4275.682978044687,288.04352185838763
0.0386687879999954,0.029000000000053205,-9.214888775620419e-14,9797.680000000017,300.0,7.043612658425063e-08,-80.00000000000001,3.213807656288131e-13,4.497471150569827e-15,-4.017259566400342e-15,-1.5706800000000039,-1.3405346958069195,4275.682978044687,288.04352185838763
0.07224337399998149,0.06200000000001182,1.5108149035334475e-06,9795.040000000035,300.0000000000136,1.7081208470895577e-05,-79.9999999999982,1.4891498896830737e-09,2.1258037933176645e-05,-1.8610630270820086e-11,-1.5706797866609854,-1.3405346958069195,4275.682978044687,288.04352185838763
0.10592649900002016,0.09600000000000364,2.40241648026382e-06,9792.320000000054,300.00000000007105,2.06375251590948e-05,-79.9999999999974,1.8097189262702085e-09,2.5638482112327054e-05,-2.260432707271241e-11,-1.5706797427002228,-1.3405346958069195,4275.682978044687,288.04352185838763
0.17367458100000022,0.1640000000000441,5.21987385195491e-06,9786.880000000092,300.00000000029695,-1.1059808430468002e-05,-79.99999999999943,3.6403471821719844e-09,4.874848697863315e-05,-4.5478488596567557e-11,-1.5706801387779024,-1.3405346958069195,4275.682978044687,288.04352185838763
0.20762403800000584,0.19800000000003593,5.865017372906268e-06,9784.16000000011,300.0000000004712,-4.579390226702074e-05,-79.99999999998724,4.9134121830333285e-09,6.192827054734524e-05,-6.139967568120734e-11,-1.5706805727140596,-1.3405346958069195,4275.682978044687,288.04352185838763
0.24157410300000492,0.23200000000002774,4.918532308313505e-06,9781.440000000131,300.00000000067115,-9.222014159282234e-05,-79.99999999994738,5.598024282843337e-09,6.913559307599417e-05,-6.994526941146717e-11,-1.570681153186194,-1.3405346958069195,4275.682978044687,288.04352185838763
0.34306181400000924,0.3320000000000505,-1.72874072916754e-05,9770.720000000207,300.00000000181177,-0.0003797571848950873,-79.99999999910047,9.104084340148235e-09,0.0001023981830139872,-1.1376933100573812e-10,-1.5706847472746142,3.5172503772897286,9797.297584494641,268.62239384433605
0.41061260700001867,0.4000000000000341,-4.4539793801731786e-05,9765.360000000244,300.0000000025551,-0.0005776564733970216,-79.99999999791733,1.0651542514229425e-08,0.0001160877914181796,-1.3311379043034598e-10,-1.5706872209685723,3.5172119534565414,9794.49758449515,268.622393844438
0.5494022319999772,0.5290000000000532,-0.00013814625700198348,9755.040000000652,300.00000000424103,-0.0010443620846907987,-79.99999999318887,1.2953822333723594e-08,0.0001372082834555945,-1.6189666183455843e-10,-1.5706930547164073,3.517066523075119,9788.89758449754,268.62239384468904
0.6508089870000049,0.6290000000000191,-0.00025592880874701927,9746.960000001465,300.00000000571873,-0.001471109713157495,-79.9999999864824,1.4054379443934555e-08,0.00014966169834638185,-1.756595700196312e-10,-1.5706983890062065,3.5169573430685945,9786.097584499676,268.6223938447949
0.7856463690000055,0.7650000000000432,-0.00048586669598412125,9736.080000003823,300.0000000077951,-0.00210960950497876,-79.99999997219729,1.4601386362885218e-08,0.00016096915614222248,-1.825045095924611e-10,-1.570706370198458,3.4406258152524565,9779.478522721654,268.6883079162207
0.8535898640000141,0.8330000000000268,-0.0006318769262718517,9730.72000000581,300.0000000088147,-0.0024441006846933405,-79.99999996267975,1.4473406567288936e-08,0.00016450472825071944,-1.8090866893178022e-10,-1.5707105513127453,3.439466163631415,9776.660827440797,268.68915368562114
0.9885475849999921,0.9670000000000414,-0.0009953696792313821,9719.92000001188,300.0000000107723,-0.0031432130992812015,-79.99999993827105,1.3528955763498196e-08,0.00016798669824597565,-1.6911052751558426e-10,-1.5707192901722014,3.437070939006787,9771.025436882595,268.6908452241922
1.0597669179999798,1.0290000000000532,-0.0013123332214068264,9712.240000018322,300.000000012038,-0.003651249917230524,-79.99999991670074,1.2393426794692471e-08,0.00016777880253529787,-1.5492127894390587e-10,-1.5707256406034542,3.435296090078842,9767.000157915852,268.69205346580594
1.1617092459999867,1.1310000000000286,-0.0015661647820012475,9706.800000024194,300.0000000128496,-0.004012068764284359,-79.99999989942148,1.1408493305147552e-08,0.00016646878815078286,-1.42612561774484e-10,-1.5707301508211566,3.4340228384514977,9764.182462640989,268.69289923481676
1.229693630999975,1.1990000000000123,-0.0018445813950008956,9701.360000031233,300.00000001358353,-0.00437131425209353,-79.99999988060084,1.0312429719922747e-08,0.00016427315826565966,-1.289143797543772e-10,-1.570734641373341,3.4327238671495315,9761.364767367806,268.69374500372544
1.3648384360000136,1.3330000000000268,-0.002459776035008329,9690.720000048963,300.0000000147637,-0.005061740909097464,-79.99999983990013,7.88565252734665e-09,0.00015771383419905768,-9.858375193386084e-11,-1.5707432716783734,3.34563944578631,9753.368715649085,268.8016862957154
1.4320220189999873,1.400000000000034,-0.0028095087505700567,9685.28000006016,300.0000000152313,-0.005405157300034508,-79.99999981743659,6.595655125520402e-09,0.0001533621612387341,-8.246023848012922e-11,-1.5707475643714321,3.341803591296141,9750.483193564723,268.8056374500503
1.50051599599999,1.4680000000000177,-0.003182514776834278,9679.840000072882,300.0000000156068,-0.005740111102805013,-79.99999979410639,5.280386866601782e-09,0.00014843167952613553,-6.602047736086435e-11,-1.570751751283468,3.3379452635142455,9747.597671482203,268.80958860428905
1.6387210240000059,1.5970000000000368,-0.003952259916487094,9669.520000101502,300.0000000160588,-0.006346683218939984,-79.99999974828802,2.7515867166499105e-09,0.00013771202113103612,-3.4411528205928466e-11,-1.570759333419094,3.3301672670608236,9741.826627322493,268.81749091250657
1.7065877690000093,1.664000000000044,-0.004382419726383751,9664.16000011874,300.0000000161646,-0.006645421862009437,-79.99999972403182,1.470193913581073e-09,0.00013158784144278205,-1.839427120006471e-11,-1.5707630676453403,3.3268095760516703,9739.35332268484,268.8208776159256
1.8426454759999729,1.8000000000000114,-0.0053156085088489295,9653.28000015871,300.0000000161232,-0.0072129360761738716,-79.99999967487948,-9.674749713988619e-10,0.00011826191576624418,1.2077069758750086e-11,-1.5707701615626748,3.350380290313187,9729.55339563578,268.7528005065141
1.9441052459999923,1.9010000000000105,-0.006057335975437372,9645.200000192683,300.0000000158861,-0.007597641915237727,-79.99999963927043,-2.6294370667606655e-09,0.00010780085827114489,3.2852513102228555e-11,-1.5707749703807612,3.3471565907662506,9726.069719749343,268.75412673178397
2.0121055349999892,1.969000000000051,-0.006578196780077683,9639.760000217577,300.00000001563757,-0.007838224146964704,-79.99999961606139,-3.6356541409988133e-09,0.00010058364063256959,4.543106212409609e-11,-1.5707779776566957,3.3439143188614464,9722.586043864836,268.7554529569843
2.149801611999976,2.0960000000000036,-0.007874091380285237,9626.88000028273,300.00000001479617,-0.008344852583895756,-79.9999995648207,-5.746244890211255e-09,8.32414895564572e-05,7.181586732631431e-11,-1.5707843105110006,3.337380507630982,9715.618692101134,268.7581054072045
2.2514575189999846,2.1970000000000027,-0.008428097282057444,9621.600000311766,300.0000000143649,-0.008527486940099542,-79.99999954556206,-6.484829592369345e-09,7.612925211120767e-05,8.104927505232871e-11,-1.5707865934412162,3.3345044808026136,9712.570475706452,268.75926585411327
2.319336605999979,2.26400000000001,-0.00900254930892537,9616.240000342537,300.00000001388236,-0.008697765118321467,-79.99999952723074,-7.170542892022125e-09,6.895763457244544e-05,8.962183591283181e-11,-1.5707887219198984,2.9288383715664335,9701.784599563789,269.31133921817644
2.4536307660000034,2.3980000000000246,-0.010192889993768621,9605.440000408178,300.00000001279,-0.008994781186094827,-79.99999949438785,-8.357717152853136e-09,5.478233734117744e-05,1.0446381356582599e-10,-1.570792434625404,2.8900818696686534,9694.596337687017,269.3583178224629
2.521320951000007,2.466000000000008,-0.010797953245627533,9600.080000442349,300.0000000121974,-0.009119704181570761,-79.99999948024487,-8.859061875986596e-09,4.793953588314063e-05,1.1073172682401372e-10,-1.5707939961659565,2.8719858804356106,9691.241815478983,269.3802411710998
2.5946433679999927,2.529000000000053,-0.011383608322202579,9594.960000475818,300.00000001160356,-0.009224668526739753,-79.99999946821066,-9.249819616820796e-09,4.155884245256427e-05,1.1561720145451728e-10,-1.5707953082234445,2.853884819453588,9687.887293271546,269.40216451972
2.763662910999983,2.6990000000000123,-0.012968597679442598,9581.360000568135,300.0000000099349,-0.009442653195153722,-79.99999944277853,-1.0060842396780432e-08,2.5429193652951557e-05,1.257574092265539e-10,4.712387274137095,2.8150850096644886,9680.699031399878,269.4491431238698
2.8317323680000186,2.7670000000000528,-0.013612142152725938,9575.920000606167,300.0000000092372,-0.009505348573693935,-79.99999943535387,-1.0301745130245785e-08,1.9364953972890405e-05,1.2876952903970239e-10,4.712386490440137,2.2135970284389286,9663.698393130326,270.0350831015075
2.967432161999966,2.9010000000000105,-0.014891295570273263,9565.20000068246,300.0000000078275,-0.009590132182081596,-79.99999942523526,-1.0635861732170987e-08,8.139200898500605e-06,1.3294739162016247e-10,4.712385430635146,2.1422592744624334,9656.562368438277,270.1122864817982
3.0347138939999923,2.9680000000000177,-0.015534624350090651,9559.840000721033,300.0000000071106,-0.009614380668922748,-79.99999942232475,-1.0774521690690147e-08,2.9033791873876044e-06,1.346812223409888e-10,4.712385127523847,2.103846949328062,9652.71989360406,270.1538575327183
3.17080744499998,3.098000000000013,-0.016786260568139103,9549.44000079632,300.00000000570094,-0.00962894706369839,-79.99999942057288,-1.097191248435975e-08,-6.496821966932066e-06,1.3714950768633051e-10,4.7123849454336035,2.0215397928107284,9644.486018958709,270.24293835610655
3.238051631000019,3.1650000000000205,-0.017431652232460897,9544.080000835142,300.00000000496783,-0.009621259254089423,-79.99999942149786,-1.1041836484456391e-08,-1.0953078065714761e-05,1.3802391000283408e-10,4.712385041525714,1.9776472188455627,9640.094619147301,270.2904481285755
3.3054937659999837,3.233000000000004,-0.018085980405096153,9538.640000874493,300.0000000042197,-0.009603582013247864,-79.99999942362189,-1.1106899839987209e-08,-1.520209310764504e-05,1.3883748606007928e-10,4.712385262485572,1.4405841614500932,9618.946995487733,270.1127036607601
3.475082757999985,3.40300000000002,-0.01971443787221869,9525.040000971934,300.0000000023376,-0.009519246970063391,-79.99999943370153,-1.1217211826786357e-08,-2.4605570482744617e-05,1.4021680866530873e-10,4.712386316659678,1.3320448831080187,9610.14002549634,270.18235753327383
3.5432157469999765,3.4700000000000273,-0.020342286125567894,9519.76000100929,300.00000000160213,-0.009472444282066178,-79.999999439257,-1.1253560437706347e-08,-2.7787723096842393e-05,1.4067123518552577e-10,4.712386901688031,1.2777821187968024,9605.736540499836,270.2171844695283
3.677822890000016,3.6000000000000227,-0.021569096917163657,9509.360001081643,300.0000000001489,-0.009360170611686853,-79.99999945247215,-1.1295291650583929e-08,-3.331136087967362e-05,1.4119288815780907e-10,4.712388305098983,1.1692730809648733,9596.929570504926,270.28683834203184
3.7447238340000126,3.6660000000000537,-0.022195437865661867,9504.000001118213,299.999999999399,-0.00929319665094266,-79.99999946028032,-1.1317519586926642e-08,-3.578998452827656e-05,1.4147068850658734e-10,-1.5707961649110755,1.1150278002679046,9592.526085506413,270.32166527828076
3.8799980879999794,3.802000000000021,-0.023452366161548242,9493.12000119083,299.9999999978693,-0.009140904850721228,-79.99999947782663,-1.135308101593661e-08,-4.0080625236238904e-05,1.4191501710488896e-10,-1.570794261273348,1.4151867948870172,9563.989597075502,270.0113270234786
3.9477922149999927,3.8700000000000045,-0.02406373234099863,9487.760001225706,299.9999999971133,-0.009058753766162464,-79.99999948717134,-1.1372849267556966e-08,-4.184099141002906e-05,1.4216199289133645e-10,-1.5707932343894075,1.372070501123507,9558.99590283858,270.03570243224914
4.015209026999969,3.937000000000012,-0.024678535211375884,9482.320001260441,299.9999999963445,-0.008971255274756772,-79.99999949703151,-1.1395366912079246e-08,-4.340154670492259e-05,1.4244332330074438e-10,-1.5707921406626708,1.3289609622281386,9554.002208600914,270.0600778410186
4.151353254000014,4.063000000000045,-0.025801457482106948,9472.240001322996,299.99999999491547,-0.008799627930645261,-79.9999995160942,-1.1417514202339535e-08,-4.5712982467978546e-05,1.427198623564778e-10,-1.570789995328905,1.236607524754695,9543.30143523189,270.112310859806
4.219107792999978,4.131000000000029,-0.026398454085807266,9466.800001355754,299.9999999941419,-0.008703062093726418,-79.99999952665792,-1.1424041301918824e-08,-4.6672442659801605e-05,1.4280129735424747e-10,-1.5707887882596507,1.199675898478762,9539.02112588325,270.1332040673201
4.355201594999983,4.265000000000043,-0.027555328456950662,9456.0800014182,299.99999999261445,-0.008506343160704049,-79.99999954781723,-1.1442636332765554e-08,-4.801340967258072e-05,1.4303342678765262e-10,-1.5707863292798656,0.6224335230798113,9509.48628328145,271.0765215555073
4.422749745999965,4.333000000000027,-0.028132252046856772,9450.640001448775,299.9999999918377,-0.00840410734120213,-79.99999955862276,-1.1439283440243584e-08,-4.8437466552990364e-05,1.429913626131078e-10,-1.5707850513353598,0.5663472334422783,9503.963267788346,271.1244325654351
4.591590914999983,4.5020000000000095,-0.029478258887256272,9437.68000151865,299.9999999899872,-0.008156647474981304,-79.99999958423658,-1.1408429617272408e-08,-4.881722577790005e-05,1.426053399376944e-10,-1.5707819580942344,0.45419701690861436,9492.917236799898,271.2202545852954
4.661838993999993,4.562000000000012,-0.030015109165435993,9432.400001545915,299.9999999892333,-0.008055071879874271,-79.99999959452875,-1.1384166664296115e-08,-4.874172814559098e-05,1.4230193706602032e-10,-1.570780688401669,0.3981332123679034,9487.394221304561,271.26816559522905
4.7289914469999985,4.629000000000019,-0.03056125862381188,9426.960001573347,299.9999999884597,-0.007950427392018998,-79.99999960499702,-1.1356641449948082e-08,-4.854265980235546e-05,1.419577606235744e-10,-1.5707793803478687,0.3340692975379907,9481.082203594742,271.3229210351579
4.864033261999964,4.76400000000001,-0.03162441981450025,9416.160001625687,299.99999998692704,-0.0077437261458736415,-79.99999962527247,-1.1276724326203757e-08,-4.7813375629533044e-05,1.4095860640352055e-10,-1.5707767965863377,0.25920017073014856,9453.391631303506,272.5698448610957
4.931841641999995,4.8320000000000505,-0.03214939503745154,9410.720001651038,299.9999999861598,-0.007640629844518918,-79.99999963518566,-1.1218428142060557e-08,-4.7297923638216045e-05,1.402298235349134e-10,-1.5707755078843704,0.20373863012937968,9447.420128055068,272.6465310903556
5.067898807999995,4.966000000000008,-0.033163426148798775,9400.000001698996,299.99999998465887,-0.007440564932618754,-79.99999965404369,-1.1086840622438062e-08,-4.603360254739843e-05,1.385848542212909e-10,-1.5707730070759895,0.09283641461728681,9435.477121556292,272.7999035488949
5.141361047999965,5.029000000000053,-0.0336382567266522,9394.880001721027,299.99999998394736,-0.00734684932995025,-79.99999966270525,-1.1007851814699247e-08,-4.5327246494081035e-05,1.3759745346090635e-10,-1.570771835632069,0.03739545500089395,9429.505618305997,272.87658977817637
5.209302316999981,5.098000000000013,-0.034128994790665335,9389.520001743509,299.9999999832085,-0.0072500997389685325,-79.999999671532,-1.091691586258115e-08,-4.453312715845124e-05,1.3646071387335575e-10,-1.5707706262633527,-0.018038649288624236,9423.5341150551,272.9532760074666
5.343741869999974,5.232000000000028,-0.03509119588676119,9378.800001786667,299.9999999817497,-0.007061580896206542,-79.999999688395,-1.0699598945110483e-08,-4.279362084864191e-05,1.3374420338512177e-10,-1.5707682697796246,-0.12888810827871264,9411.591108551684,273.1066484660749
5.478448587999992,5.365000000000009,-0.03603539633633449,9368.000001827979,299.99999998031154,-0.0068790543713032415,-79.9999997042987,-1.0448026604643675e-08,-4.0886905429916956e-05,1.3059953345281785e-10,-1.570765988199292,-0.42238241567270446,9386.887159584385,274.4915472087307
5.546630474999972,5.434000000000026,-0.03650174686471244,9362.560001847953,299.9999999795998,-0.006790103709566226,-79.9999997118981,-1.0310528714981554e-08,-3.9885112693767135e-05,1.288808118386775e-10,-1.5707648763164563,-0.48207252901254594,9380.61011340221,274.59626987139694
5.614679125000009,5.5020000000000095,-0.036935088594291426,9357.440001866284,299.9999999789388,-0.006708361369499786,-79.9999997187945,-1.016957952747728e-08,-3.892405324078187e-05,1.2711895385197078e-10,-1.5707638545375193,-0.5502831254724767,9373.43634633633,274.7159529144591
5.7842682460000105,5.668000000000006,-0.0380614057340373,9343.840001912897,299.99999997722995,-0.006500619617596395,-79.9999997359452,-9.740972993704428e-09,-3.6323800808740796e-05,1.217614136585579e-10,-1.570761257765923,-0.6781576942942639,9359.985533086185,274.940358620253
5.852535204999981,5.735000000000014,-0.03849570410669006,9338.480001930526,299.9999999765771,-0.006422565497305314,-79.99999974224977,-9.567065089256626e-09,-3.529311359156218e-05,1.195875873371069e-10,-1.5707602820893811,-0.7378242982786849,9353.708486902136,275.0450812829806
5.987928410999984,5.8700000000000045,-0.03935516546593768,9327.68000196464,299.9999999752994,-0.00627188343566526,-79.99999975420515,-9.162378216572204e-09,-3.323080398496399e-05,1.1452905456489312e-10,-1.5707583985632825,0.4809253092124391,9334.263968260037,273.589688051019
6.055726695999965,5.938000000000045,-0.039780473794250225,9322.240001981216,299.99999997467796,-0.00619930822199575,-79.99999975986212,-8.947403726057584e-09,-3.2207220450434686e-05,1.1184190287557975e-10,-1.5707574913728388,0.45018926576255014,9327.79891598475,273.65861262763985
6.123623625999983,6.005000000000052,-0.04017005375767446,9317.200001996294,299.9999999741139,-0.006134094266760974,-79.99999976488914,-8.757559096034099e-09,-3.127252093900148e-05,1.0946887390024486e-10,-1.5707566761980694,0.4194580508225636,9321.333863709106,273.72753720427744
6.257930304000013,6.136000000000024,-0.04099142427850075,9306.40000202749,299.9999999729478,-0.006000611910791511,-79.99999977501295,-8.329617868738853e-09,-2.932384163915673e-05,1.0411967074211773e-10,-1.5707550076678007,0.3580089643970683,9308.403759156836,273.8653863576026
6.325568929999974,6.204000000000008,-0.041398420042493195,9300.960002042695,299.9999999723835,-0.005936503812011061,-79.99999977979598,-8.106500074867315e-09,-2.837548061549897e-05,1.0133073001763657e-10,-1.5707542063160762,0.32729075199819385,9301.938706880239,273.9343109342907
6.4612267859999974,6.338000000000022,-0.04218788317664905,9290.240002071763,299.9999999713151,-0.005816211348669005,-79.99999978863211,-7.654279198976119e-09,-2.658321701127882e-05,9.567803017046614e-11,-1.5707527026592198,0.33884801771297945,9284.010522858427,273.7835688311955
6.528725300000019,6.40500000000003,-0.04257086044462528,9284.960002085636,299.999999970812,-0.005759791180023575,-79.99999979271419,-7.420926907767075e-09,-2.574095825256615e-05,9.27611560680501e-11,-1.5707519974065285,0.30971545137617285,9277.440293393154,273.8462849883073
6.664122325999983,6.534000000000049,-0.04331450309402577,9274.560002112243,299.99999996986435,-0.005653911259524153,-79.99999980026737,-6.965311823728519e-09,-2.4167414397694285e-05,8.70660216151101e-11,-1.5707506739063684,0.25562194795995913,9265.238438671237,273.96275785156297
6.731472612000005,6.602000000000032,-0.04369247940172776,9269.20000212556,299.9999999694004,-0.005601848459667513,-79.99999980393001,-6.725828902859983e-09,-2.3400873281552076e-05,8.407251272856352e-11,-1.5707500231206986,0.22649966348123876,9258.668209205252,274.02547400872675
6.798483406000003,6.66900000000004,-0.04407257186111457,9263.760002138839,299.9999999689454,-0.0055507125095587495,-79.99999980749442,-6.481864517804606e-09,-2.2655572000255205e-05,8.102298416269734e-11,-1.5707493839206519,0.2015403450253344,9253.036583948513,274.0792307148817
6.967109133000008,6.838000000000022,-0.04500249552112667,9250.240002170802,299.9999999678867,-0.0054305645748330715,-79.99999981574068,-5.861317580662439e-09,-2.0948438986921687e-05,7.32662068509668e-11,-1.5707478820697878,0.40953843899820147,9238.494258842777,275.5475898602332
7.035164948999977,6.906000000000006,-0.04537103151817147,9244.800002183269,299.999999967492,-0.005384825894741675,-79.99999981883252,-5.6100522476248125e-09,-2.0320202633055926e-05,7.012541157770647e-11,-1.5707473103356207,0.3861904261784869,9231.916169896405,275.63866877850603
7.103112399999986,6.974000000000046,-0.04573648102891143,9239.360002195532,299.9999999671131,-0.005340478274076905,-79.99999982180536,-5.3595800539885316e-09,-1.9725458456861512e-05,6.699452926655313e-11,-1.5707467559897,0.35617583756716054,9223.458626965074,275.7557702448825
7.272345157000018,7.136000000000024,-0.04658988979315649,9226.48000222376,299.99999996628713,-0.0052407101976837765,-79.99999982840335,-4.761840597580413e-09,-1.8450654793388057e-05,5.952282921108457e-11,-1.5707455088871796,0.30949596679105845,9210.302449071281,275.93792808152796
7.3396043490000125,7.203000000000031,-0.0467680945109145,9223.760002229614,299.9999999661254,-0.005220481901424743,-79.99999982972595,-4.641628927749479e-09,-1.820505543998188e-05,5.802019045533769e-11,-1.5707452560332147,0.28615997233293927,9203.724360124133,276.0290069998765
7.44088205700001,7.3040000000000305,-0.04746896569380841,9212.96000225235,299.99999996552106,-0.0051428081728615935,-79.99999983475705,-4.1508801064290935e-09,-1.730406977233796e-05,5.188585980034019e-11,-1.570744285110384,1.4791398233120552,9191.121412735763,274.65216421544517
7.508328958999982,7.372000000000014,-0.047818074607759935,9207.520002263547,299.99999996524207,-0.005105174012452207,-79.99999983716756,-3.90587005163268e-09,-1.6895335390008514e-05,4.8823247451962814e-11,-1.5707438146827863,1.4819553661778024,9184.517201735,274.7107184858285
7.678775100999985,7.538000000000011,-0.04865972139535617,9194.240002290198,299.9999999646301,-0.005017050404527885,-79.99999984274267,-3.3137284104759536e-09,-1.6018980238411306e-05,4.1421501475915733e-11,-1.5707427131365685,1.4875939097848805,9171.308779733012,274.82782702664696
7.746822566999981,7.606000000000051,-0.04900032473484295,9188.800002300839,299.9999999644082,-0.004982135990723731,-79.9999998449247,-3.071977328417949e-09,-1.5704965736801672e-05,3.839962445138453e-11,-1.5707422767057921,1.4904167962458135,9164.704568731795,274.8863812970817
7.883112889000017,7.742000000000019,-0.04966958460344075,9178.000002321563,299.99999996401465,-0.004915193854408732,-79.99999984906569,-2.6063085372588504e-09,-1.5156733038287228e-05,3.2578783816564455e-11,-1.5707414399280286,1.4960694295445316,9151.49614672894,275.00348983800075
7.951085089000003,7.809000000000026,-0.050003302625328,9172.560002331797,299.99999996384025,-0.0048823938610208445,-79.99999985107421,-2.3748279162026797e-09,-1.4916188480180887e-05,2.968528410501799e-11,-1.5707410299276479,2.8398651606866934,9149.497115017797,273.245505221036
8.018722773999968,7.8770000000000095,-0.050329933277472975,9167.200002341731,299.999999963684,-0.004850606701973763,-79.9999998530079,-2.1457355244168595e-09,-1.4700857329747173e-05,2.6821636473887435e-11,-1.5707406325877287,2.871250040885762,9142.972860648828,273.26555048516735
8.154310100999965,8.012,-0.050962452716912,9156.720002360818,299.99999996342365,-0.0047898143306401774,-79.99999985667088,-1.7150953749875182e-09,-1.4337417635619557e-05,2.1438647134069673e-11,-1.570739872682311,2.934026576214637,9129.92435191049,273.30564101347875
8.222444015000008,8.075000000000045,-0.05128767991669939,9151.280002370544,299.9999999633095,-0.004758886454286203,-79.99999985851667,-1.4973256700117807e-09,-1.4176299382171122e-05,1.8716531160514716e-11,-1.5707394860835153,2.965418028298781,9123.400097541135,273.3256862776567
8.357507500999986,8.210000000000036,-0.05192244039441951,9140.560002389313,299.9999999631298,-0.004698958404432369,-79.99999986205916,-1.0682437995109235e-09,-1.3908240250800699e-05,1.3353017058024175e-11,-1.5707387369822774,3.032692777680004,9109.419552463522,273.3686404152322
8.425051252999992,8.27600000000001,-0.052236823117384104,9135.200002398547,299.99999996306116,-0.004669444352524799,-79.99999986378732,-8.645760167220651e-10,-1.3796488664878776e-05,1.0807173750095576e-11,-1.5707383680563574,0.6357900225569239,9107.110956142802,276.6470644541615
8.594111692000013,8.44500000000005,-0.05301649074233744,9121.760002421153,299.9999999629487,-0.004596484126890545,-79.99999986801265,-3.563552864283557e-10,-1.3572374673231659e-05,4.454423166924009e-12,-1.570737456052938,0.5948402621690815,9094.167270926397,276.8270955143916
8.62752255800001,8.478000000000009,-0.05317279626098399,9119.040002425636,299.99999996293604,-0.004581873814710066,-79.9999998688508,-2.554350293567051e-10,-1.3535712796917348e-05,3.192921415713049e-12,-1.5707372734239309,0.5743684444989773,9087.695428318017,276.91711104452736
8.694470641999999,8.537000000000035,-0.0535977573460364,9111.600002437799,299.9999999629195,-0.004542138057978957,-79.99999987111678,8.743510750745171e-12,-1.344879134763392e-05,-1.093065033966464e-13,-1.5707367767266938,0.5509747443661005,9080.299036765437,277.0199859361289
8.862982955999996,8.705000000000041,-0.05420364513611111,9100.880002454887,299.99999996293843,-0.004485329212739945,-79.9999998743221,3.9456895057093943e-10,-1.3352555126261545e-05,-4.932120391860516e-12,-1.5707360666158259,0.510042121664576,9067.355351548073,277.2000169964728
8.930652118000012,8.773000000000025,-0.054508211474506504,9095.440002463396,299.99999996296697,-0.0044566664482780394,-79.99999987592402,5.851235500928231e-10,-1.3314772763116602e-05,-7.314051150687328e-12,-1.5707357083311413,0.7310670879260408,9066.334646591502,274.89325496988755
9.066567857999985,8.909000000000049,-0.05511150840318263,9084.560002480112,299.9999999630621,-0.004399595721028049,-79.99999987908302,9.54065307789771e-10,-1.3257248340354645e-05,-1.1925820331033928e-11,-1.5707349949468412,0.7004432348685646,9053.590086542914,274.97046080983733
9.134657376999996,8.977000000000032,-0.05541024966008292,9079.120002488318,299.9999999631287,-0.004371160277937514,-79.99999988064181,1.1306636124736268e-09,-1.3235846193389801e-05,-1.4133298063610355e-11,-1.570734639503721,0.6851343112157525,9047.217806518458,275.0090637298301
9.20222696999997,9.037000000000035,-0.05567219652611006,9074.320002495462,299.999999963199,-0.004346116861098754,-79.99999988200629,1.2845330252215748e-09,-1.3220476796792178e-05,-1.605666502654048e-11,-1.5707343264609577,0.6698274794393555,9040.845526493886,275.047666649835
9.338318507999986,9.172000000000025,-0.05639777000311983,9060.88000251506,299.9999999634418,-0.004276146051979668,-79.99999988577699,1.6995158006824677e-09,-1.3188429862777131e-05,-2.1243948162836656e-11,-1.570733451825725,0.6370339515161914,9027.19064072659,275.1303871927412
9.439974029999973,9.272000000000048,-0.056683857373993965,9055.520002522693,299.99999996355746,-0.00424829090354057,-79.99999988726107,1.8598465016233358e-09,-1.3178978004495634e-05,-2.3248081624805675e-11,-1.5707331036363463,1.3174689581943966,9025.499221675007,275.74597645477985
9.574627915000008,9.407000000000039,-0.05725464292792929,9044.720002537775,299.99999996382496,-0.004192227169856163,-79.99999989021866,2.1739189788902635e-09,-1.3162480547564185e-05,-2.7173987381432603e-11,-1.570732402839658,1.3169933403625103,9013.820473932861,275.8410998762635
9.642537868999966,9.475000000000023,-0.05753510873025693,9039.36000254511,299.9999999639733,-0.004164429379985814,-79.99999989167054,2.324079722025517e-09,-1.3154585956813608e-05,-2.905099675208476e-11,-1.5707320553672908,1.3167401533598553,9007.531917456172,275.8923201801546
9.777687234999973,9.604000000000042,-0.05807396348975097,9028.960002559046,299.99999996428903,-0.004110541228163637,-79.99999989445757,2.606629939979931e-09,-1.3137760015066565e-05,-3.258287492132519e-11,-1.5707313817654258,1.3162399536952332,8994.95480450248,275.9947607879675
9.844936879999977,9.672000000000025,-0.05835305413192821,9023.520002566187,299.9999999644682,-0.004082378982728176,-79.99999989589968,2.7527604250418256e-09,-1.3127469612493466e-05,-3.440950635776513e-11,-1.5707310297373862,1.315957646921242,8987.767882814474,276.053298278163
9.912609687999975,9.740000000000009,-0.05863022992869097,9018.080002573226,299.9999999646584,-0.004054236936984573,-79.99999989733085,2.8943590656861507e-09,-1.3115694629785382e-05,-3.617948981972651e-11,-1.5707306779618486,2.137824001028209,8986.928442111335,275.063946662616
10.048024510999994,9.875,-0.059174829922134756,9007.280002586942,299.99999996506284,-0.003998438420055992,-79.99999990013923,3.1601105744793704e-09,-1.3086774523556827e-05,-3.95013847808451e-11,-1.5707299804804702,2.1735668354582875,8974.46205280979,275.1215815011345
10.11593047499997,9.942000000000007,-0.05943832772674134,9002.000002593528,299.9999999652736,-0.003971201155947616,-79.99999990149598,3.282679037244552e-09,-1.3069464347986531e-05,-4.103349118009334e-11,-1.570729640014716,2.191314508266489,8968.273065213132,275.1501945415468
10.250785732999987,10.073000000000036,-0.05995993598961681,8991.440002606403,299.9999999657183,-0.003916830945327543,-79.9999999041765,3.5234747000710336e-09,-1.3027770522865134e-05,-4.40434383274741e-11,-1.5707289603871875,2.2242799075364683,8956.779231104789,275.2033330451927
10.318624370000009,10.14100000000002,-0.060225856376468254,8986.000002612884,299.9999999659593,-0.0038888848047379573,-79.99999990553991,3.644922106119805e-09,-1.3002333391858996e-05,-4.556153162709527e-11,-1.5707286110604866,2.23949706577799,8951.474384593132,275.22785850842314
10.454961963000017,10.277000000000044,-0.06074815346413574,8975.200002625535,299.9999999664628,-0.0038335597743869134,-79.99999990821023,3.872526395325479e-09,-1.2943278020969693e-05,-4.840658675713162e-11,-1.5707279194977248,1.654070843016677,8942.880622449286,275.509995228305
10.522299231999966,10.344000000000051,-0.06113783488456083,8967.040002634825,299.9999999668623,-0.0037919206309940303,-79.99999991019475,4.0386899366487576e-09,-1.2890835703926193e-05,-5.0483632161290855e-11,-1.570727399008522,1.6589987465116682,8935.903303180385,275.54825005832316
10.624234504000015,10.446000000000026,-0.06139526444902424,8961.6000026409,299.9999999671397,-0.0037642500900296532,-79.99999991150156,4.145285742924551e-09,-1.2852088339682181e-05,-5.181608051379067e-11,-1.5707270531268218,1.6633128895723621,8929.798148819984,275.581723034597
10.760070449000011,10.573000000000036,-0.06187097152173098,8951.440002652049,299.99999996767576,-0.003712795735700334,-79.99999991390617,4.328384723577057e-09,-1.2771426471559963e-05,-5.4104819225452906e-11,-1.5707264099475102,1.6725638610839615,8916.715675190278,275.65345084091956
10.828346575000012,10.64100000000002,-0.06211932378860216,8946.080002657785,299.9999999679678,-0.003685772503751247,-79.99999991515577,4.425657984523319e-09,-1.2724677005550474e-05,-5.5320735699709845e-11,-1.5707260721571696,1.6762667834087972,8911.482685738281,275.682141963457
10.895435545999987,10.70700000000005,-0.06236586669070036,8940.720002663456,299.9999999682662,-0.003658845465233524,-79.99999991639187,4.517619844630808e-09,-1.2675030395868427e-05,-5.647025962499005e-11,-1.570725735569244,1.6818238606396512,8903.63320156016,275.7251786472717
11.031159058000014,10.843000000000018,-0.0628571698297285,8929.920002674611,299.9999999688861,-0.0036048989461213445,-79.999999918841,4.6971804905007044e-09,-1.2566559599370417e-05,-5.871476903154485e-11,-1.5707250612378685,1.993557047923236,8897.39873988177,275.6307563836521
11.13294896299999,10.944000000000017,-0.0632235622194235,8921.760002682837,299.9999999693696,-0.0035644413435910443,-79.99999992065389,4.823015746864677e-09,-1.2477351510928283e-05,-6.02877106393055e-11,-1.570724555517916,2.0043088488121805,8891.403405372377,275.6609064660765
11.26855558799997,11.074000000000012,-0.0636845348035986,8911.360002693045,299.9999999700031,-0.00351329609916214,-79.9999999229164,4.9732896294381865e-09,-1.2355144374284866e-05,-6.216613526055802e-11,-1.5707239162024589,2.0242815453938756,8880.269212711872,275.7168994763061
11.33636734800001,11.142000000000053,-0.0639230323047169,8905.920002698258,299.99999997034234,-0.0034867347688342645,-79.9999999240785,5.048038725550921e-09,-1.2287706744444888e-05,-6.310049945274979e-11,-1.5707235841858762,2.035038713943483,8874.273878202253,275.74704955874427
11.471919319999984,11.277000000000044,-0.06439117651858674,8895.120002708407,299.9999999710299,-0.003434428152335677,-79.99999992634116,5.1847329275143075e-09,-1.2147156972107607e-05,-6.480917783619806e-11,-1.5707229303532548,2.5617154624336003,8867.282981164144,272.8518909357527
11.539544214999978,11.345000000000027,-0.0646243170664842,8889.680002713416,299.99999997138343,-0.0034083035959106074,-79.99999992745843,5.246913944054673e-09,-1.2073279985598885e-05,-6.558644092437955e-11,-1.570722603796339,2.5866574906309205,8860.536712280975,272.81268535884647
11.675448856000003,11.481000000000051,-0.06508528599861366,8878.800002723181,299.99999997210153,-0.0033565258080522527,-79.99999992964763,5.368858156063109e-09,-1.1919943490474357e-05,-6.711074421810142e-11,-1.5707219565740616,2.6303117390642035,8848.73074173519,272.7440755992732
11.742972414999997,11.54400000000004,-0.0652930682157473,8873.840002727515,299.9999999724355,-0.0033331460427827343,-79.99999993062517,5.4237908727199505e-09,-1.184771725858262e-05,-6.779740339708779e-11,-1.5707216643270234,2.652141571470104,8842.827756462179,272.70977071949216
11.810446495000008,11.611000000000047,-0.06551933062169059,8868.40000273222,299.99999997280486,-0.003307655112262151,-79.99999993168316,5.478390474497526e-09,-1.1767181576475024e-05,-6.847989864934985e-11,-1.570721345690421,2.6770921355739747,8836.081487578658,272.67056514260355
11.945100448000005,11.744000000000028,-0.06595359108639798,8857.840002741108,299.9999999735326,-0.0032586666421929008,-79.99999993369367,5.581227163057438e-09,-1.1607007686375676e-05,-6.976535759499084e-11,-1.5707207333345945,2.4744413505640095,8827.865227902064,273.15113947858146
12.046499342999994,11.844000000000051,-0.06627829318910815,8849.84000274768,299.99999997409367,-0.0032219949420722624,-79.99999993517906,5.651301551963771e-09,-1.1482817336163283e-05,-7.064128760910665e-11,-1.5707202749383726,2.490957604432693,8822.02409480974,273.12873793193427
12.182002974,11.980000000000018,-0.06671723147875737,8838.880002756445,299.9999999748729,-0.003172382556842152,-79.99999993716185,5.73787699944927e-09,-1.1309546753759146e-05,-7.172348080409445e-11,-1.57071965478359,2.521635203645179,8811.176276209524,273.0871350595957
12.249365866000005,12.038000000000011,-0.06679338276874662,8836.960002757964,299.9999999750105,-0.0031637727756005348,-79.99999993750284,5.749241046333677e-09,-1.1278862714134365e-05,-7.186553141334584e-11,-1.5707195471613309,2.538156385967994,8805.335143117009,273.0647335129548
12.384794774,12.174000000000035,-0.06732720445083205,8823.360002768459,299.9999999759933,-0.003103429554165376,-79.99999993986653,5.827245428933557e-09,-1.1059735413631094e-05,-7.284058608915362e-11,-1.570718792871085,2.5712039251752197,8793.652876931772,273.01993041967893
12.452768675000016,12.242000000000019,-0.06753787078376583,8817.920002772555,299.99999997638963,-0.0030796148791000385,-79.99999994078685,5.8528168653038016e-09,-1.0971405522712526e-05,-7.316022896851836e-11,-1.570718495187653,2.5877302223352796,8787.811743839056,272.99752887304334
12.520878203999985,12.310000000000002,-0.06774692055129984,8812.48000277655,299.9999999767881,-0.003055989102955122,-79.99999994169285,5.882749526920691e-09,-1.088283853508891e-05,-7.353438713824311e-11,-1.5707181998654551,0.636950456100521,8786.492030132398,274.4907243263592
12.656106164999983,12.444000000000017,-0.06815417866532597,8801.760002784275,299.99999997757845,-0.003009991719980792,-79.99999994343679,5.927420117142505e-09,-1.070801568394738e-05,-7.409276925059405e-11,-1.5707176248981698,0.5814700932874676,8774.149722556025,274.5126939649375
12.724139185000013,12.512,-0.06832851271981753,8797.12000278756,299.99999997792185,-0.0029903144642203883,-79.99999994417473,5.9387686570144975e-09,-1.0632383674580467e-05,-7.423462585711327e-11,-1.5707173789324713,0.5555818204538069,8768.389979020289,274.5229464629422
12.791691715000013,12.569000000000017,-0.06862647619632951,8789.120002793105,299.9999999785171,-0.0029567221721555344,-79.99999994542335,5.963551319128061e-09,-1.050228541578976e-05,-7.454440886554912e-11,-1.5707169590288155,0.5259972924111823,8761.807414979374,274.5346636035201
12.960117427,12.736000000000047,-0.06902051043056119,8778.400002800327,299.9999999793168,-0.002912332108998613,-79.99999994705169,5.990200524947558e-09,-1.0328890921437078e-05,-7.487752352696017e-11,-1.5707164041530133,0.4779267407804373,8751.11074841273,274.55370395695996
13.027629605000016,12.80400000000003,-0.06921820586727223,8772.960002803917,299.9999999797242,-0.0028900842726556617,-79.99999994785853,5.999658451123824e-09,-1.0241463495059894e-05,-7.499574737469101e-11,-1.57071612605505,-0.6690350534388212,8748.542417502227,275.8202327635402
13.095498581000015,12.872000000000014,-0.06951192180823619,8764.8000028092,299.9999999803377,-0.0028570645873082024,-79.99999994904464,6.007085797813141e-09,-1.0111219533097896e-05,-7.508858884593014e-11,-1.5707157133089682,-0.7477221390626833,8739.602447610187,275.8789563380297
13.263869381999996,13.035000000000025,-0.06987855424953847,8754.480002815722,299.99999998111355,-0.002815918257533025,-79.9999999505036,6.005070392220403e-09,-9.948378303841597e-06,-7.506339579993688e-11,-1.5707151989798245,-0.8478638344545649,8728.224304111025,275.95369543283306
13.330653525000002,13.102000000000032,-0.07006690042047851,8749.12000281906,299.9999999815165,-0.0027948047897900633,-79.999999951244,5.997488524341149e-09,-9.864718945876186e-06,-7.496862218894681e-11,-1.5707149350614644,-0.9122374601276303,8720.909783290032,276.00174199377665
13.432854125000006,13.203000000000031,-0.0703481631710429,8741.040002823938,299.99999998212394,-0.0027633110723993145,-79.99999995233811,5.990670081395509e-09,-9.739901964706866e-06,-7.488339124267019e-11,-1.5707145413899752,-0.9694564309129639,8714.407987004637,276.0444500479474
13.500047285999983,13.271000000000015,-0.07053574467262388,8735.600002827172,299.99999998252974,-0.002742330851409089,-79.99999995306011,5.98218231553228e-09,-9.656815673257806e-06,-7.477729389469487e-11,-1.5707142791371975,-1.3926434910372956,8709.002475316913,278.79813241702453
13.601810463999982,13.373000000000047,-0.07081445094208921,8727.440002831949,299.9999999831385,-0.00271119577349195,-79.99999995412135,5.963085981354831e-09,-9.533689525243474e-06,-7.453858930535622e-11,-1.5707138899487,-1.4839856687400732,8700.074919376999,278.94926428911066
13.772173836999968,13.537000000000035,-0.07125325553354592,8714.400002839304,299.9999999841097,-0.002662273968886521,-79.99999995576441,5.9304743098116796e-09,-9.340940752470836e-06,-7.413094275124333e-11,-1.570713278426103,-1.5919309949319858,8689.524171447867,279.12787468338956
13.839452365999989,13.603000000000009,-0.0714313272132096,8709.04000284224,299.9999999845064,-0.002642451858649223,-79.99999995642163,5.918042871636065e-09,-9.263181437337632e-06,-7.39755494968947e-11,-1.5707130306497077,-1.6500533925733187,8683.842999485958,279.22404951107575
13.975224212,13.739000000000033,-0.07178873112341323,8698.1600028481,299.99999998530853,-0.0026027161678355767,-79.9999999577243,5.874048094069258e-09,-9.108052902212392e-06,-7.342561422409862e-11,-1.5707125339535364,-1.766293872845979,8672.480655561996,279.4163991664421
14.043180635999988,13.80600000000004,-0.07196281996528146,8692.800002850936,299.9999999857021,-0.002583388045904421,-79.99999995835083,5.847786271537639e-09,-9.032999301463355e-06,-7.309734117675606e-11,-1.5707122923519945,-1.9058758997531462,8668.924724249478,280.98492711829084
14.17784586099998,13.941000000000031,-0.0723071307003724,8682.080002856459,299.9999999864831,-0.002545207658025514,-79.99999995957472,5.794756030893096e-09,-8.885606313912702e-06,-7.24344626417344e-11,-1.57071181509711,-2.0259475275203864,8657.62259222279,281.2413701512191
14.244969524999988,14.007000000000005,-0.07246469197232278,8677.120002858992,299.9999999868415,-0.0025277580959212932,-79.99999996012801,5.762243721877934e-09,-8.818658369336968e-06,-7.202805853248921e-11,-1.5707115969775662,-2.0774052142477997,8652.778821354166,281.3512743081853
14.31260637600002,14.07000000000005,-0.07263628693984239,8671.680002861669,299.9999999872331,-0.0025087715776133286,-79.99999996072569,5.7347267217195124e-09,-8.746108471301584e-06,-7.168409577443301e-11,-1.5707113596460691,-2.154589852864391,8645.513165051172,281.5161305436309
14.481946800999992,14.239000000000033,-0.07305718684900994,8658.16000286822,299.9999999881959,-0.0024622460105740078,-79.99999996217126,5.645987192454176e-09,-8.569844344222452e-06,-7.057485105761534e-11,-1.5707107780764389,-2.274650520550185,8634.211033024154,281.7725735765368
14.549952976999975,14.307000000000016,-0.0732243351862708,8652.720002870796,299.99999998857953,-0.0024437911140372495,-79.99999996273715,5.605815480198804e-09,-8.50050002255611e-06,-7.007270441639172e-11,-1.570710547390214,-1.623019881751783,8629.968730010796,281.39431780499865
14.617874467999968,14.375,-0.0733902309261067,8647.28000287332,299.99999998896,-0.0024254859965037374,-79.99999996329426,5.565344590228475e-09,-8.432053662120025e-06,-6.95668180586374e-11,-1.5707103185762277,-1.667532066871895,8624.367080740674,281.5112086436609
14.753804117000016,14.510000000000048,-0.07370391142628657,8636.880002878048,299.9999999896799,-0.002390904633874389,-79.99999996433527,5.488660235836167e-09,-8.303675644222287e-06,-6.860826319077181e-11,-1.5707098863091615,-1.7565525733468876,8613.163782200318,281.7449903209761
14.821629212000005,14.572000000000003,-0.07386383530325319,8631.520002880434,299.99999999004694,-0.002373293232121346,-79.99999996485967,5.442741868017676e-09,-8.238747919837733e-06,-6.80342833834374e-11,-1.570709666166624,-1.8137773832995046,8605.961661710011,281.8952785421003
14.922919605999994,14.673000000000002,-0.07410269326818687,8623.440002883957,299.9999999905947,-0.0023469967513796127,-79.99999996563548,5.37931019789322e-09,-8.14242559761946e-06,-6.724138720191853e-11,-1.5707093374605914,-1.8582841578839084,8600.360012439725,282.0121693807487
15.058226923999996,14.809000000000026,-0.07442015481936988,8612.56000288856,299.99999999132075,-0.002312071173544559,-79.99999996665248,5.288298872454865e-09,-8.015540881365606e-06,-6.610374523798198e-11,-1.5707089008908377,-1.13232238190064,8591.576408984247,282.48099594097266
15.126108693999981,14.87700000000001,-0.07457710992764716,8607.12000289083,299.999999991679,-0.0022948134426445162,-79.99999996714939,5.2387807000354755e-09,-7.953278080056923e-06,-6.548476789376202e-11,-1.570708685169187,-1.1594162163109583,8586.011320801166,282.60326663122834
15.262107643999968,15.013000000000034,-0.07487843661224144,8596.560002895096,299.9999999923653,-0.0022616971184048268,-79.99999996809252,5.141612200750677e-09,-7.834581924713669e-06,-6.42701612941246e-11,-1.5707082712151053,-1.213600300580581,8574.881144434907,282.84780801172747
15.330107822000002,15.077000000000055,-0.07503197248819458,8591.120002897265,299.99999999271404,-0.0022448339016070454,-79.99999996856751,5.0882042526189105e-09,-7.774510072710825e-06,-6.360256177014945e-11,-1.5707080604248818,-1.2406904990666192,8569.316056251728,282.9700787019708
15.46664201499999,15.213000000000022,-0.0753356184753165,8580.2400029015,299.9999999934004,-0.0022114872036769007,-79.99999996949624,4.975036483050693e-09,-7.656476367755647e-06,-6.218796432282456e-11,-1.570707643591132,-1.2948674937981437,8558.185879885275,283.21462008244526
15.534562944000015,15.28000000000003,-0.07548354229871722,8574.88000290354,299.99999999373307,-0.002195247388427882,-79.99999996994353,4.918718837944021e-09,-7.599321924674207e-06,-6.148399360643496e-11,-1.570707440593429,-1.5323897154752573,8553.404012285797,283.7436601961173
15.602768001000015,15.348000000000013,-0.07570666291837778,8566.72000290659,299.99999999423244,-0.002170754878466104,-79.99999997061182,4.829937385357922e-09,-7.5135001881622834e-06,-6.037422522166204e-11,-1.5707071344370362,-1.5641056098934443,8547.840389631183,283.87507544433595
15.77192458799999,15.51600000000002,-0.0759788166262732,8556.640002910233,299.99999999483623,-0.002140886628271467,-79.99999997141673,4.724198057715942e-09,-7.409426511077063e-06,-5.905248335036893e-11,-1.570706761083886,-1.6275339267010989,8536.713144321851,284.13790594076005
15.839605356999982,15.576000000000022,-0.07612415173571815,8551.2000029122,299.99999999515643,-0.002124943970886396,-79.99999997184176,4.6587166255190145e-09,-7.354100359972773e-06,-5.82339653111567e-11,-1.570706561800658,-1.6592463745065849,8531.149521667143,284.2693211889653
15.975658173,15.712000000000046,-0.07640948073314872,8540.40000291591,299.9999999957796,-0.0020936318068422786,-79.99999997266733,4.540777871447379e-09,-7.245949971260828e-06,-5.6759730630884817e-11,-1.5707061703985872,-1.7181380805575113,8520.81707959404,284.5133780784768
16.043796501999964,15.779000000000053,-0.07655160777351906,8534.960002917776,299.9999999960871,-0.0020780354316030365,-79.99999997307397,4.47668415488456e-09,-7.192271558528109e-06,-5.595855905055018e-11,-1.5707059754438872,-1.224462455143708,8516.555526798751,283.42154803540365
16.17895542399998,15.91500000000002,-0.07683269329941855,8524.080002921404,299.999999996688,-0.0020471869713130876,-79.99999997386935,4.344245698537204e-09,-7.086442918707555e-06,-5.4303078110144775e-11,-1.570705589838115,-1.2707616677546802,8503.907445754174,283.6609416496794
16.280589119000012,16.01400000000001,-0.0770265368266868,8516.480002923867,299.99999999709854,-0.002025913032144757,-79.99999997441093,4.253902432662758e-09,-7.01369192604634e-06,-5.317378712916201e-11,-1.570705323913863,-1.2939091198953367,8497.583405231837,283.78063845680754
16.348541135999994,16.077000000000055,-0.07716406702574782,8511.04000292563,299.9999999973871,-0.0020108203691680485,-79.99999997479169,4.182080629867806e-09,-6.962167537676209e-06,-5.227601448542943e-11,-1.570705135255567,-1.3170552421433035,8491.259364709464,283.90033526392955
16.416676832000007,16.146000000000015,-0.07730057228462249,8505.600002927344,299.9999999976708,-0.0019958338894483893,-79.99999997516696,4.111157666628393e-09,-6.911096495585947e-06,-5.1389477340295375e-11,-1.5707049479245625,-1.337306926702899,8485.725829252362,284.0050699701554
16.551343686999985,16.281000000000006,-0.07756856435941899,8494.800002930642,299.99999999821995,-0.001966409213588612,-79.99999997589563,3.980164056203535e-09,-6.810982173706478e-06,-4.9752057009609565e-11,-1.5707045801160984,-1.263762417848653,8475.115943220946,283.99385068909567
16.653497680999976,16.383000000000038,-0.07776842621356969,8486.640002933134,299.99999999862257,-0.0019444594485106901,-79.99999997643215,3.8679390424242414e-09,-6.73641325992006e-06,-4.834924419191939e-11,-1.5707043057440235,-1.2815441861323873,8469.593977231205,284.09379167773864
16.788894736999964,16.51800000000003,-0.07801605612738788,8476.400002936072,299.9999999991122,-0.0019172576830098795,-79.99999997708865,3.7462132166633e-09,-6.644098008475424e-06,-4.682767119328299e-11,-1.5707039657219406,-1.3145648507475325,8459.338897535914,284.2793963709191
16.856952739999997,16.579000000000008,-0.07814429943277679,8471.040002937609,299.9999999993621,-0.0019031722999102514,-79.99999997742498,3.67588199743548e-09,-6.59630956102014e-06,-4.5948530862887206e-11,-1.5707037896546447,-1.3323436908421116,8453.8169315461,284.3793373595474
16.92461859499997,16.646000000000015,-0.07827160040806254,8465.680002939147,299.9999999996074,-0.001889183645630454,-79.99999997775653,3.6008694727512707e-09,-6.548886852348894e-06,-4.501087421974814e-11,-1.57070361479646,-1.350121557256503,8448.294965556264,284.4792783481709
17.05952785300002,16.78000000000003,-0.07852527081300849,8454.880002942093,300.00000000008566,-0.0018613018782000978,-79.99999997841009,3.4658561414181925e-09,-6.454371030921369e-06,-4.332320741351649e-11,-1.5707032662743545,0.11386609107652194,8435.767711209297,281.81819520087276
17.16059642800002,16.882000000000005,-0.07871444901112357,8446.720002944281,300.000000000436,-0.0018405014690508436,-79.99999997889132,3.3595806189520643e-09,-6.383849872912182e-06,-4.199476326612625e-11,-1.5707030062692313,0.12855875902156746,8430.249483421705,281.85576470774
17.228448248999996,16.950000000000045,-0.07883939178154313,8441.28000294574,300.0000000006627,-0.0018267609340391576,-79.99999997920625,3.282731729676098e-09,-6.337241145535518e-06,-4.103415207204472e-11,-1.570702834512538,0.14325236173638137,8424.731255634084,281.8933342146025
17.363338353000017,17.08000000000004,-0.0790756440255217,8430.880002948385,300.00000000108224,-0.0018007770323803826,-79.99999997979539,3.1504254943176014e-09,-6.249039323771201e-06,-3.9380323981757647e-11,-1.5707025097137555,0.17474185876448733,8412.906481803395,281.9738403007182
17.431073622999975,17.148000000000025,-0.07919609562603158,8425.520002949721,300.00000000129313,-0.0017875240202916529,-79.99999998009262,3.0815443297142237e-09,-6.204031706943506e-06,-3.8519309351751804e-11,-1.5707023440510985,0.19153805143336994,8406.599935760329,282.01677687996977
17.498936691999972,17.215000000000032,-0.07937777467612266,8417.360002951757,300.00000000160384,-0.0017675309797330406,-79.99999998053686,2.9698647815089236e-09,-6.136080404756526e-06,-3.712331489221253e-11,-1.5707020941380834,0.20623571452630843,8401.081707972618,282.05434638681
17.668181325999967,17.384000000000015,-0.0796133596469247,8406.640002954335,300.0000000019944,-0.0017415984347588693,-79.99999998110563,2.825126426319074e-09,-6.047827168168513e-06,-3.531408531441658e-11,-1.5707017699812607,1.5707959987417421,8391.072888341838,278.4156216184909
17.735864295,17.451000000000022,-0.0797315881374409,8401.20000295559,300.0000000021862,-0.0017285815971750966,-79.99999998138794,2.7593188556392554e-09,-6.003474482356431e-06,-3.4491490611508334e-11,-1.5707016072707853,1.6260019033183999,8383.986662820966,278.3632131406447
17.871049098000015,17.581000000000017,-0.07995514235782931,8390.80000295799,300.0000000025384,-0.0017039660493057738,-79.99999998191603,2.622260129280525e-09,-5.919491983954896e-06,-3.2778256401637434e-11,-1.5707012995764265,1.7057464487693084,8373.751003735213,278.2875120059633
17.93886612099999,17.649,-0.08006911816977472,8385.440002959229,300.0000000027118,-0.0016914116210274984,-79.99999998218246,2.5462172082154084e-09,-5.876618832539979e-06,-3.1827719825053844e-11,-1.570701142646068,1.7425526839585581,8369.026853387917,278.25257302072026
18.006369037000013,17.716000000000008,-0.08018393961017324,8380.000002960434,300.0000000028846,-0.0016787630843337707,-79.99999998244887,2.4724952270652235e-09,-5.833380631705198e-06,-3.090619499596952e-11,-1.5707009845393545,1.791628715527258,8362.727986258165,278.20598770705675
18.141640252000002,17.852000000000032,-0.0804110126966239,8369.120002962743,300.0000000032143,-0.0016537430836363516,-79.99999998297001,2.342538817936174e-09,-5.747732915325473e-06,-2.928173975645613e-11,-1.5707006717893357,0.6660457732719312,8352.1172559067,279.3530933609061
18.20963921599997,17.920000000000016,-0.08052327690912221,8363.680002963898,300.0000000033728,-0.0016413711199324088,-79.99999998322475,2.2713469885695397e-09,-5.705318534492794e-06,-2.8391841828109344e-11,-1.5707005171397843,0.6834441082798024,8346.599469851144,279.33824644298755
18.379296209000017,18.08200000000005,-0.08078733778732727,8350.72000296665,300.000000003731,-0.0016122705912859738,-79.99999998381656,2.0910914680709356e-09,-5.605375396607711e-06,-2.6138647674161738e-11,-1.5707001533831635,0.7207292490687826,8334.775642589184,279.3064316188606
18.447177742999997,18.150000000000034,-0.08089518005293772,8345.360002967687,300.00000000387,-0.0016003819797323863,-79.99999998405528,2.028571232699099e-09,-5.56449862744737e-06,-2.535714467404783e-11,-1.5707000047755146,0.735644372049176,8330.046111684376,279.2937056892039
18.514351338999973,18.216000000000008,-0.0810022271086895,8340.000002968725,300.00000000400587,-0.0015885813093028047,-79.99999998429047,1.9674845664451146e-09,-5.523882087518351e-06,-2.4593561288666695e-11,-1.5706998572671296,0.7555322158347121,8323.74007047795,279.27673778298856
18.650408236999965,18.352000000000032,-0.0812171011218368,8329.12000297083,300.0000000042674,-0.0015648886374295152,-79.99999998475744,1.832881250192813e-09,-5.442229059424371e-06,-2.291101972040372e-11,-1.5706995611087216,0.9498675554888144,8313.250123924357,279.5908931120734
18.71817469299998,18.41900000000004,-0.08132021453951285,8323.840002971852,300.00000000438746,-0.0015535184578157793,-79.99999998497904,1.7622667781992186e-09,-5.4029892370571896e-06,-2.202833876603039e-11,-1.5706994189814716,0.9707089606223941,8307.728857435563,279.58331158260313
18.85369061900002,18.54400000000004,-0.08156554854168353,8311.12000297422,300.0000000046575,-0.0015264686671068056,-79.99999998549976,1.5989427875225797e-09,-5.3094903972761035e-06,-1.9986788746358586e-11,-1.5706990808590753,1.0153719310981055,8295.89757210237,279.56706544800886
18.954502247999983,18.64500000000004,-0.08166917258869116,8305.680002975172,300.0000000047653,-0.0015150401479937005,-79.99999998571704,1.540164845841919e-09,-5.269958690725926e-06,-1.925206442147061e-11,-1.5706989380025815,1.0332381360960645,8291.165057969078,279.56056699416524
19.089329098000007,18.78000000000003,-0.08182165176309819,8297.600002976586,300.0000000049176,-0.0014982216292934907,-79.99999998603377,1.4475329755759884e-09,-5.211731669769018e-06,-1.8094165966991228e-11,-1.570698727771091,1.6181263097128862,8280.336422656346,276.7508263864116
19.157287757000006,18.848000000000013,-0.0819233582411213,8292.160002977536,300.0000000050143,-0.0014870034568523244,-79.9999999862431,1.3819145855842917e-09,-5.172847718338453e-06,-1.72739360381937e-11,-1.570698587543931,1.6462151515461985,8275.594621929113,276.69198471781493
19.291903014000013,18.982000000000028,-0.08207153934460334,8284.160002978935,300.00000000514956,-0.001470658238831634,-79.99999998654523,1.2819986319382432e-09,-5.116147158676161e-06,-1.602498654064942e-11,-1.5706983832286983,1.711758051030971,8264.530420232186,276.55468749107786
19.358619616999988,19.03800000000001,-0.08225300741253522,8274.24000298062,300.00000000530383,-0.0014506474557501284,-79.99999998691058,1.1582589589641546e-09,-5.0466534414565485e-06,-1.4478240536819283e-11,-1.5706981330939014,1.7445306509122473,8258.998319383703,276.4860388777031
19.426430545000017,19.10600000000005,-0.0823514842846806,8268.80000298147,300.0000000053815,-0.001439783895777232,-79.99999998710683,1.1032087316437436e-09,-5.0089097264417865e-06,-1.379011264335996e-11,-1.5706979972993969,1.7773040360737486,8253.466218535204,276.41739026432384
19.561854101999984,19.241000000000042,-0.08254480726276674,8258.000002983159,300.00000000552507,-0.0014184575524720006,-79.99999998748778,9.888897854153744e-10,-4.93475599743073e-06,-1.236112571477679e-11,-1.570697730720095,1.6109156681763266,8241.030990291598,278.14558433538025
19.629722920000006,19.309000000000026,-0.08263827213673627,8252.720002983984,300.0000000055897,-0.001408146629472382,-79.99999998766997,9.290464544580585e-10,-4.8988767171556905e-06,-1.1613084029148574e-11,-1.5706976018335528,1.6389865831456323,8235.389281889597,278.11756044895384
19.76573248599999,19.442000000000007,-0.08282873992958356,8241.840002985684,300.0000000057101,-0.001387136253900512,-79.999999988037,8.036611761874584e-10,-4.825716793505713e-06,-1.0045767955131727e-11,-1.570697339203849,1.690386013690675,8225.059393266187,278.06624910759894
19.833491366999965,19.511000000000024,-0.08290908350305173,8237.200002986408,300.0000000057561,-0.001378272351744682,-79.99999998819023,7.480689713977339e-10,-4.7948369034648745e-06,-9.350865351129278e-12,-1.5706972284050673,1.7180636928845632,8219.497145545874,278.0386199237871
19.967904585999975,19.636000000000024,-0.08309414771016088,8226.400002987946,300.0000000058505,-0.0013578630936571226,-79.99999998853927,6.385101414553886e-10,-4.723695687202569e-06,-7.981379885429026e-12,-1.5706969732893317,1.7734212100116973,8208.372650105206,277.9833615561523
20.069272314999978,19.738,-0.08323215585799314,8218.240002989069,300.0000000059139,-0.0013426389278349863,-79.99999998879622,5.621778451622875e-10,-4.6706233230413e-06,-7.027226115630559e-12,-1.5706967829872518,1.8090097134140053,8201.221188750464,277.9478383198074
20.137196898000013,19.80600000000004,-0.08332330059118326,8212.800002989818,300.00000000595196,-0.0013325846245384975,-79.99999998896432,5.094605764456324e-10,-4.635556176298503e-06,-6.368260211292486e-12,-1.570696657308456,2.233825261184202,8195.177806506641,274.5638189619759
20.205193367999982,19.874000000000024,-0.08341243496575956,8207.440002990556,300.00000000598476,-0.001322752265895367,-79.9999999891275,4.5669914275390453e-10,-4.601254405756617e-06,-5.7087422464547764e-12,-1.570696534403968,2.2700401548288505,8189.60691923005,274.4640060596127
20.373973535000005,20.03000000000003,-0.08361871870908455,8194.880002992284,300.0000000060496,-0.0013000056611361796,-79.99999998950035,3.27491459677119e-10,-4.521873989949475e-06,-4.0936461111448275e-12,-1.5706962500713986,2.3424720397696217,8178.46514467683,274.26438025487425
20.441861285000016,20.098000000000013,-0.08370567394117205,8189.520002993022,300.00000000606997,-0.0012904144356604755,-79.99999998965563,2.7140993914724135e-10,-4.4884039307610495e-06,-3.3926270602073992e-12,-1.5706961301810751,2.378689014393904,8172.894257400207,274.1645673525001
20.577013429999965,20.232000000000028,-0.08387894093208527,8178.720002994384,300.0000000061014,-0.0012713047210118197,-79.99999998996162,1.6710080154878438e-10,-4.421708788199511e-06,-2.088762756084528e-12,-1.570695891309632,2.4511249671473716,8161.752482846927,273.96494154774257
20.64459905199999,20.299000000000035,-0.08396270950854166,8173.440002995013,300.0000000061122,-0.0012620661706543208,-79.99999999010791,1.2503207002490566e-10,-4.389464560554532e-06,-1.5629035719216399e-12,-1.5706957758277484,2.2239913786887793,8155.512034336426,274.81772983159897
20.71184415900001,20.36500000000001,-0.08404712705975259,8168.080002995651,300.00000000612,-0.0012527568010188496,-79.99999999025421,8.314796305474165e-11,-4.356969938186886e-06,-1.0393521950921158e-12,-1.5706956594606236,2.254518013260232,8149.928418179107,274.73850026420405
20.847681577999992,20.501000000000033,-0.08424990171253113,8155.0400029972025,300.0000000061263,-0.0012303968184928466,-79.99999999060127,-2.6255593209343536e-11,-4.278922419059022e-06,3.2819235178422755e-13,-1.570695379960831,2.3242956556924628,8137.1658669623375,274.5574041101456
20.95495728200001,20.597000000000037,-0.08433342710788581,8149.6000029978495,300.0000000061231,-0.0012211857045687003,-79.99999999074241,-7.347903819748533e-11,-4.246772827078177e-06,9.184854537939784e-13,-1.570695264821902,2.3504631548313477,8132.379910256034,274.4894930523689
