Real_time_s,Simulation_time_s,x_ft,y_ft,alt_ft,vx_fps,vy_fps,vz_fps,roll_rad,pitch_rad,yaw_rad
0.0,0.0,-6.555107140943325e-16,4000.0,280.0,5.329070518200751e-15,24.384,-7.948728991342361e-12,-1.0474060834943565e-16,3.25981339868043e-13,1.5709126535897928
0.0386687879999954,0.029000000000053205,-1.484797167069417e-16,4002.320000000005,279.99999999999864,3.5527129872178138e-15,24.384000000000004,-7.943630563594055e-12,-1.0474060037542767e-16,3.257691508500193e-13,1.5709126535897928
0.07224337399998149,0.06200000000001182,-1.3602256106265524e-06,4004.960000000011,280.0000000000106,-4.630183834564149e-06,24.38399999999957,4.920133367787159e-11,1.889544092531576e-05,-2.017770836415414e-12,1.5709128434759412
0.10592649900002016,0.09600000000000364,-2.157004847910092e-06,4007.680000000017,280.0000000000217,-5.584259379467398e-06,24.38399999999937,7.449236705627794e-11,2.278904693409179e-05,-3.0549720552889648e-12,1.5709128826039904
0.17367458100000022,0.1640000000000441,-4.683125940728119e-06,4013.1200000000294,280.00000000009817,2.994493864715863e-06,24.38399999999983,2.1822125470048023e-10,4.332508756027951e-05,-8.949364734250464e-12,1.5709125307859666
0.20762403800000584,0.19800000000003593,-5.269823095601706e-06,4015.8400000000356,280.0000000001641,1.2394335234709584e-05,24.383999999996867,3.329101899933062e-10,5.503915182711939e-05,-1.3652812163960065e-11,1.5709121452940686
0.24157410300000492,0.23200000000002774,-4.438014086699334e-06,4018.5600000000413,280.0000000002283,2.4970218053512448e-05,24.383999999987232,4.1064923379561027e-10,6.144928741891124e-05,-1.6840930132909233e-11,1.5709116295514227
0.34306181400000924,0.3320000000000505,7.014029477999103e-06,4026.5600000000595,280.000000000523,7.913008450892421e-05,24.383999999871612,7.282643644649512e-10,8.501500991296623e-05,-2.986648450255258e-11,1.5709094084293866
0.41061260700001867,0.4000000000000341,2.6046831821692186e-05,4032.0000000000464,280.0000000007808,0.0001289199457312804,24.38399999965921,9.120331926092532e-10,9.795725748712766e-05,-3.740293648125904e-11,1.5709073665230366
0.5494022319999772,0.5290000000000532,9.626796636353611e-05,4042.319999999833,280.0000000013665,0.0002479734378290775,24.383999998739128,1.1411896742503723e-09,0.00011822879466024071,-4.680075858104482e-11,1.570902484081088
0.6508089870000049,0.6290000000000191,0.00018781972126513305,4050.319999999327,280.0000000018611,0.0003585838375403327,24.38399999736339,1.2056507960711315e-09,0.00013028682094916303,-4.944434174158213e-11,1.5708979478940588
0.7856463690000055,0.7650000000000432,0.0003735222463078875,4061.199999997779,280.0000000025159,0.0005279271759269204,24.383999994285045,1.1306112064561086e-09,0.00014230577772751728,-4.636693120923206e-11,1.5708910030399563
0.8535898640000141,0.8330000000000268,0.0004954504176418094,4066.639999996447,280.0000000028076,0.000619024155631259,24.38399999214258,1.0209657400815634e-09,0.00014647615178743048,-4.1870316160605783e-11,1.5708872671076235
0.9885475849999921,0.9670000000000414,0.000796731533485796,4077.3599999922435,280.00000000326156,0.0008071849769148516,24.38399998663986,6.701662737335198e-10,0.00015147060419201728,-2.748385456122649e-11,1.5708795505388047
1.0597669179999798,1.0290000000000532,0.0009647852044098766,4082.319999989426,280.00000000340015,0.0008968430028582116,24.383999983507074,4.626183122544472e-10,0.00015247225223191023,-1.8972208908605605e-11,1.5708758736185233
1.1617092459999867,1.1310000000000286,0.001280588063409105,4090.479999983382,280.0000000035159,0.0010461467388851676,24.38399997755859,7.164300268930896e-11,0.0001525117951900104,-2.9381160183842084e-12,1.5708697505978768
1.229693630999975,1.1990000000000123,0.0015189930478895532,4095.919999978195,280.000000003508,0.0011460470219065483,24.383999973067926,-2.1490051000135588e-10,0.00015155052968329717,8.813176520495146e-12,1.5708656536374184
1.3648384360000136,1.3330000000000268,0.002054212482593081,4106.639999964885,280.0000000032742,0.001341458852517005,24.38399996310056,-8.213972110725893e-10,0.00014757309000864002,3.3685909489882156e-11,1.5708576397006213
1.4320220189999873,1.400000000000034,0.0023539912148404173,4111.999999956545,280.0000000030475,0.001437520486647031,24.383999957626624,-1.1315156423045728e-09,0.00014468332919681705,4.640402144029214e-11,1.5708537001649658
1.50051599599999,1.4680000000000177,0.0026797187623690388,4117.439999946843,280.0000000027431,0.00153335777006119,24.38399995178836,-1.4431224569161647e-09,0.00014122224471765777,5.91831726990755e-11,1.5708497698300141
1.6387210240000059,1.5970000000000368,0.003356239204854645,4127.759999924728,280.00000000196434,0.0017090514000256405,24.38399994010712,-2.025292643619407e-09,0.00013336849726202477,8.305826363600062e-11,1.570842564546248
1.7065877690000093,1.664000000000044,0.003736557682195177,4133.11999991125,280.00000000146076,0.0017967191203644805,24.383999933804976,-2.3105155795091917e-09,0.000128735779348017,9.475539912439952e-11,1.5708389692490852
1.8426454759999729,1.8000000000000114,0.00456664604628751,4143.99999987962,280.00000000024966,0.001965694858218851,24.383999920768627,-2.8287479968434506e-09,0.00011841390454881058,1.1600836887252705e-10,1.5708320394692963
1.9441052459999923,1.9010000000000105,0.005230978846107269,4152.079999852364,279.99999999920556,0.0020825619308238114,24.38399991106744,-3.1741766792205105e-09,0.0001101265460269625,1.3017457222558575e-10,1.5708272466919497
2.0121055349999892,1.969000000000051,0.005699742702922271,4157.519999832187,279.9999999984411,0.002156826198625135,24.383999904611667,-3.3818362593724796e-09,0.0001043335468409578,1.3869079625391688e-10,1.5708242010769982
2.149801611999976,2.0960000000000036,0.006618847457383042,4167.679999790648,279.99999999690016,0.0022851423579692376,24.38399989292417,-3.6997041760497216e-09,9.319534028097507e-05,1.5172671759532694e-10,1.5708189387667406
2.2514575189999846,2.1970000000000027,0.007386578801252179,4175.75999975421,279.99999999559213,0.0023777422462359734,24.38399988407036,-3.901669865226049e-09,8.417562599060907e-05,1.6000943282081523e-10,1.5708151411986826
2.319336605999979,2.26400000000001,0.00791249084030975,4181.1199997284275,279.99999999469395,0.00243431298304567,24.38399987848839,-4.000109538321084e-09,7.816956039064242e-05,1.640464924681671e-10,1.5708128212042507
2.4536307660000034,2.3980000000000246,0.009000213824341744,4191.839999673265,279.99999999284614,0.002535908727177867,24.383999868134197,-4.141321910774658e-09,6.622272340323925e-05,1.698376827087393e-10,1.5708086547115048
2.521320951000007,2.466000000000008,0.009568722913509907,4197.279999643577,279.999999991892,0.0025816053185987262,24.383999863338985,-4.185926738425533e-09,6.0241671229110896e-05,1.7166695007105352e-10,1.5708067806711943
2.5946433679999927,2.529000000000053,0.010104521067635758,4202.31999961512,279.9999999910024,0.00262033674377242,24.383999859207613,-4.2063437344492346e-09,5.4777880435888564e-05,1.7250426058101572e-10,1.5708051922758344
2.763662910999983,2.6990000000000123,0.01158718183680627,4215.919999534301,279.99999998860375,0.0027084395896006808,24.383999849580793,-4.199224950033109e-09,4.05142212157436e-05,1.7221231643881475e-10,1.570801579133473
2.8317323680000186,2.7670000000000528,0.012193300072264887,4221.359999500554,279.99999998765315,0.0027371469640935717,24.38399984637524,-4.163098176554481e-09,3.504740971517062e-05,1.7073073941141124e-10,1.5708004018294475
2.967432161999966,2.9010000000000105,0.013405158718950363,4232.07999943206,279.9999999858163,0.0027831270963238758,24.38399984117054,-4.060247409229624e-09,2.4748594105628707e-05,1.665127781260567e-10,1.5707985161607614
3.0347138939999923,2.9680000000000177,0.014018210793432264,4237.439999397013,279.99999998491853,0.0028010586276803937,24.38399983911729,-3.994828528427317e-09,1.985538267811334e-05,1.6382991744636182e-10,1.5707977807794669
3.17080744499998,3.098000000000013,0.015217856297153852,4247.839999327843,279.99999998322744,0.0028266123808222835,24.383999836168453,-3.84872496920607e-09,1.0889563358951828e-05,1.578381375049614e-10,1.5707967328068513
3.238051631000019,3.1650000000000205,0.015839979874165386,4253.199999291745,279.99999998238235,0.0028354290050908756,24.383999835144834,-3.760251967813489e-09,6.549753743696424e-06,1.5420981566671474e-10,1.5707963712324677
3.3054937659999837,3.233000000000004,0.016473200930389783,4258.639999254879,279.999999981547,0.0028414281222924206,24.383999834446506,-3.6689334207866446e-09,2.3454757782264384e-06,1.5046479659097094e-10,1.570796125205468
3.475082757999985,3.40300000000002,0.01806007835362363,4272.239999162283,279.9999999795537,0.002844392041545888,24.383999834100955,-3.4258438005957274e-09,-7.260152199444853e-06,1.4049557007969182e-10,1.570796003653172
3.5432157469999765,3.4700000000000273,0.01868544889248944,4277.599999125787,279.99999997880707,0.002841153514791075,24.383999834478523,-3.322865867500253e-09,-1.0687694457491849e-05,1.3627239360231665e-10,1.570796136466593
3.677822890000016,3.6000000000000227,0.019895975313000813,4287.999999055339,279.9999999774253,0.0028283224003314536,24.383999835970183,-3.126250751383497e-09,-1.6755952550670345e-05,1.2820910999861352e-10,1.5707966626766918
3.7447238340000126,3.6660000000000537,0.020508187229726405,4293.279999019853,279.9999999767576,0.0028188683038324618,24.38399983706494,-3.023092194384989e-09,-1.9548364152276194e-05,1.239785259402878e-10,1.5707970503937612
3.8799980879999794,3.802000000000021,0.02176253535747496,4304.159998947559,279.9999999754498,0.002793730144825151,24.383999839958026,-2.816362717948484e-09,-2.4712216474965086e-05,1.1550044713271696e-10,1.5707980813219415
3.9477922149999927,3.8700000000000045,0.022385248762969132,4309.59999891191,279.99999997483155,0.0027785503911847646,24.383999841692482,-2.714655491549432e-09,-2.7000387099621223e-05,1.1132938290052494e-10,1.5707987038510942
4.015209026999969,3.937000000000012,0.022995389125858797,4314.959998877187,279.99999997424436,0.002762038855121797,24.38399984356838,-2.6173150253449458e-09,-2.90670923390313e-05,1.073374015046752e-10,1.5707993809973195
4.151353254000014,4.063000000000045,0.02413243741608429,4325.039998813067,279.99999997319617,0.0027271800935050492,24.383999847491996,-2.438375429878743e-09,-3.245807576731417e-05,9.999899942730373e-11,1.5708008105723494
4.219107792999978,4.131000000000029,0.02473998118552758,4330.479998779149,279.99999997266076,0.002706649502050523,24.383999849779553,-2.3450627913415012e-09,-3.404887951511977e-05,9.6172201550105e-11,1.5708016525420656
4.355201594999983,4.265000000000043,0.025923327772434245,4341.1999987138415,279.999999971664,0.0026630459729481124,24.383999854580612,-2.1687661003294645e-09,-3.66915767402141e-05,8.894218630163737e-11,1.5708034407444103
4.422749745999965,4.333000000000027,0.026516376112709218,4346.639998681516,279.99999997118687,0.0026395481832146355,24.383999857135553,-2.0847400142860316e-09,-3.779869668906932e-05,8.549623479003183e-11,1.5708044044004332
4.591590914999983,4.5020000000000095,0.02796697631799642,4360.159998603706,279.999999970082,0.002577975892129616,24.383999863722952,-1.879855872861911e-09,-3.991757371008756e-05,7.709383383281343e-11,1.570806929510697
4.661838993999993,4.562000000000012,0.028473531760088898,4364.959998576985,279.9999999697158,0.0025552000097620936,24.38399986612027,-1.8103533949492917e-09,-4.0459295817150066e-05,7.424350253708973e-11,1.5708078635609657
4.7289914469999985,4.629000000000019,0.0290339930520856,4370.319998547685,279.9999999693239,0.0025293791782982676,24.383999868812364,-1.7341429264216903e-09,-4.095929947012531e-05,7.11180730869317e-11,1.570808922486119
4.864033261999964,4.76400000000001,0.030145902132162953,4381.119998490462,279.999999968581,0.0024763224364736398,24.383999874258272,-1.587727395827238e-09,-4.162479391022954e-05,6.5113499149932e-11,1.570811098369533
4.931841641999995,4.8320000000000505,0.030697037475570343,4386.559998462524,279.99999996823067,0.002449221644411798,24.383999876995443,-1.5168786509679484e-09,-4.179936607135362e-05,6.220795673898762e-11,1.570812209786525
5.067898807999995,4.966000000000008,0.03176528345475871,4397.279998409281,279.9999999675854,0.0023954299811218558,24.383999882339157,-1.3809155420010376e-09,-4.186059115085905e-05,5.663204176171565e-11,1.5708144158094648
5.141361047999965,5.029000000000053,0.03225925341872331,4402.319998385078,279.99999996730315,0.0023700753294579728,24.383999884816763,-1.3182176827454104e-09,-4.177128141176193e-05,5.406077126078211e-11,1.5708154556163816
5.209302316999981,5.098000000000013,0.032794378249705984,4407.839998359146,279.99999996700717,0.0023423360210495675,24.38399988749719,-1.2503524210009722e-09,-4.159723961490511e-05,5.127758298268531e-11,1.5708165932192646
5.343741869999974,5.232000000000028,0.03381559308199674,4418.559998310522,279.9999999664763,0.0022887559883290683,24.38399989258524,-1.1215800115233292e-09,-4.104868375304303e-05,4.5996562200739275e-11,1.5708187905631599
5.478448587999992,5.365000000000009,0.03480595067326606,4429.199998264435,279.99999996600496,0.0022362541585220675,24.3839998974567,-9.9599229034173e-10,-4.026987557337132e-05,4.084614705184551e-11,1.5708209436894276
5.546630474999972,5.434000000000026,0.03531079925741434,4434.7199982413595,279.99999996578134,0.0022093800579420573,24.383999899906502,-9.317734316564686e-10,-3.9789183309817014e-05,3.821249950985246e-11,1.5708220458097208
5.614679125000009,5.5020000000000095,0.035802367684397395,4440.159998219154,279.9999999655752,0.002183189393256147,24.383999902265522,-8.69680841563121e-10,-3.9269833828228414e-05,3.566605137720084e-11,1.5708231199019695
5.7842682460000105,5.668000000000006,0.036977963626878343,4453.439998167102,279.9999999651271,0.0021206781618210505,24.383999907782243,-7.208197309570362e-10,-3.7845029350732654e-05,2.956118293876461e-11,1.5708256835188228
5.852535204999981,5.735000000000014,0.03744287541612372,4458.799998146946,279.99999996497087,0.0020960734689928384,24.3839999099097,-6.602162815251689e-10,-3.721908426272432e-05,2.707580512944477e-11,1.5708266925695802
5.987928410999984,5.8700000000000045,0.038363372444760395,4469.599998107717,279.99999996469387,0.00204771125125922,24.38399991401901,-5.40526092716435e-10,-3.5891574272373875e-05,2.2167250782363646e-11,1.5708286759283183
6.055726695999965,5.938000000000045,0.038818980465375755,4475.0399980886505,279.9999999645734,0.00202399085076312,24.383999915999457,-4.789194131835875e-10,-3.519734044299067e-05,1.964073009590693e-11,1.5708296487138091
6.123623625999983,6.005000000000052,0.03926271421530804,4480.399998070268,279.99999996447025,0.0020010589037999,24.383999917892137,-4.193848230579504e-10,-3.450115215923728e-05,1.719918679387298e-11,1.570830589164428
6.257930304000013,6.136000000000024,0.04011585647833871,4490.879998035538,279.9999999643058,0.0019575319676022316,24.38399992142531,-3.0508579085444675e-10,-3.311736063562147e-05,1.251172636226568e-11,1.5708323742258619
6.325568929999974,6.204000000000008,0.04055143246622029,4496.319998018101,279.9999999642392,0.001935612988032039,24.3839999231751,-2.447410343667726e-10,-3.239338543091726e-05,1.0036957671103386e-11,1.570833273134183
6.4612267859999974,6.338000000000022,0.04139559508903891,4507.03999798488,279.9999999641467,0.0018937998271230582,24.383999926458404,-1.2551851590033572e-10,-3.0968057299622294e-05,5.14758265377749e-12,1.5708349879128405
6.528725300000019,6.40500000000003,0.04181084237685411,4512.399997968796,279.9999999641217,0.0018735895197415533,24.383999928019684,-6.812973372529881e-11,-3.0260746082983735e-05,2.7940400068192286e-12,1.570835816747662
6.664122325999983,6.534000000000049,0.04259792906195986,4522.7199979387715,279.9999999641087,0.001835958883174154,24.383999930882066,4.1240895039823736e-11,-2.891870495885747e-05,-1.6913041723831982e-12,1.5708373599989078
6.731472612000005,6.602000000000032,0.043006523118252205,4528.159997923439,279.9999999641183,0.0018168128850063435,24.383999932316126,1.0028282270919427e-10,-2.8225093761369726e-05,-4.112643194138159e-12,1.5708381451858737
6.798483406000003,6.66900000000004,0.04340493603619924,4533.519997908633,279.9999999641413,0.001798377458552746,24.383999933682755,1.5657931398818716e-10,-2.7553337981316073e-05,-6.421390402036923e-12,1.5708389012319417
6.967109133000008,6.838000000000022,0.044392220883173954,4547.039997872609,279.9999999642563,0.001753794106832251,24.383999936930135,3.009429857159821e-10,-2.5917729457123248e-05,-1.2341816719947446e-11,1.5708407296175158
7.035164948999977,6.906000000000006,0.044782584952138084,4552.479997858595,279.99999996432604,0.00173660893606926,24.383999938160105,3.5748479616381345e-10,-2.5286370063823353e-05,-1.4660624659933045e-11,1.5708414343899721
7.103112399999986,6.974000000000046,0.04516913716789864,4557.919997844861,279.9999999644085,0.0017198428205179015,24.383999939348417,4.138411392379222e-10,-2.4671840416566307e-05,-1.697182651171471e-11,1.5708421219767645
7.272345157000018,7.136000000000024,0.0460751406251855,4570.8799978132065,279.99999996465357,0.0016815565783714498,24.38399994201876,5.449700586084682e-10,-2.3281117801313547e-05,-2.2349489063768066e-11,1.5708436921147217
7.3396043490000125,7.203000000000031,0.04644398962809778,4576.239997800524,279.99999996477544,0.001666353432651856,24.383999943062452,5.974174055178051e-10,-2.27365455240715e-05,-2.4500380975449538e-11,1.570844315603338
7.44088205700001,7.3040000000000305,0.04699376635514337,4584.31999778183,279.999999964981,0.0016441032841151835,24.38399994457283,6.750638171637494e-10,-2.1950510875638466e-05,-2.768469920880743e-11,1.5708452280930674
7.508328958999982,7.372000000000014,0.047359800081782574,4589.759997769516,279.99999996513316,0.0016295625614667017,24.383999945548922,7.255915940570272e-10,-2.144568587535431e-05,-2.9756868622066016e-11,1.570845824415381
7.678775100999985,7.538000000000011,0.04823991308643814,4603.039997740309,279.9999999655519,0.0015954563862300348,24.38399994780435,8.433120611724302e-10,-2.0295774321683014e-05,-3.458464392893843e-11,1.5708472231266981
7.746822566999981,7.606000000000051,0.04859515487665562,4608.479997728706,279.9999999657422,0.001582030144742816,24.383999948679147,8.907561796813211e-10,-1.985822716988801e-05,-3.653035091490207e-11,1.570847773743579
7.883112889000017,7.742000000000019,0.04929676168945749,4619.359997706106,279.9999999661527,0.0015560279122825767,24.3839999503523,9.856199183657664e-10,-1.9040657297546413e-05,-4.042076033455302e-11,1.5708488401081429
7.951085089000003,7.809000000000026,0.04963816748905259,4624.719997695222,279.99999996637143,0.0015436219045452454,24.383999951140822,1.030528154956834e-09,-1.8665710449548683e-05,-4.226246966049143e-11,1.570849348884727
8.018722773999968,7.8770000000000095,0.04998190459387254,4630.15999768438,279.9999999666029,0.0015312820946309748,24.383999951918867,1.0757314890374746e-09,-1.8303150435873432e-05,-4.4116281006933186e-11,1.5708498549465046
8.154310100999965,8.012,0.05065624939349813,4640.959997663333,279.9999999670924,0.0015074983359866755,24.383999953400853,1.1621525639045005e-09,-1.7636301129585492e-05,-4.766045255497227e-11,1.570850830330343
8.222444015000008,8.075000000000045,0.05096732900741596,4645.999997653736,279.9999999673348,0.0014967125592062604,24.383999954065278,1.2006316789697162e-09,-1.734909838422717e-05,-4.9238500356859846e-11,1.570851272660443
8.357507500999986,8.210000000000036,0.05162657286792991,4656.799997633619,279.99999996787926,0.001474173984823258,24.3839999554383,1.2805355649233346e-09,-1.6778975007316625e-05,-5.2515398705205835e-11,1.5708521969786489
8.425051252999992,8.27600000000001,0.05194524887266268,4662.079997624005,279.9999999681578,0.0014634325164946125,24.383999956085326,1.3185070210910516e-09,-1.652294804722878e-05,-5.4072627169086365e-11,1.5708526374916358
8.594111692000013,8.44500000000005,0.05275081093470049,4675.599997600005,279.9999999689093,0.0014366685758695822,24.383999957676913,1.4101220761790326e-09,-1.592953638529648e-05,-5.7829806488472486e-11,1.5708537350942198
8.62752255800001,8.478000000000009,0.0529063802367976,4678.239997595431,279.99999996906166,0.0014315597206855139,24.38399995797738,1.4279495885038985e-09,-1.5823750435637202e-05,-5.856092171651001e-11,1.5708539446109244
8.694470641999999,8.537000000000035,0.053183101626540344,4682.959997587319,279.99999996933906,0.0014225147747783018,24.38399995850672,1.4582358175490416e-09,-1.5642295885287615e-05,-5.980297516180631e-11,1.5708543155486776
8.862982955999996,8.705000000000041,0.053961702891010564,4696.399997564764,279.9999999701599,0.001397326922581605,24.383999959963127,1.5394209126568615e-09,-1.5175893879960583e-05,-6.313241662913725e-11,1.5708553485150816
8.930652118000012,8.773000000000025,0.05427293470896174,4701.839997555874,279.99999997050384,0.0013873459437466521,24.383999960533043,1.5711652079533407e-09,-1.5006402963464e-05,-6.44342660858241e-11,1.5708557578400102
9.066567857999985,8.909000000000049,0.05488876307665773,4712.719997538448,279.9999999712146,0.0013677218597944302,24.383999961641678,1.6296886727060249e-09,-1.469809084307098e-05,-6.683434275355291e-11,1.5708565626334965
9.134657376999996,8.977000000000032,0.05519340857699907,4718.159997529913,279.9999999715808,0.0013580650665080077,24.38399996218142,1.6567679752199989e-09,-1.4558050267426762e-05,-6.794487853577647e-11,1.5708569586634127
9.20222696999997,9.037000000000035,0.05546038015885519,4722.959997522488,279.99999997190685,0.0013496255144182275,24.383999962649995,1.6803007507069215e-09,-1.444184113459545e-05,-6.890996948594571e-11,1.5708573047736596
9.338318507999986,9.172000000000025,0.05605512529125118,4733.759997506121,279.999999972659,0.0013308875297945448,24.383999963679926,1.7307337214648751e-09,-1.4202699972280823e-05,-7.097825095190782e-11,1.570858073227766
9.439974029999973,9.272000000000048,0.05649034297771103,4741.759997494279,279.9999999732306,0.001317207664809186,24.383999964422735,1.764133456608241e-09,-1.4043592071939449e-05,-7.234799086334082e-11,1.5708586342458601
9.574627915000008,9.407000000000039,0.05707081695290351,4752.559997478643,279.999999974019,0.0012989851646773632,24.383999965400292,1.8042590681343075e-09,-1.3849759546598257e-05,-7.399356238774267e-11,1.5708593815596887
9.642537868999966,9.475000000000023,0.0573601601467748,4757.99999747097,279.9999999744232,0.0012899034369974612,24.383999965882406,1.82529298268894e-09,-1.3760161233669267e-05,-7.485617379725034e-11,1.5708597540058749
9.777687234999973,9.604000000000042,0.057903470732752246,4768.319997456706,279.9999999752007,0.0012728424677955908,24.383999966778962,1.8620183128766133e-09,-1.3603116221858555e-05,-7.636229807155232e-11,1.570860453684739
9.844936879999977,9.672000000000025,0.058186990854310866,4773.759997449337,279.9999999756176,0.0012639270860926755,24.38399996724271,1.879906847529463e-09,-1.3526191584405344e-05,-7.709591588638459e-11,1.570860819308993
9.912609687999975,9.740000000000009,0.05846852483526271,4779.1999974420705,279.99999997603766,0.0012550634506351785,24.383999967700532,1.8962610906675533e-09,-1.3452796220925937e-05,-7.776661163596041e-11,1.5708611828111076
10.048024510999994,9.875,0.05902160431415993,4789.999997427944,279.9999999768811,0.0012376108885780682,24.38399996859259,1.926462223017914e-09,-1.3316074175413122e-05,-7.900517530297292e-11,1.5708618985493885
10.11593047499997,9.942000000000007,0.05929322807375512,4795.359997421084,279.9999999773059,0.0012290161417953776,24.383999969027307,1.940003653349621e-09,-1.3251944354113472e-05,-7.956051619773685e-11,1.570862251024244
10.250785732999987,10.073000000000036,0.05981885171086991,4805.839997407873,279.99999997814274,0.0012123341310411116,24.38399996986242,1.959823216558562e-09,-1.3132292172192965e-05,-8.037332652703334e-11,1.570862935161831
10.318624370000009,10.14100000000002,0.060088889609575126,4811.279997401164,279.9999999785802,0.0012037335737669407,24.38399997028851,1.96890663181918e-09,-1.307250718674572e-05,-8.074584199578854e-11,1.570863287874977
10.454961963000017,10.277000000000044,0.06062322409007143,4822.15999738805,279.9999999794612,0.0011866502876115548,24.38399997112585,1.9852800276129283e-09,-1.295648985867572e-05,-8.141732326932008e-11,1.5708639884690685
10.522299231999966,10.344000000000051,0.06088365799922851,4827.51999738174,279.9999999798986,0.0011782907749458432,24.38399997153123,1.9927072446230297e-09,-1.290060540116498e-05,-8.172191722263095e-11,1.5708643312968547
10.624234504000015,10.446000000000026,0.061276627629018185,4835.6799973722655,279.9999999805659,0.0011656331065663975,24.38399997213959,2.000592629404685e-09,-1.2816504909806103e-05,-8.204530090442263e-11,1.570864850394152
10.760070449000011,10.573000000000036,0.06175995980302379,4845.839997360775,279.99999998140083,0.0011499916392214015,24.383999972882293,2.008403932878019e-09,-1.271260803365131e-05,-8.236564648909667e-11,1.5708654918585339
10.828346575000012,10.64100000000002,0.062016103281741224,4851.279997354725,279.99999998184785,0.001141667031988102,24.383999973273475,2.01013228539566e-09,-1.2657007058565405e-05,-8.243652716242311e-11,1.5708658332548309
10.895435545999987,10.70700000000005,0.062262925495366266,4856.5599973489525,279.99999998228213,0.0011336224592099914,24.38399997364879,2.011855091320077e-09,-1.260286936397887e-05,-8.250718036420453e-11,1.5708661631667755
11.031159058000014,10.843000000000018,0.06276607623635257,4867.439997337324,279.99999998318253,0.0011171529897500605,24.3839999744089,2.013440970029687e-09,-1.2490312050500024e-05,-8.257221817630872e-11,1.5708668385879374
11.13294896299999,10.944000000000017,0.06313498948652907,4875.519997328904,279.9999999838512,0.001105017073974441,24.38399997496189,2.011691824576724e-09,-1.2405431464289836e-05,-8.250048494568615e-11,1.5708673362879002
11.26855558799997,11.074000000000012,0.06360390079588253,4885.919997318331,279.999999984709,0.0010895192819384751,24.38399997565928,2.0068364705975423e-09,-1.2294029269704391e-05,-8.230136459291154e-11,1.5708679718600862
11.33636734800001,11.142000000000053,0.06384656621551701,4891.359997312916,279.999999985156,0.0010814665858908156,24.383999976017755,2.003238537448683e-09,-1.2234714460429131e-05,-8.215381162968269e-11,1.5708683021051701
11.471919319999984,11.277000000000044,0.06432301214865412,4902.159997302415,279.9999999860419,0.0010655940944660064,24.38399997671656,1.9938659618815076e-09,-1.2114503983239913e-05,-8.176943774964088e-11,1.5708689530439655
11.539544214999978,11.345000000000027,0.06456034549938033,4907.599997297228,279.9999999864858,0.0010576579195454335,24.38399997706209,1.9874774186570557e-09,-1.2052655438254152e-05,-8.150744047084261e-11,1.5708692785104599
11.675448856000003,11.481000000000051,0.06502971513700866,4918.479997287107,279.99999998737036,0.0010419056473907902,24.383999977740256,1.973446636073434e-09,-1.1926257715039492e-05,-8.093203119461279e-11,1.5708699245190032
11.742972414999997,11.54400000000004,0.06524473871522829,4923.519997282534,279.9999999877786,0.0010346648524432686,24.38399997804857,1.966675364107807e-09,-1.1866454853365994e-05,-8.065433801921927e-11,1.5708702214676182
11.810446495000008,11.611000000000047,0.06547179716439276,4928.879997277723,279.9999999882097,0.0010270049280547817,24.383999978372398,1.9581186063050223e-09,-1.1801997901666772e-05,-8.030342115793556e-11,1.5708705356049406
11.945100448000005,11.744000000000028,0.06591754446567298,4939.519997268397,279.99999998906225,0.0010119192676309346,24.383999979003107,1.939638317399425e-09,-1.167149586229376e-05,-7.954553541378951e-11,1.5708711542754046
12.046499342999994,11.844000000000051,0.06624837181042162,4947.519997261551,279.9999999896967,0.0010006855951629626,24.383999979466708,1.9235473991783243e-09,-1.1571202472135295e-05,-7.888563890145735e-11,1.57087161497392
12.182002974,11.980000000000018,0.06669242077222653,4958.399997252471,279.99999999055035,0.000985561426623868,24.383999980082688,1.898764646034437e-09,-1.1431948120620662e-05,-7.786928594761302e-11,1.5708722352236213
12.249365866000005,12.038000000000011,0.0668797024145095,4963.039997248692,279.9999999909116,0.0009791674713578947,24.383999980340292,1.8878540241896842e-09,-1.137159476603708e-05,-7.742183595073858e-11,1.5708724974429191
12.384794774,12.174000000000035,0.06731419212036371,4973.9199972400165,279.99999999174855,0.0009643067593404954,24.383999980932522,1.8609208526382213e-09,-1.1228080297045478e-05,-7.631729324086606e-11,1.5708731068881367
12.452768675000016,12.242000000000019,0.06752895603627124,4979.3599972357915,279.9999999921623,0.0009569446979678794,24.383999981222555,1.8468071757947306e-09,-1.1155337237906685e-05,-7.573848435470375e-11,1.5708734088099487
12.520878203999985,12.310000000000002,0.06774207978354765,4984.799997231619,279.9999999925729,0.0009496298839949127,24.383999981508524,1.831792494406071e-09,-1.108198418029158e-05,-7.512272483528734e-11,1.5708737087941216
12.656106164999983,12.444000000000017,0.06815728783807717,4995.51999722357,279.9999999933726,0.0009353559663980257,24.38399998206024,1.7995520554579042e-09,-1.0935820287803058e-05,-7.380052844187956e-11,1.570874294174608
12.724139185000013,12.512,0.06836560216903541,5000.959997219575,279.99999999377366,0.0009281842150505488,24.383999982334288,1.7821568732467045e-09,-1.0860931341333042e-05,-7.308714337695067e-11,1.5708745882917112
12.791691715000013,12.569000000000017,0.06853894030466746,5005.519997216268,279.99999999410585,0.000922214765421744,24.3839999825608,1.7665929520170509e-09,-1.0797791776928252e-05,-7.244885923806944e-11,1.5708748331018207
12.960117427,12.736000000000047,0.06904051256893981,5018.8799972068555,279.99999999506355,0.0009049112063087124,24.38399998320908,1.7188913479615621e-09,-1.0611562184251067e-05,-7.049259275822051e-11,1.5708755427294188
13.027629605000016,12.80400000000003,0.06924204508564283,5024.319997203114,279.9999999954456,0.0008979506099711992,24.383999983466396,1.6983595905215611e-09,-1.0535239526175924e-05,-6.965057518706756e-11,1.5708758281869497
13.095498581000015,12.872000000000014,0.06944202711765128,5029.759997199449,279.99999999582445,0.0008910393978280535,24.38399998371993,1.6774699611683928e-09,-1.0458704728216733e-05,-6.879388109721335e-11,1.57087611161921
13.263869381999996,13.035000000000025,0.06991511473176419,5042.799997190866,279.999999996711,0.000874678062046372,24.38399998431231,1.6261178122391264e-09,-1.0274652665942193e-05,-6.66879039418875e-11,1.5708767826057595
13.330653525000002,13.102000000000032,0.07010705414847691,5048.159997187428,279.99999999706705,0.0008680376480932689,24.38399998454961,1.6043904354359282e-09,-1.0198878624134157e-05,-6.579685340625795e-11,1.570877054932451
13.432854125000006,13.203000000000031,0.07039364718685147,5056.239997182348,279.9999999975945,0.0008581171110180839,24.383999984900747,1.5712974932606737e-09,-1.0084668522782051e-05,-6.443969537812765e-11,1.5708774617786296
13.500047285999983,13.271000000000015,0.07058475703691651,5061.679997178987,279.9999999979448,0.000851500354382966,24.383999985132707,1.5483063087719746e-09,-1.0007828715392034e-05,-6.349681547328505e-11,1.570877733135123
13.601810463999982,13.373000000000047,0.07086866205873137,5069.839997174034,279.99999999845846,0.0008416688013663566,24.38399998547404,1.513130721347211e-09,-9.892759723631827e-06,-6.205424712101682e-11,1.5708781363320208
13.772173836999968,13.537000000000035,0.07131825410989227,5082.9599971663265,279.9999999992613,0.0008260984677286656,24.38399998600651,1.4559310975243095e-09,-9.708521805058014e-06,-5.97084620718928e-11,1.570878774879178
13.839452365999989,13.603000000000009,0.07149683212731173,5088.23999716331,279.99999999957544,0.0008199168186558459,24.38399998621516,1.4328299333468307e-09,-9.634749871044617e-06,-5.876107184027288e-11,1.5708790283916925
13.975224212,13.739000000000033,0.07186062826545107,5099.11999715723,280.00000000020634,0.0008073209856092957,24.383999986635445,1.3849498618965461e-09,-9.483605918965813e-06,-5.6797486264770236e-11,1.570879544953095
14.043180635999988,13.80600000000004,0.0720377862412508,5104.4799971542925,280.00000000050983,0.0008011884065782757,24.38399998683772,1.3599240229771414e-09,-9.409622220532372e-06,-5.5771164146488806e-11,1.570879796453223
14.17784586099998,13.941000000000031,0.0723906747885437,5115.2799971485265,280.00000000110464,0.0007889770641007188,24.383999987235896,1.3104362121703972e-09,-9.261646066908929e-06,-5.374164437271301e-11,1.5708802972464753
14.244969524999988,14.007000000000005,0.07256122823686811,5120.559997145781,280.0000000013862,0.0007830773303780675,24.383999987426073,1.2865683256385068e-09,-9.189891252376645e-06,-5.276281045697018e-11,1.5708805391975011
14.31260637600002,14.07000000000005,0.0727228275653643,5125.599997143186,280.00000000165187,0.0007774905313132283,24.383999987604852,1.2625810443336547e-09,-9.121799843661975e-06,-5.177908009956322e-11,1.5708807683149204
14.481946800999992,14.239000000000033,0.07315070325849896,5139.119997136408,280.00000000233746,0.0007626999893965079,24.383999988071963,1.1985091213590514e-09,-8.941078771641262e-06,-4.915145861169012e-11,1.5708813748824295
14.549952976999975,14.307000000000016,0.07332056326561054,5144.559997133757,280.00000000260223,0.0007568320062771262,24.3839999882548,1.1729885214189627e-09,-8.869226244067278e-06,-4.810484608851369e-11,1.5708816155313472
14.617874467999968,14.375,0.07348911647985655,5149.9999971311345,280.00000000286377,0.0007510108075712066,24.383999988434788,1.1463960271249965e-09,-8.79789266111469e-06,-4.701427464500504e-11,1.5708818542616125
14.753804117000016,14.510000000000048,0.07381990832620465,5160.799997126073,280.0000000033641,0.000739592874237295,24.383999988783767,1.0953687623734806e-09,-8.65786393966724e-06,-4.4921621085852465e-11,1.5708823225167596
14.821629212000005,14.572000000000003,0.07397011557132008,5165.759997123797,280.00000000358517,0.0007344124379743351,24.38399998894035,1.0717000683262534e-09,-8.59431490805444e-06,-4.395095614643537e-11,1.5708825349690378
14.922919605999994,14.673000000000002,0.0742125933811372,5173.839997120149,280.00000000393675,0.0007260514268149312,24.383999989190738,1.0323149989320313e-09,-8.49176285190835e-06,-4.2335754817256666e-11,1.57088287785828
15.058226923999996,14.809000000000026,0.07453474953525027,5184.71999711538,280.00000000439013,0.0007149493336516363,24.383999989518784,9.80054530889857e-10,-8.355701924302643e-06,-4.01925269689492e-11,1.5708833331606642
15.126108693999981,14.87700000000001,0.0746939758622982,5190.159997113058,280.00000000460733,0.0007094651915864106,24.38399998967897,9.5461877338039e-10,-8.288552322021633e-06,-3.9149393871619877e-11,1.5708835580680685
15.262107643999968,15.013000000000034,0.0750087745358447,5201.039997108492,280.0000000050226,0.0006986288024962549,24.383999989991857,9.023616148172298e-10,-8.156038334536083e-06,-3.700630172900199e-11,1.5708840024737958
15.330107822000002,15.077000000000055,0.07515523156262655,5206.159997106402,280.00000000521203,0.0006935912979867121,24.38399999013567,8.780634805769549e-10,-8.09453343473038e-06,-3.600982312763337e-11,1.570884209064371
15.46664201499999,15.213000000000022,0.07546298866657736,5217.039997102039,280.0000000055956,0.0006830086153188147,24.38399999043439,8.25661626739235e-10,-7.965561020350553e-06,-3.386079696864855e-11,1.5708846430654715
15.534562944000015,15.28000000000003,0.07561286941540171,5222.399997099952,280.0000000057753,0.0006778574376342384,24.383999990578126,8.007833736949915e-10,-7.902911044808577e-06,-3.284052739120733e-11,1.5708848543178404
15.602768001000015,15.348000000000013,0.07576383573273207,5227.839997097859,280.0000000059512,0.0006726709933439532,24.38399999072175,7.75534345552817e-10,-7.839921137618793e-06,-3.1805052152735673e-11,1.5708850670165102
15.77192458799999,15.51600000000002,0.07613187076452879,5241.279997092825,280.0000000063664,0.0006600341221988812,24.38399999106708,7.133212554814282e-10,-7.686872021465856e-06,-2.92536622994267e-11,1.5708855852609056
15.839605356999982,15.576000000000022,0.07626160729064885,5246.079997091071,280.0000000065063,0.0006555839909801785,24.383999991187128,6.908105040485963e-10,-7.633135211059615e-06,-2.8330485144960956e-11,1.5708857677630088
15.975658173,15.712000000000046,0.07655250394446902,5256.95999708719,280.00000000680745,0.0006456046614717642,24.383999991453397,6.408765532435333e-10,-7.512926818028957e-06,-2.62826689102236e-11,1.5708861770202946
16.043796501999964,15.779000000000053,0.07669417729581643,5262.319997085302,280.00000000694644,0.0006407467806201256,24.383999991581536,6.156225372184302e-10,-7.4545658567371825e-06,-2.5246989102707272e-11,1.570886376244414
16.17895542399998,15.91500000000002,0.07697849167755018,5273.199997081598,280.00000000721434,0.0006310009447142265,24.383999991835687,5.666729865258836e-10,-7.337790042679437e-06,-2.3239543604695152e-11,1.5708867759260106
16.280589119000012,16.01400000000001,0.07718272193380922,5281.119997078958,280.00000000739453,0.0006240031302188703,24.383999992015774,5.308304468818189e-10,-7.254196664356524e-06,-2.176962315883813e-11,1.5708870629098768
16.348541135999994,16.077000000000055,0.0773114951753429,5286.159997077323,280.00000000750316,0.0006195937584316015,24.383999992128224,5.091590524862155e-10,-7.201632249452537e-06,-2.088086845095498e-11,1.5708872437404156
16.416676832000007,16.146000000000015,0.07745151177738416,5291.679997075535,280.0000000076174,0.0006147983850201498,24.38399999224961,4.84193739534214e-10,-7.144572404453335e-06,-1.9857028507668336e-11,1.570887440401073
16.551343686999985,16.281000000000006,0.07772231973993841,5302.479997072134,280.0000000078244,0.0006055264463031155,24.38399999248162,4.369025223423678e-10,-7.034534156222905e-06,-1.7917592077390586e-11,1.5708878206479095
16.653497680999976,16.383000000000038,0.07792422125499347,5310.639997069642,280.00000000796706,0.0005986155577214123,24.383999992652264,4.0214802923037794e-10,-6.952758330502183e-06,-1.6492292968899985e-11,1.5708881040669007
16.788894736999964,16.51800000000003,0.07818790183060897,5321.439997066418,280.0000000081375,0.0005895925999017239,24.383999992872095,3.5639366248886695e-10,-6.846277788127343e-06,-1.461588353940239e-11,1.5708884741029059
16.856952739999997,16.579000000000008,0.07830572030611452,5326.3199970649985,280.000000008207,0.0005855633828677465,24.38399999296919,3.362831967877755e-10,-6.7988416598451945e-06,-1.3791143292297872e-11,1.5708886393431083
16.92461859499997,16.646000000000015,0.07843421863620081,5331.679997063461,280.0000000082804,0.0005811676986285281,24.383999993074355,3.146501209999358e-10,-6.747164235385321e-06,-1.2903960056266157e-11,1.5708888196123136
17.05952785300002,16.78000000000003,0.07868832913668052,5342.399997060457,280.0000000084115,0.0005724765879974791,24.38399999327995,2.7158135131340433e-10,-6.645202746822179e-06,-1.1137688300302942e-11,1.5708891760391
17.16059642800002,16.882000000000005,0.07887921140713199,5350.559997058219,280.0000000084987,0.0005659481568340907,24.38399999343236,2.389393225783724e-10,-6.568789853822415e-06,-9.799022393086333e-12,1.5708894437733214
17.228448248999996,16.950000000000045,0.07900525544708292,5355.99999705676,280.000000008551,0.0005616378156361298,24.383999993532033,2.1804561834112931e-10,-6.5184208265413405e-06,-8.94216114000944e-12,1.570889620542566
17.363338353000017,17.08000000000004,0.07924353735778025,5366.399997054039,280.00000000863747,0.0005534910700812884,24.38399999371832,1.7943730476766173e-10,-6.423377411161781e-06,-7.358814913679214e-12,1.5708899546446689
17.431073622999975,17.148000000000025,0.07936680711155956,5371.839997052631,280.0000000086771,0.0005492764571080101,24.383999993813624,1.5806572430981852e-10,-6.37428692164856e-06,-6.482355727164559e-12,1.5708901274880511
17.498936691999972,17.215000000000032,0.0794873426517653,5377.199997051293,280.0000000087107,0.0005451554654671352,24.38399999390611,1.3907127424045204e-10,-6.326339033578373e-06,-5.703383833444733e-12,1.570890296491976
17.668181325999967,17.384000000000015,0.07978738289745264,5390.71999704797,280.00000000877696,0.0005348971696983656,24.38399999413331,9.022915613421423e-11,-6.207167694359248e-06,-3.7003441658728115e-12,1.570890717189807
17.735864295,17.451000000000022,0.07990476303214297,5396.079997046682,280.00000000879567,0.0005308844998935533,24.383999994221007,7.159474982345803e-11,-6.160616968935028e-06,-2.9361378478983118e-12,1.5708908817513993
17.871049098000015,17.581000000000017,0.08012999846722926,5406.4799970442555,280.00000000882,0.0005231849873946042,24.38399999438743,3.6848325184627304e-11,-6.0713954733283845e-06,-1.5111696082646003e-12,1.5708911975122508
17.93886612099999,17.649,0.08024651869555344,5411.919997043,280.0000000088279,0.0005192014416968496,24.383999994472582,1.8030811890203786e-11,-6.025277742935941e-06,-7.394539794120403e-13,1.5708913608794488
18.006369037000013,17.716000000000008,0.08036045447418633,5417.279997041788,280.000000008831,0.0005153061940661695,24.38399999455522,-1.1212615355459147e-13,-5.980212159721911e-06,4.596983753537122e-15,1.570891520625499
18.141640252000002,17.852000000000032,0.08058911154357483,5428.159997039377,280.00000000882466,0.0005074881365557367,24.383999994719183,-3.540516893611518e-11,-5.889828036469541e-06,1.4519823103253363e-12,1.570891841247941
18.20963921599997,17.920000000000016,0.08070213584206154,5433.599997038223,280.00000000881676,0.00050362353787637,24.38399999479931,-5.158276933645644e-11,-5.845177185319964e-06,2.115433795373174e-12,1.570891999737062
18.379296209000017,18.08200000000005,0.08096792365203072,5446.559997035497,280.0000000087806,0.0004945364635478575,24.383999994985302,-9.146224795062301e-11,-5.740243852776574e-06,3.750911149792046e-12,1.5708923724025172
18.447177742999997,18.150000000000034,0.0810780634453946,5451.999997034393,280.00000000876,0.000490770249427218,24.383999995061394,-1.0707785188945737e-10,-5.696776002566719e-06,4.391314879356522e-12,1.5708925268568386
18.514351338999973,18.216000000000008,0.08118415565227119,5457.279997033322,280.00000000873547,0.0004871422881624454,24.383999995134147,-1.2260282208114669e-10,-5.654916441797959e-06,5.02800167418845e-12,1.5708926756413415
18.650408236999965,18.352000000000032,0.08140031530362778,5468.159997031185,280.0000000086752,0.00047974971892608833,24.383999995280725,-1.5275781407865e-10,-5.5696398511272005e-06,6.2646729772702036e-12,1.570892978814297
18.71817469299998,18.41900000000004,0.08150559357221202,5473.519997030148,280.0000000086408,0.0004761488831627437,24.38399999535131,-1.6740994287466843e-10,-5.528109219833225e-06,6.8655641110467705e-12,1.570893126486369
18.85369061900002,18.54400000000004,0.0816998821950594,5483.519997028256,280.0000000085682,0.0004695035495833439,24.383999995480178,-1.9454343397976446e-10,-5.45146675530194e-06,7.978322164252073e-12,1.5708933990148173
18.954502247999983,18.64500000000004,0.08185490142336672,5491.599997026767,280.0000000085007,0.0004642028072894437,24.383999995581668,-2.1488786018747922e-10,-5.390341081899245e-06,8.81265725922881e-12,1.5708936164009049
19.089329098000007,18.78000000000003,0.08205937583137136,5502.399997024827,280.00000000840004,0.00045720744437368954,24.383999995713847,-2.416626983879926e-10,-5.30967317119267e-06,9.910706779275586e-12,1.5708939032842306
19.157287757000006,18.848000000000013,0.08216120187287813,5507.839997023875,280.00000000834615,0.0004537237413338603,24.383999995778918,-2.5428759339932703e-10,-5.269492171969042e-06,1.0428460036857203e-11,1.5708940461526317
19.291903014000013,18.982000000000028,0.08235958819449156,5518.5599970220255,280.0000000082306,0.00044693594710743586,24.38399999590427,-2.7974957567306105e-10,-5.191187664604302e-06,1.1472668680529325e-11,1.570894324523462
19.358619616999988,19.03800000000001,0.08244159277504222,5523.039997021283,280.00000000817835,0.0004441299196391145,24.38399999595554,-2.8894150466292625e-10,-5.158810543276882e-06,1.1849634295217967e-11,1.5708944396000495
19.426430545000017,19.10600000000005,0.0825405064458328,5528.479997020382,280.0000000081134,0.0004407470794396787,24.383999996016918,-3.0053831276647774e-10,-5.119753327859673e-06,1.2325225200359921e-11,1.5708945783320147
19.561854101999984,19.241000000000042,0.08273464859249473,5539.279997018639,280.00000000797644,0.00043410303138713673,24.383999996136104,-3.2325669870604396e-10,-5.043085321270707e-06,1.3256917589749906e-11,1.5708948508077427
19.629722920000006,19.309000000000026,0.08283132890025112,5544.719997017789,280.00000000790357,0.0004307940334031657,24.3839999961948,-3.332516951323652e-10,-5.004886051843773e-06,1.3666817401850837e-11,1.570894986511402
19.76573248599999,19.442000000000007,0.08301829147348314,5555.359997016126,280.0000000077551,0.00042439492338579,24.383999996307026,-3.537376665572485e-10,-4.930981493957113e-06,1.4506957348293345e-11,1.5708952489420986
19.833491366999965,19.511000000000024,0.08311419697004638,5560.87999701531,280.00000000767466,0.0004211119884867279,24.38399999636394,-3.625653540612557e-10,-4.893048776289122e-06,1.486898524134266e-11,1.570895383576898
19.967904585999975,19.636000000000024,0.08328602782665603,5570.879997013842,280.0000000075236,0.0004152314788052769,24.383999996464794,-3.7838880263697244e-10,-4.825081945342777e-06,1.5517912801521727e-11,1.570895624739536
20.069272314999978,19.738,0.08342447910183676,5579.039997012642,280.0000000073952,0.00041049171627435973,24.383999996545054,-3.924827025238241e-10,-4.770275851337776e-06,1.6095910704882533e-11,1.5708958191195637
20.137196898000013,19.80600000000004,0.0835159008110853,5584.479997011893,280.0000000073064,0.00040736169527763675,24.383999996597545,-3.994907238591777e-10,-4.734075787206163e-06,1.6383313179240105e-11,1.5708959474832875
20.205193367999982,19.874000000000024,0.08360662541799962,5589.919997011145,280.00000000721764,0.00040425542258525115,24.383999996649248,-4.065635881779679e-10,-4.698138113082475e-06,1.6673374888124593e-11,1.5708960748730814
20.373973535000005,20.03000000000003,0.08381212863688774,5602.399997009427,280.0000000070057,0.00039721924319817745,24.383999996764892,-4.246628047498899e-10,-4.616688838414737e-06,1.7415632846865225e-11,1.5708963634303115
20.441861285000016,20.098000000000013,0.0839005945872704,5607.839997008729,280.0000000069106,0.0003941920189201141,24.383999996814012,-4.3040328785736244e-10,-4.581613385384458e-06,1.765105294186057e-11,1.57089648757829
20.577013429999965,20.232000000000028,0.08407295049598282,5618.559997007354,280.00000000672003,0.000388290270101792,24.383999996908706,-4.4209408088777733e-10,-4.51326793140402e-06,1.8130498236971202e-11,1.5708967296119556
20.64459905199999,20.299000000000035,0.08415815833404416,5623.919997006666,280.0000000066232,0.0003853723262426332,24.383999996955005,-4.484206464337246e-10,-4.4794597946656626e-06,1.838995386805036e-11,1.5708968492782902
20.71184415900001,20.36500000000001,0.08424146596699537,5629.199997005989,280.0000000065248,0.0003825197035828488,24.383999996999922,-4.548180111349277e-10,-4.446396236749108e-06,1.8652313007794024e-11,1.5708969662657697
20.847681577999992,20.501000000000033,0.08441120012454603,5640.079997004694,280.00000000632184,0.0003767069778503167,24.383999997090424,-4.63636093947545e-10,-4.378999738977256e-06,1.901394702501715e-11,1.570897204648554
20.95495728200001,20.597000000000037,0.08452944582752189,5647.75999700378,280.00000000617416,0.0003726583796606351,24.383999997152635,-4.698483260521552e-10,-4.3320271984035925e-06,1.926871379383195e-11,1.5708973706835871
21.022400188000006,20.664000000000044,0.08461122331013944,5653.119997003142,280.00000000607105,0.00036985759846166203,24.38399999719529,-4.745481453955228e-10,-4.2995370957008694e-06,1.946145575007396e-11,1.5708974855450224
21.157107388999975,20.799000000000035,0.08477413903145416,5663.919997001931,280.0000000058586,0.00036427794811841693,24.38399999727929,-4.811453944388102e-10,-4.234777902161617e-06,1.973201226588753e-11,1.5708977143692688
21.224715259999982,20.86700000000002,0.08485526828463334,5669.359997001335,280.00000000575085,0.0003614992439183511,24.383999997320643,-4.83785019586697e-10,-4.202516881997518e-06,1.984026462831099e-11,1.5708978283253154
21.360304728000017,21.003000000000043,0.08501567494201981,5680.239997000142,280.00000000553524,0.0003560051759187252,24.38399999740147,-4.900731678067448e-10,-4.138706666068494e-06,2.009814476286166e-11,1.5708980536397872
21.46342427999997,21.097000000000037,0.08512510374814265,5687.759996999317,280.0000000053831,0.0003522583182940093,24.383999997455902,-4.948957812192556e-10,-4.095162023088683e-06,2.029592257476762e-11,1.5708982073002888
21.53161603000001,21.16500000000002,0.08520355607339743,5693.199996998771,280.0000000052721,0.0003495712119650847,24.383999997494577,-4.961750899319539e-10,-4.063944608191808e-06,2.034838768286517e-11,1.5708983174998614
21.667658281,21.30000000000001,0.08535753594015906,5703.999996997687,280.0000000050518,0.0003442972869151708,24.383999997569628,-4.988081498892431e-10,-4.002652059914581e-06,2.0456370820101508e-11,1.5708985337861605
21.735005746000013,21.36700000000002,0.08543308976319942,5709.359996997149,280.0000000049425,0.0003417094279228695,24.383999997606033,-5.003024845880972e-10,-3.97256938665851e-06,2.0517654250146552e-11,1.5708986399155498
21.870731164000006,21.50200000000001,0.08558360667814348,5720.159996996066,280.0000000047222,0.0003365542308777585,24.38399999767772,-5.042654873795306e-10,-3.912626560531713e-06,2.0680179007762062e-11,1.5708988513327546
21.94152588999998,21.563000000000045,0.08565086033091873,5725.039996995622,280.00000000462165,0.00033425168094440994,24.383999997709388,-5.042071296828883e-10,-3.885848634434396e-06,2.0677785744968716e-11,1.5708989457614768
22.009085868,21.630000000000052,0.08572420970904146,5730.399996995134,280.00000000451223,0.0003317394826548849,24.383999997743693,-5.037990425237954e-10,-3.856633508070341e-06,2.0661049902401924e-11,1.570899048787983
22.14399565100001,21.765000000000043,0.08587033503129368,5741.199996994151,280.00000000429196,0.0003267346001228233,24.383999997811273,-5.039861281352536e-10,-3.7984226277807767e-06,2.066872241492958e-11,1.5708992540407145
22.245768494999993,21.86700000000002,0.08597927841429746,5749.3599969934085,280.0000000041245,0.00032300313468502966,24.38399999786098,-5.046279944173318e-10,-3.755013246186453e-06,2.0695045693195027e-11,1.570899407069975
22.31338711799998,21.934000000000026,0.0860501593722434,5754.719996992921,280.00000000401207,0.000320575512955193,24.383999997893014,-5.050154932827084e-10,-3.726770318857288e-06,2.071093723703692e-11,1.570899506627954
22.451863769,22.062000000000012,0.08618408606472872,5764.95999699206,280.00000000379873,0.0003159893308485511,24.383999997952884,-5.028596750136636e-10,-3.6734089783932274e-06,2.062252608480752e-11,1.5708996947095721
22.519072558000005,22.12900000000002,0.08625342790450373,5770.319996991622,280.0000000036894,0.0003136146009985664,24.383999997983537,-5.01117592862995e-10,-3.6457778412810496e-06,2.0551082440138294e-11,1.5708997920984291
22.65427689699999,22.26400000000001,0.08639156953776249,5781.119996990739,280.00000000346915,0.00030888321583725093,24.383999998043926,-4.981424323306711e-10,-3.5907269555544163e-06,2.0429069656909774e-11,1.5708999861348967
22.756120566999982,22.366000000000042,0.08649456076387177,5789.279996990073,280.00000000330266,0.00030535591362998427,24.38399999808836,-4.962782679205123e-10,-3.5496813227720107e-06,2.0352619363331412e-11,1.5709001307913213
22.82285979599999,22.432000000000016,0.086560570862988,5794.559996989642,280.000000003195,0.00030309522451712296,24.383999998116565,-4.953440733682883e-10,-3.5233743210731565e-06,2.031430759852953e-11,1.5709002235033105
22.964160934000006,22.563000000000045,0.08669014601883902,5805.039996988859,280.0000000029812,0.0002986581623273692,24.383999998171316,-4.898456460544798e-10,-3.4717387478944573e-06,2.00888143773103e-11,1.5709004054694462
23.032059156000003,22.63100000000003,0.08675666092577154,5810.479996988464,280.00000000287343,0.00029638011331230865,24.38399999819912,-4.862831714811737e-10,-3.445230665459772e-06,1.9942715529518048e-11,1.5709004988933737
23.168271938999965,22.767000000000053,0.08688817256612356,5821.359996987677,280.0000000026578,0.0002918760629613923,24.383999998253458,-4.797013418493247e-10,-3.3928187078208293e-06,1.9672791441537182e-11,1.5709006836067272
23.270166089999975,22.869000000000028,0.0869854930743682,5829.519996987086,280.00000000249617,0.0002885430466548025,24.38399999829313,-4.750019991962286e-10,-3.3540315250314223e-06,1.9480069075684934e-11,1.57090082029539
23.338110320999988,22.937000000000012,0.08704975522244321,5834.959996986693,280.0000000023915,0.00028634223049520976,24.383999998319076,-4.725532522501344e-10,-3.3284202381913626e-06,1.937964475374374e-11,1.5709009105519596
23.406720381000014,23.005000000000052,0.08711352722213044,5840.3999969863,280.0000000022869,0.0002841582196214321,24.38399999834462,-4.70220129050793e-10,-3.3030040812006234e-06,1.928396221922655e-11,1.5709010001193358
23.575269446999982,23.16300000000001,0.08725981616323367,5853.039996985485,280.0000000020438,0.00027914974847739656,24.383999998402473,-4.596480565846425e-10,-3.2447185006438744e-06,1.8850396280109554e-11,1.570901205519238
23.64328591200001,23.23100000000005,0.08732198631123873,5858.479996985142,280.00000000194234,0.0002770206622738695,24.383999998426752,-4.546514858481587e-10,-3.2199515137219193e-06,1.8645484435484574e-11,1.5709012928341262
23.710605015999988,23.298000000000002,0.08738277672790168,5863.839996984804,280.0000000018424,0.00027493895882339575,24.38399999845032,-4.497650301549103e-10,-3.195734755004838e-06,1.844508845829118e-11,1.570901378205824
23.844848814999978,23.43100000000004,0.08750209846260594,5874.479996984133,280.00000000164806,0.0002708529519068721,24.38399999849606,-4.4103401093318345e-10,-3.1482007666735392e-06,1.808702502693028e-11,1.5709015457750077
23.912840985000003,23.498000000000047,0.0875615354286404,5879.839996983796,280.0000000015512,0.00026881774993175686,24.383999998518583,-4.366738999354631e-10,-3.1245251021216273e-06,1.7908214708615706e-11,1.570901629239657
24.054825499999993,23.630000000000052,0.08767732860832392,5890.39999698313,280.00000000136356,0.000264852887313018,24.383999998561983,-4.2900042576990513e-10,-3.078407419745294e-06,1.7593521722293953e-11,1.5709017918406523
24.122233909999977,23.697000000000003,0.0877354488885649,5895.7599969827925,280.0000000012698,0.00026286269652535925,24.38399999858352,-4.2559974467533364e-10,-3.0552595691671433e-06,1.7454058107729294e-11,1.57090187345937
24.223621650999974,23.799000000000035,0.08782309547696235,5903.919996982354,280.0000000011272,0.0002598612954169218,24.383999998615693,-4.1633613270053807e-10,-3.020349414856395e-06,1.7074152773929405e-11,1.5709019965483282
24.359633771000006,23.935000000000002,0.08793840284038602,5914.799996981769,280.0000000009433,0.0002559127025958947,24.38399999865746,-4.036622540642754e-10,-2.9744259890090683e-06,1.6554390699574585e-11,1.570902158482091
24.42761213900002,24.003000000000043,0.08799539781401423,5920.239996981477,280.0000000008545,0.00025396097772792007,24.383999998677865,-3.9763422178141615e-10,-2.9517265080851785e-06,1.630717809880867e-11,1.5709022385233022
24.564860324999984,24.12900000000002,0.08809984731541076,5930.319996980936,280.0000000006916,0.00025038529875255703,24.38399999871485,-3.869121215791494e-10,-2.9101411060776608e-06,1.5867459434970837e-11,1.5709023851636825
24.63219719099999,24.196000000000026,0.08815479277966802,5935.679996980648,280.00000000060726,0.0002485038954170675,24.383999998734097,-3.816065793475389e-10,-2.8882656137752232e-06,1.5649876507062283e-11,1.5709024623209724
24.699536651000017,24.263000000000034,0.0882093253821938,5941.03999698036,280.00000000052296,0.00024663663433141715,24.383999998753062,-3.760559643133257e-10,-2.866555060051238e-06,1.542224302099138e-11,1.5709025388982818
24.83516819199997,24.399,0.08831876463247203,5951.9199969797755,280.00000000035806,0.00024288910598993296,24.38399999879067,-3.6614434744869047e-10,-2.822983525994305e-06,1.5015762684286648e-11,1.5709026925862901
24.90244816400002,24.465000000000032,0.08837127112219557,5957.199996979492,280.0000000002781,0.00024109113310236133,24.383999998808513,-3.6130805187052535e-10,-2.8020788532554114e-06,1.4817423795638845e-11,1.570902766322056
25.078433474999997,24.63100000000003,0.08850162312494987,5970.479996978903,280.0000000000862,0.00023662815067067565,24.38399999885223,-3.437629974041434e-10,-2.7501919677213664e-06,1.4097892373982811e-11,1.5709029493511937
25.14665917399998,24.699000000000012,0.08855432319079316,5975.919996978661,280.00000000001006,0.0002348235670349209,24.383999998869676,-3.3658615763591934e-10,-2.729213326556117e-06,1.3803566597056792e-11,1.5709030233580694
25.281397669,24.834000000000003,0.0886577589239559,5986.719996978182,279.99999999986375,0.00023128177418139825,24.38399999890352,-3.224718691121083e-10,-2.688038306444424e-06,1.32247325912854e-11,1.570903168608763
25.34933363199997,24.90100000000001,0.08870851224358037,5992.079996977944,279.9999999997935,0.00022954396008393729,24.38399999891994,-3.159062508293651e-10,-2.667836551776961e-06,1.2955473312571537e-11,1.5709032398773866
25.416810327000007,24.96900000000005,0.08875963457171875,5997.519996977702,279.99999999972374,0.0002277934141657233,24.383999998936368,-3.092659597004774e-10,-2.647486916000582e-06,1.2683151666916765e-11,1.5709033116681486
25.55396361999999,25.097000000000037,0.08885480042985888,6007.759996977248,279.9999999995956,0.00022453548520059578,24.38399999896658,-2.975957097040646e-10,-2.6096082100708614e-06,1.2204548900232172e-11,1.570903445277442
25.655472188999966,25.197000000000003,0.08892820510578238,6015.759996976893,279.9999999994977,0.00022202205069141013,24.38399999898959,-2.8857776068353263e-10,-2.580401483764005e-06,1.1834718316702637e-11,1.570903548354646
25.72324247299997,25.265000000000043,0.08897765222102041,6021.199996976651,279.9999999994343,0.0002203289749144506,24.383999999004953,-2.8299347259274197e-10,-2.5607228260058224e-06,1.1605703878512992e-11,1.5709036177885292
25.857551466000018,25.399,0.08907398860886073,6031.919996976176,279.99999999931094,0.00021703040635508237,24.383999999034533,-2.71943781614336e-10,-2.522384383781806e-06,1.1152550546647988e-11,1.5709037530644727
25.92494672099997,25.466000000000008,0.08912161455778282,6037.279996975988,279.99999999925154,0.00021539959583933237,24.383999999049006,-2.6570129065788257e-10,-2.503431815498011e-06,1.0896542880071177e-11,1.5709038199448262
25.99853204300001,25.529000000000053,0.08916606615031604,6042.319996975811,279.9999999991971,0.00021387757406641144,24.383999999062404,-2.585142040452451e-10,-2.485742287940986e-06,1.0601796875912224e-11,1.570903882363699
26.13390358700002,25.666000000000054,0.08926166330019682,6053.279996975427,279.99999999908374,0.00021060451391636783,24.383999999090882,-2.4256139508892807e-10,-2.447702637654892e-06,9.947564223235385e-12,1.5709040165935297
26.235645473999966,25.76800000000003,0.0893318854065725,6061.43999697514,279.99999999900285,0.00020819996165961425,24.383999999111538,-2.3107862062184318e-10,-2.419761484131065e-06,9.476649913203131e-12,1.5709041152054182
26.302898993999975,25.834000000000003,0.0893768929044693,6066.719996974955,279.9999999989536,0.00020665889563886556,24.38399999912465,-2.2376000233907855e-10,-2.4018512177797004e-06,9.176509724350464e-12,1.5709041784053053
26.47274655399997,26.00400000000002,0.08949129950236281,6080.319996974479,279.9999999988319,0.000202741457572248,24.38399999915754,-2.0638781159641874e-10,-2.356322256093591e-06,8.46406751678263e-12,1.5709043390613961
26.54146164399998,26.063000000000045,0.08953048786753545,6085.039996974313,279.99999999879225,0.0002014003461434707,24.38399999916865,-2.0040983969279473e-10,-2.3407355364228812e-06,8.21890790852273e-12,1.5709043940610457
