Real_time_s,Simulation_time_s,x_ft,y_ft,alt_ft,vx_fps,vy_fps,vz_fps,roll_rad,pitch_rad,yaw_rad,adsb_x_ft,adsb_y_ft,adsb_alt_ft
0.0,0.0,-7.4545821886576585e-19,7800.0,300.0,1.7483827159451285e-14,-80.0,-9.517549026488933e-13,1.0425762373575601e-19,1.1896936283111168e-14,-1.5706799999999999,0.839998348018102,-326.32533986612276,308.8458044711863
0.13588104699999803,0.1349999999999909,5.900797286833098e-06,7783.840000000115,300.00000000023505,-4.669936107195617e-05,-79.99999999998671,1.6238739007154822e-09,6.227670170111185e-05,-2.0280346006056396e-11,-1.5706805840322948,0.839998348018102,-326.32533986612276,308.8458044711863
0.33907102300000247,0.3229999999999933,-2.5060682129137802e-05,7768.800000000221,300.00000000098083,-0.0004442242189841686,-79.99999999876889,3.764824270000545e-09,0.0001077219988220982,-4.703244225150302e-11,-1.5706855530613764,0.839998348018102,-326.32533986612276,308.8458044711863
0.544457033999997,0.5120000000000005,-0.00015341051692586361,7753.760000000698,300.00000000208183,-0.001106590270543345,-79.99999999235287,4.944825662595734e-09,0.00013930621772262287,-6.178584479167668e-11,-1.5706938325540816,0.839998348018102,-326.32533986612276,308.8458044711863
0.7481705379999966,0.7129999999999939,-0.00044748708906781366,7737.6000000033155,300.000000003294,-0.0020138184668192826,-79.9999999746655,4.49784702875435e-09,0.00015958788234312694,-5.6209118888777936e-11,-1.5707051728183696,-3.1622333930772863,7794.337581856392,286.0957880113503
0.9859690319999999,0.938999999999993,-0.000979798498303177,7720.320000011449,300.00000000418135,-0.0031138894344888827,-79.99999993941849,2.181663373407188e-09,0.00016776516151199196,-2.7269612932231783e-11,-1.5707189236249701,-3.1625003078114284,7785.9375818650215,286.0957880102145
1.156355480000002,1.097999999999999,-0.001568654794537306,7706.720000024074,300.00000000436046,-0.004013520052155193,-79.99999989934939,-5.904219654866925e-10,0.0001663033283564703,7.374162722508307e-12,-1.5707301689639221,-3.162933823086837,7778.337581883373,286.0957880084502
1.3605056829999995,1.2920000000000016,-0.002423373209288213,7691.280000047586,300.00000000387416,-0.0050209614787193905,-79.99999984247066,-4.163435036627522e-09,0.000158039265296253,5.203001832816082e-11,-1.570742761936776,-3.0874834666702244,7769.364259942066,286.07194915854785
1.5642357190000027,1.48599999999999,-0.0032830428393712985,7678.400000076256,300.000000002891,-0.0058208305335584465,-79.99999978827566,-7.187165521258689e-09,0.0001469409402725947,8.982399261783618e-11,-1.5707527602757292,-3.0853682351605762,7760.483111865799,286.07100703399556
1.8017897280000028,1.7199999999999989,-0.005197965507399263,7654.560000153293,299.9999999998312,-0.0071420930434378666,-79.99999968123635,-1.1949016568288648e-08,0.0001198970621321517,1.4934625904667806e-10,-1.5707692760259766,-3.0017321809329767,7744.333535860252,286.00549026052533
2.1476708490000007,2.0459999999999923,-0.007727387646060617,7628.240000274992,299.9999999951022,-0.008288714717786435,-79.99999957065792,-1.5167128519537148e-08,8.516330940522339e-05,1.8957664806734404e-10,-1.570783608787869,-2.990787759270107,7733.049619235982,285.9973152986708
2.3843038919999984,2.280000000000001,-0.009343893951367841,7613.040000360882,299.9999999920327,-0.008784390172845987,-79.99999951776744,-1.602669152991057e-08,6.483577432139297e-05,2.0032436195700342e-10,-1.570789804734217,-2.806555830876697,7719.052800436586,285.68118078599105
2.5870333069999987,2.4710000000000036,-0.0110268772613913,7598.000000455057,299.9999999889205,-0.009155258658432131,-79.9999994761854,-1.6185292803472593e-08,4.549374386470338e-05,2.0230999402050687e-10,-1.5707944405979446,-2.781798581917675,7710.494843699842,285.6452228447166
2.7901767430000035,2.6599999999999966,-0.01291160245295946,7581.760000564399,299.9999999856076,-0.009429917225952334,-79.9999994442821,-1.5802961410650963e-08,2.606863810391793e-05,1.9753380933390584e-10,4.71238743333706,-2.378186350448176,7690.87055749532,285.17288493796894
2.993982006000003,2.8529999999999944,-0.015052427668007268,7563.760000691708,299.99999998211285,-0.009590194811687514,-79.99999942522912,-1.4877435838955804e-08,6.92061152985011e-06,1.8596721003498654e-10,4.712385429850784,-2.3016749762416984,7679.216215415694,285.0757540243505
3.2319060869999987,3.078000000000003,-0.016908201677104773,7548.320000803228,299.99999997932275,-0.009621441939895886,-79.99999942147728,-1.3821460933695192e-08,-7.225796702573902e-06,1.7276892166366014e-10,4.712385039246386,-2.241790607315868,7670.095425961364,284.9997385269532
3.435597897000001,3.280000000000001,-0.01874393148451224,7533.040000913509,299.9999999767774,-0.009569046220898084,-79.99999942776171,-1.273983371944314e-08,-1.9030185984234404e-05,1.5924937498688386e-10,4.712385694177918,-1.706957297374414,7641.482382202844,284.36279778067905
3.6389818119999973,3.471999999999994,-0.020875814983030504,7515.120001040339,299.99999997406917,-0.009420077438182822,-79.9999994454419,-1.1412014753791249e-08,-3.013070122683294e-05,1.4265190694277494e-10,4.712387556268505,-1.597114736184977,7629.68718354947,284.22735201075636
3.841483283999999,3.661999999999992,-0.022458117154182635,7501.60000113292,299.99999997221863,-0.009257598004979573,-79.99999946440927,-1.0459424984555859e-08,-3.659164299786094e-05,1.307444690977922e-10,-1.5707957199300426,-0.8837153483734594,7597.5307340660565,283.4219411355194
4.0444653130000034,3.853999999999999,-0.02420986771823732,7486.320001233318,299.999999970314,-0.00903300607142546,-79.99999949008425,-9.463032945356747e-09,-4.205284955690304e-05,1.1828924703627657e-10,-1.5707929125443822,-0.7272639028309789,7584.512041430826,283.2354272811511
4.247954759999999,4.043999999999997,-0.02590715783862579,7471.120001328049,299.9999999685988,-0.008778193160595275,-79.99999951845062,-8.554134759170365e-09,-4.57192229681527e-05,1.0692760013601395e-10,-1.5707897273947,-0.5707615753133972,7571.493348790064,283.04891342693617
4.450884930000001,4.244,-0.027545642371591697,7456.0000014168345,299.9999999670522,-0.008504212076047912,-79.99999954804532,-7.739006001973116e-09,-4.7836334554872094e-05,9.673802919810581e-11,-1.5707863026416566,0.15307161510899578,7533.352275260347,282.0073678041232
4.654651549999997,4.432999999999993,-0.029114696841324582,7441.040001499106,299.9999999656656,-0.008221468928179713,-79.99999957760272,-6.996390143292272e-09,-4.8633254334762886e-05,8.745492647936875e-11,-1.5707827683607611,0.35209275003439017,7518.462643474686,281.7568729767259
4.8584285829999985,4.620999999999995,-0.030471059792803096,7427.68000156793,299.99999996453795,-0.007965440212107877,-79.99999960350529,-6.368613372733754e-09,-4.843194413819815e-05,7.960744865772359e-11,-1.5707795680073273,0.5511664685238912,7503.573011683863,281.50637814944986
5.031866200000003,4.783999999999992,-0.0320006120018484,7412.080001642904,299.9999999633481,-0.00766839225887803,-79.99999963253093,-5.670308083737682e-09,-4.732348128134895e-05,7.087835151764932e-11,-1.5707758549139386,0.9720756861184537,7465.444550018599,282.9367509279496
5.273336299999997,5.0120000000000005,-0.033738394434588814,7393.600001724651,299.9999999621094,-0.007326456577434614,-79.99999966457713,-4.876663671949277e-09,-4.506754890963921e-05,6.09576003057419e-11,-1.5707715807227807,1.2198441426575772,7446.402350879466,282.7786537970415
5.477931284999997,5.213999999999999,-0.035194460179863996,7377.440001790293,299.99999996117083,-0.007041477677792516,-79.99999969016865,-4.1944866389499595e-09,-4.251433029945393e-05,5.243030391354625e-11,-1.570768018489411,2.65301559821533,7410.852356731249,278.8311150277095
5.681184901000002,5.408000000000001,-0.03652605613014508,7362.080001847975,299.9999999604101,-0.006786140563795581,-79.99999971223605,-3.5295170302042762e-09,-3.977082766699665e-05,4.4118173483519325e-11,-1.5707648267769976,2.961147551577187,7392.306020900978,278.42620120499174
5.882585116999998,5.60199999999999,-0.03782965786841724,7346.480001902432,299.9999999597663,-0.006543918903287149,-79.99999973241668,-2.8596589953254598e-09,-3.682806719263123e-05,3.574498424303244e-11,-1.570761799006834,3.2847361081502986,7372.832368275157,278.0010416912921
6.120127525000001,5.826999999999998,-0.039283434108791544,7328.400001960884,299.99999995918705,-0.006285912851887041,-79.99999975310571,-2.049683143490002e-09,-3.338572700108329e-05,2.5620365322955333e-11,-1.5707585739309167,3.4475238177431673,7340.4032850466365,282.0013848535081
6.323505625000003,6.018000000000001,-0.04046204539515018,7313.200002006526,299.9999999588438,-0.006088005887257452,-79.99999976841153,-1.3732345724690722e-09,-3.057567088497976e-05,1.716484135274969e-11,-1.570756100092987,3.7612522833086746,7320.027879706302,281.86862227412917
6.526975139000001,6.219999999999999,-0.04165771775086594,7297.280002051438,299.99999995862026,-0.0058984380560573,-79.99999978261336,-6.86609509958876e-10,-2.779412095926247e-05,8.58212088769789e-12,-1.5707537304936845,3.172824057915546,7295.268620363073,284.5811770965595
6.736832878999998,6.417999999999992,-0.042794096964289326,7281.680002092799,299.99999995853665,-0.005729538068885043,-79.9999997948884,-9.750162665980395e-12,-2.528574128044389e-05,1.2146677943797226e-13,-1.570751619242147,3.392820986135483,7277.406056497182,284.628077229641
6.9426616319999965,6.611999999999995,-0.04392678136681486,7265.6800021328945,299.999999958585,-0.005572160102116807,-79.99999980600512,6.708858532487429e-10,-2.29734410649162e-05,-8.386404375785336e-12,-1.57074965201575,3.661755180061462,7255.574033991035,284.68539961475057
7.146258457000002,6.804999999999993,-0.04497466743380694,7250.480002168934,299.999999958759,-0.005435998140861835,-79.9999998153734,1.31743413656662e-09,-2.1039108291718176e-05,-1.646818928139227e-11,-1.5707479499892933,3.0866362478595684,7234.046454523436,283.98960802787707
7.348571219999997,6.991,-0.0459869441506651,7235.440002202942,299.99999995905375,-0.005312589687952197,-79.999999823664,1.936977386740648e-09,-1.9383309980927202e-05,-2.4212424384843366e-11,-1.5707464073818302,3.2830858956536018,7213.996451143282,283.99696255231686
7.550172951,7.189999999999998,-0.04703934554865637,7219.4400022375185,299.99999995948895,-0.005191687144265136,-79.99999983160163,2.561481007049853e-09,-1.789265446734097e-05,-3.2018671878282045e-11,-1.5707448960982515,3.625514519628689,7196.297150558481,284.2372564910459
7.7225190070000025,7.35199999999999,-0.0478745363801326,7206.480002264413,299.9999999599341,-0.005100602054898509,-79.9999998374609,3.04193117793918e-09,-1.688117397076912e-05,-3.8024265883507594e-11,-1.570743757533203,3.811373214310149,7178.28798934648,284.25682528698485
7.928978037,7.546999999999997,-0.04886583551048208,7190.800002295749,299.999999960575,-0.004997170434917469,-79.99999984398869,3.5897330746472566e-09,-1.5874222369500794e-05,-4.4871757471739884e-11,-1.5707424646364014,3.9972541224122367,7160.2788281330995,284.2763940830457
8.133038493,7.7479999999999905,-0.04980297106815372,7175.680002324735,299.999999961295,-0.004903161836375922,-79.9999998498058,4.103351681541192e-09,-1.5106001168058782e-05,-5.1291964440000485e-11,-1.5707412895275228,3.061911233557367,7144.691971500405,284.1618636001885
8.303219495999997,7.905000000000001,-0.050621416343217644,7162.240002349644,299.99999996201086,-0.004823402617092076,-79.9999998546545,4.52420374890058e-09,-1.4570574719304346e-05,-5.655259946655265e-11,-1.5707402925363607,3.1866479366616915,7126.830954491965,284.1741175532226
8.505280249999998,8.096000000000004,-0.05153583969722762,7146.960002376995,299.99999996290893,-0.0047360878673403705,-79.9999998598714,4.968213528235448e-09,-1.4106181775359723e-05,-6.210270613681538e-11,-1.5707392011010017,3.3113982642995476,7108.969937482716,284.1863715063233
8.674191299999997,8.262999999999991,-0.05229384349624274,7134.080002399286,299.99999996372816,-0.00466460462680939,-79.99999986407143,5.312944473569998e-09,-1.3814639725800059e-05,-6.641183244241171e-11,-1.5707383075597878,2.702409034087579,7095.9066567762375,282.3108054592663
8.876100049000001,8.456999999999994,-0.053164527403534965,7119.0400024245,299.99999996475515,-0.004582963692573427,-79.99999986879011,5.684814749758069e-09,-1.3570012908464967e-05,-7.10602019223384e-11,-1.570737287047482,2.7971697434052247,7076.364954778824,282.211826009845
9.115878656,8.677999999999997,-0.054370568836023966,7097.7600024586345,299.9999999663223,-0.004469696238978891,-79.99999987519877,6.161684524123319e-09,-1.3354605756506582e-05,-7.702106478762251e-11,-1.5707358712036328,2.436215218249151,7059.59046080979,281.4535660424975
9.352237371000001,8.900999999999996,-0.05521364750939797,7082.5600024819705,299.99999996751507,-0.004389820366303402,-79.99999987962173,6.461777549506213e-09,-1.3267975378034891e-05,-8.077222358486086e-11,-1.5707348727549242,2.4987779420873864,7041.4282624679445,281.32269311678965
9.520631121999998,9.057999999999993,-0.05589886065013782,7070.000002500598,299.9999999685419,-0.004324197433751034,-79.99999988319585,6.691137033648059e-09,-1.3223006037246748e-05,-8.3639214886174e-11,-1.5707340524680968,2.558061409328091,7024.221969301252,281.19870823984456
9.723578017999998,9.259,-0.05672286677647416,7054.640002522679,299.99999996984366,-0.004244231182846958,-79.99999988747831,6.928283772469456e-09,-1.3187331245413654e-05,-8.660354791343482e-11,-1.5707330528898682,1.2372329069623142,7011.887897007121,282.7787167575141
9.926979543999998,9.450999999999993,-0.057681476847010194,7036.400002547889,299.9999999714466,-0.004149534732480451,-79.99999989244634,7.1550304074478416e-09,-1.3154959653495173e-05,-8.943788074477121e-11,-1.570731869184229,1.2194490774829114,6992.198081482736,282.74169061119034
10.168202825999998,9.679999999999993,-0.058508710534881055,7020.320002569148,299.99999997289746,-0.0040662428853074336,-79.99999989672335,7.321979676712723e-09,-1.3122189652020748e-05,-9.152474753322331e-11,-1.5707308280362087,1.4349391188858396,6981.111998128891,284.249715852969
10.337002738000002,9.837000000000003,-0.059139151663926665,7007.840002585064,299.9999999740466,-0.004001746635442931,-79.99999989997563,7.424258199620297e-09,-1.308758933196064e-05,-9.28032302070905e-11,-1.570730021833171,1.432501487852629,6963.709307316546,284.30682900409766
10.539983935999999,10.025999999999996,-0.059901317063750084,6992.480002603972,299.9999999754805,-0.003922605637018109,-79.99999990389536,7.520640070382645e-09,-1.3029332866424977e-05,-9.400800539271793e-11,-1.5707290325708287,1.430205423455529,6947.222547598946,284.36093619991544
10.743498523,10.227999999999994,-0.06064830812583075,6977.120002622141,299.9999999769302,-0.003843826606357974,-79.99999990771937,7.58560417197948e-09,-1.2950263483526782e-05,-9.482005887266506e-11,-1.5707280478331174,0.06803838498255635,6934.780483585249,285.4330033293531
10.946002350999997,10.418999999999997,-0.061508252508982716,6959.040002642576,299.9999999786492,-0.0037517495964159227,-79.99999991209057,7.633154974431001e-09,-1.2827188096272764e-05,-9.541444624395064e-11,-1.5707268968706791,-0.016743657318716944,6916.889510475782,285.5541201505813
11.186854928999999,10.646999999999991,-0.062259374434752435,6942.880002660023,299.99999998019376,-0.003670206459753745,-79.99999991587319,7.642248626395024e-09,-1.2689785114218374e-05,-9.552811911071082e-11,-1.5707258775816522,-0.10150972867629279,6898.998537365578,285.67523697180695
11.42546515,10.872,-0.06307307569708935,6924.960002678516,299.99999998190503,-0.0035808501921142633,-79.99999991992283,7.612915308758423e-09,-1.2507515482165183e-05,-9.516145481341812e-11,-1.570724760628492,-0.40878649435145936,6886.329152112551,285.4498094891404
11.628277722,11.060999999999993,-0.06362795839548212,6912.480002690841,299.99999998309056,-0.0035193943140412083,-79.99999992265009,7.575177108497779e-09,-1.2363404775221613e-05,-9.468972852870878e-11,-1.5707239924301266,-0.5013805059898363,6869.688615365977,285.5451144044662
11.796555476000002,11.22699999999999,-0.06429091662668308,6897.28000270527,299.9999999845245,-0.0034454962950813696,-79.99999992586697,7.513179491530241e-09,-1.2171304468772542e-05,-9.39147597029568e-11,-1.5707230687050213,0.38558219170280766,6860.7937703742355,280.1031212419032
12.000806124999997,11.417000000000002,-0.06495683465049916,6881.680002719477,299.99999998598383,-0.003370870511328601,-79.99999992904625,7.423337482007965e-09,-1.195742923323699e-05,-9.279173557951407e-11,-1.5707221358828303,0.3515568986278993,6845.421225846648,279.88914459823536
12.209320732999998,11.613,-0.06563146432560736,6865.520002733528,299.99999998747336,-0.003294951758765537,-79.99999993220919,7.3151526691713e-09,-1.1721342179296069e-05,-9.143942610942836e-11,-1.5707211868985103,0.31376518761482064,6828.340620815411,279.6513927719135
12.378734676,11.780000000000001,-0.0661387323926079,6853.120002743889,299.99999998860227,-0.0032377362864717102,-79.99999993454536,7.213581742591062e-09,-1.1532083631644733e-05,-9.01697898247924e-11,-1.5707204717051564,0.44492860847592314,6817.2359158069,279.41716693461854
12.615688653,11.99499999999999,-0.06675809582362482,6837.680002756309,299.9999999899826,-0.0031677797748148693,-79.99999993734609,7.06209896893749e-09,-1.1289493957289972e-05,-8.827625531483073e-11,-1.5707195972488082,0.41581505589720913,6799.639363245176,279.16722606791234
12.819617623,12.197000000000003,-0.06749114140166432,6818.9600027706565,299.9999999916147,-0.0030849299077052614,-79.9999999405839,6.860730367807375e-09,-1.0988692233428425e-05,-8.575914769958762e-11,-1.5707185616255037,0.999040517673046,6787.81461007389,280.11200061923574
13.021810486,12.387,-0.06807218041315526,6803.760002781721,299.9999999929045,-0.0030193142045137115,-79.99999994308729,6.6882685431771914e-09,-1.0741917616379616e-05,-8.360337456657705e-11,-1.5707177414292204,1.0080089908230767,6772.973457406479,279.96303866414337
13.226748200000003,12.579999999999998,-0.06855486677288072,6790.880002790788,299.99999999397,-0.002964866217413164,-79.99999994512375,6.519788829004674e-09,-1.0532853307976716e-05,-8.149737774314615e-11,-1.5707170608293763,1.0174873632968375,6757.307796257117,279.8058010448418
13.396415677,12.747,-0.06910747882124524,6775.84000280091,299.99999999518144,-0.0029026222025021146,-79.99999994740638,6.321176346708194e-09,-1.029035188652864e-05,-7.901472113897772e-11,-1.5707162827791725,1.2111964171667902,6745.620203258516,282.4918655165145
13.598545958999999,12.935999999999993,-0.06965420577618864,6760.6400028107555,299.99999999636634,-0.0028411849315070933,-79.99999994961198,6.102466784653289e-09,-1.0048600480449413e-05,-7.628085093749459e-11,-1.5707155148132568,1.232424451481194,6729.336902282263,282.49895054215506
13.801065057999999,13.126999999999995,-0.07022283775983905,6744.4800028207155,299.9999999975796,-0.002777442857661406,-79.99999995185044,5.869624811547169e-09,-9.796673189355627e-06,-7.337032551727184e-11,-1.570714718037297,1.2526019904404737,6713.867766354447,282.5056813164702
14.004746067,13.319000000000003,-0.07075146347939149,6729.120002829806,299.99999999868817,-0.002718341443564506,-79.99999995388055,5.631208729852059e-09,-9.563153205511369e-06,-7.039012373770816e-11,-1.5707139792695797,-0.01840824979034772,6701.636758144246,282.66896020534284
14.175936280999998,13.479,-0.07118070892705272,6716.400002837039,299.99999999957055,-0.002670468007732866,-79.99999995549301,5.425122907037807e-09,-9.374662812337446e-06,-6.781405027620765e-11,-1.5707133808515898,-0.06844964446006972,6687.124820335143,282.6837419917149
14.378785151999999,13.679999999999993,-0.0717073446708755,6700.48000284574,300.00000000063005,-0.0026118640554966144,-79.99999995742786,5.155346767757373e-09,-9.145548764788529e-06,-6.444184775322113e-11,-1.5707126483021385,-0.4412079252137289,6674.7092911515765,281.5502724779916
14.581374242999999,13.866,-0.07219422362826725,6685.440002853601,300.00000000158025,-0.002557832982977065,-79.99999995917366,4.895872202960328e-09,-8.93631391771022e-06,-6.119841494647875e-11,-1.5707119729136814,-0.5130156760216293,6659.529193275531,281.4980647398941
14.783347272999997,14.054999999999993,-0.07267606846382998,6670.24000286123,300.0000000024874,-0.00250447694435264,-79.99999996086181,4.626760353955634e-09,-8.732070725919349e-06,-5.783451611278493e-11,-1.5707113059631483,-0.5848138474329003,6644.349095399188,281.44585700174696
14.986350655999999,14.25699999999999,-0.07316262638353624,6654.560002868778,300.00000000336973,-0.00245070382729849,-79.99999996252718,4.3450531064357735e-09,-8.528870776531866e-06,-5.431317484536703e-11,-1.5707106337991377,-0.5688373772349365,6628.927307988642,284.2508385812941
15.194671778,14.453000000000003,-0.07363393181005316,6639.040002875918,300.0000000041889,-0.002398710711999317,-79.99999996410304,4.0686752409887984e-09,-8.335027189505471e-06,-5.085845091507051e-11,-1.5707099838851528,-0.6314005071216819,6614.67606710063,284.356853493172
15.400924658000001,14.646,-0.07411408101061902,6622.880002883038,300.0000000049846,-0.0023457906084870684,-79.9999999656723,3.77819790461834e-09,-8.140374380384233e-06,-4.72274835570309e-11,-1.570709322383808,0.6448258512553461,6599.643242823291,284.8792218056437
15.603937661000003,14.835999999999999,-0.07455600746389986,6607.680002889449,300.00000000567957,-0.002297180311980396,-79.99999996708289,3.504446027105725e-09,-7.963922365399126e-06,-4.3805584536144157e-11,-1.570708714755059,0.6591809970034098,6583.7695169216495,285.02300561133217
15.807230333,15.030000000000001,-0.07499780858801593,6592.160002895717,300.0000000063351,-0.0022486267447597813,-79.99999996846238,3.2283556728182256e-09,-7.789931626338975e-06,-4.035445459290085e-11,-1.570708107835428,0.6721087621202749,6569.483163609949,285.1524110364042
16.011312214999997,15.230999999999995,-0.07542364445854259,6576.880002901649,300.0000000069283,-0.002201853890248252,-79.99999996976338,2.952967009870617e-09,-7.624258636356975e-06,-3.6912095822363067e-11,-1.5707075231747072,0.19283732919865365,6555.73616788896,286.7273484031357
16.181271543,15.39,-0.07579090361126872,6563.440002906657,300.00000000740624,-0.0021615403060300403,-79.99999997086277,2.715356044286e-09,-7.4828754447605494e-06,-3.394195838875229e-11,-1.5707070192548755,0.17773963270909784,6540.701536102578,286.9482434692037
16.418665206,15.61699999999999,-0.07620662230613191,6547.920002912217,300.0000000079104,-0.002115916577053605,-79.9999999720825,2.4425094209178946e-09,-7.3242616513028476e-06,-3.053137520033934e-11,-1.5707064489582319,0.16026843983714276,6523.293015086495,287.2040167035361
16.630979996999997,15.816999999999993,-0.0767644817307127,6526.560002919488,300.0000000085199,-0.0020546884882270363,-79.99999997367847,2.075179118084597e-09,-7.113260540378222e-06,-2.593974592195609e-11,-1.5707056836070823,-0.6242792682591146,6504.246837620589,289.9740805340242
16.871117517000002,16.045999999999992,-0.07715964638647971,6511.040002924519,300.00000000890356,-0.002011315090096021,-79.99999997478072,1.8096822661416196e-09,-6.964808105471402e-06,-2.2621034949639414e-11,-1.5707051414395798,-0.6822532229057163,6489.178099870517,290.33494419035554
17.073447011,16.24499999999999,-0.07754054326646447,6495.760002929263,300.0000000092298,-0.001969493221456123,-79.99999997582125,1.5562508192671924e-09,-6.822256963189542e-06,-1.9453141566043046e-11,-1.570704618666198,0.35278243349397864,6473.770730890163,288.0560291383646
17.277424157,16.438999999999993,-0.07791739140753672,6480.320002933842,300.00000000951127,-0.0019281070090883747,-79.9999999768294,1.3099947589456816e-09,-6.681583450359011e-06,-1.6374940541041984e-11,-1.5707041013385226,0.3585973340189096,6457.951079052067,288.2735772417277
17.478352372000003,16.628,-0.07829767576196278,6464.400002938359,300.0000000097521,-0.0018863287544460192,-79.9999999778254,1.0644257240562842e-09,-6.539803853756338e-06,-1.330532735058259e-11,-1.5707035791103197,0.3641287113225356,6442.922409805702,288.4802479398805
17.682818855999997,16.820999999999998,-0.07865860763059897,6448.960002942568,300.0000000099396,-0.0018466551446687444,-79.99999997875106,8.325975395755045e-10,-6.405235215543231e-06,-1.0407474813800186e-11,-1.57070308319018,0.4481347118851304,6428.33301032108,288.8478615304364
17.886432164,17.01299999999999,-0.07901013210449791,6433.600002946595,300.0000000100829,-0.001807999604091311,-79.99999997963404,6.071644152521739e-10,-6.274051716124928e-06,-7.589560540041072e-12,-1.5707025999959061,0.45863372709212735,6412.5535757360985,289.0747826394154
18.089658586,17.214,-0.07937027261901405,6417.520002950631,300.00000001018594,-0.0017683696948734488,-79.99999998051986,3.802118942648661e-10,-6.139395742231217e-06,-4.752653808935551e-12,-1.5707021046220238,0.02777204546216806,6396.432319179862,290.01514261693757
18.292970257,17.403999999999996,-0.07970341819146046,6402.320002954259,300.0000000102428,-0.0017317018171660696,-79.999999981322,1.781124655160127e-10,-6.014563138547401e-06,-2.2264107527738912e-12,-1.5707016462735366,0.009544557605108426,6379.0145289746215,290.3134976837923
18.529838982,17.62899999999999,-0.08009070974345245,6384.240002958381,300.0000000102614,-0.001689052757348219,-79.99999998223385,-4.9972314526887194e-11,-5.869032368403346e-06,6.246492208303745e-13,-1.570701113160271,-0.005362442792780914,6364.763609715658,290.55760637482166
18.700161414,17.784999999999997,-0.08034911871648122,6371.920002961087,300.0000000102439,-0.001660589325139978,-79.99999998282978,-1.9994239665872918e-10,-5.771645429225866e-06,2.4992753977933467e-12,-1.570700757367356,-0.5627675998512023,6349.269662422967,293.28613013311855
18.910675866,17.979,-0.08067010700028507,6356.320002964374,300.00000001019094,-0.0016252173154871524,-79.99999998355618,-3.783150422326591e-10,-5.650388409054272e-06,4.7289336422762424e-12,-1.5707003152172212,-0.609222358219133,6334.21489004045,293.6838195631696
19.113408063999998,18.179000000000002,-0.08099223742829843,6340.3200029676,300.00000001010073,-0.0015897049838701303,-79.99999998426973,-5.514389090857134e-10,-5.528317828157071e-06,6.892982149538633e-12,-1.570699871313062,-0.2029104573780311,6319.450695965977,290.92666366468166
19.316649622,18.372,-0.08134776801118977,6322.240002971075,300.0000000099587,-0.0015505053037239477,-79.99999998503911,-7.352762164988857e-10,-5.393167069131391e-06,9.19094868165023e-12,-1.570699381317044,-0.2247416137809309,6302.845574800954,291.1605890969696
19.519925627,18.560999999999993,-0.08158804103423131,6309.760002973375,300.00000000983607,-0.0015240119799052004,-79.99999998554817,-8.539648660291126e-10,-5.301605415765801e-06,1.0674556933024776e-11,-1.570699050150484,-0.2476047312086644,6285.4497335803135,291.4056538355238
19.756357373,18.792,-0.08188562125460502,6294.000002976157,300.00000000965713,-0.0014911893620652638,-79.99999998616671,-9.941892016073598e-10,-5.187963493562525e-06,1.2427361279749276e-11,-1.5706986398677483,0.61155069686518,6272.871630283691,289.4462049155335
19.891876861,18.924999999999997,-0.0820843716945048,6283.280002978006,300.0000000095196,-0.0014692646198520693,-79.99999998657242,-1.0888854054981886e-09,-5.11191439504047e-06,1.3611063931857545e-11,-1.570698365808461,0.6276069831515733,6264.949921726289,289.49323392716263
19.993898363,19.02199999999999,-0.08222495037113876,6275.6000029792785,300.00000000941355,-0.00145375807166419,-79.9999999868557,-1.1492618948140588e-09,-5.0580548836979685e-06,1.4365770125654317e-11,-1.5706981719766007,0.6533001555140528,6252.275188034389,289.56848034575785
20.162766266,19.188000000000002,-0.0825543394135739,6257.2800029822165,300.00000000913616,-0.0014174188801694756,-79.9999999875078,-1.2865070617013435e-09,-4.9316991447397215e-06,1.6081334878916952e-11,-1.5706977177366914,0.7514251072693987,6234.923958853055,289.1300919454987
20.438010952,19.450999999999993,-0.08287549524932479,6238.960002985014,300.0000000088283,-0.0013819940163453768,-79.9999999881277,-1.4130067555313723e-09,-4.808307143718105e-06,1.7662581211891598e-11,-1.5706972749258776,0.7891379380710364,6218.308427440192,289.1941722520324
20.645256161,19.64699999999999,-0.08315212845652635,6222.800002987389,300.00000000853476,-0.0013514748859519685,-79.9999999886491,-1.5135059425847713e-09,-4.701893670038687e-06,1.8918821189352016e-11,-1.5706968934367334,0.8232684863340327,6203.275327590302,289.2521496722036
20.816183422,19.804999999999993,-0.08336422311696721,6210.160002989129,300.000000008292,-0.0013280825662824317,-79.99999998904093,-1.5768680072393777e-09,-4.620245406539457e-06,1.9710847106774496e-11,-1.5706966010327248,0.056121192168550986,6188.9802019263025,291.18660647676637
21.019665684000003,19.997,-0.08361572258218392,6194.880002991207,300.000000007985,-0.0013003447489172701,-79.99999998949659,-1.655343508668374e-09,-4.5234226151375905e-06,2.0691790998529598e-11,-1.5706962543099943,0.04454342538474771,6173.119748398944,291.35964374731014
21.223022198000002,20.198999999999998,-0.08387601250887261,6178.720002993281,300.000000007645,-0.0012716338638610327,-79.99999998995816,-1.7200210648516134e-09,-4.423203783794846e-06,2.150026057238613e-11,-1.5706958954239179,2.0869431401574206,6158.765637048763,288.65376707720384
21.427006515000002,20.396,-0.08412431359286293,6162.960002995228,300.00000000730046,-0.0012442506574575718,-79.99999999038872,-1.776740431432219e-09,-4.327589823984944e-06,2.2209252770714086e-11,-1.5706955531338247,2.207861994764184,6142.12241482889,288.6498124260626
21.630623731999997,20.587999999999994,-0.08440136606447306,6144.960002997369,300.00000000689556,-0.0012137010173476786,-79.99999999085806,-1.8315971316264249e-09,-4.220928720789849e-06,2.289496165327253e-11,-1.5706951712633082,2.334544885353809,6124.686658217503,288.64566945819115
21.871358301999997,20.817999999999998,-0.08463716308589973,6129.280002999092,300.0000000065331,-0.0011877016207140236,-79.99999999124834,-1.8619630198934592e-09,-4.130181391953561e-06,2.3274535361179834e-11,-1.5706948462708379,3.6934939519071084,6109.244681377249,284.4153243766846
22.078366646,21.012,-0.0848655767438621,6113.760003000794,300.00000000617007,-0.001162519270687301,-79.99999999161827,-1.8946228511828665e-09,-4.042308793701839e-06,2.36827833531545e-11,-1.57069453149145,3.9012707809191256,6091.851126944034,284.13527056130795
22.314627526000002,21.245999999999995,-0.08512556875870596,6095.680003002609,300.000000005738,-0.0011338537332630885,-79.99999999202971,-1.9089455811653997e-09,-3.942325039333755e-06,2.3861817593946044e-11,-1.5706941731722166,2.6629994305361677,6074.26852232916,286.62893908625233
22.517939105000004,21.438000000000002,-0.08534362830553704,6080.160003004166,300.0000000053672,-0.0011098176664492783,-79.99999999236677,-1.9253953080174606e-09,-3.858528340476172e-06,2.4067439272297856e-11,-1.5706938727213697,2.770066158474714,6057.567726375252,286.53728039602936
22.720907912999998,21.631,-0.08556469257182955,6064.08000300563,300.00000000498295,-0.0010854511156087724,-79.99999999270106,-1.9225368594673816e-09,-3.7736282417010015e-06,2.4031708755699435e-11,-1.5706935681394727,2.8669402959805974,6042.457482416896,286.45435110487534
22.924948628000003,21.828999999999994,-0.08581381984493872,6045.520003007319,300.00000000453946,-0.0010579896749265333,-79.999999993069,-1.9235285859874275e-09,-3.677988781689216e-06,2.4044105437154032e-11,-1.5706932248714507,1.7696565878835553,6026.789668874141,285.80381738026045
23.129432674,22.025999999999996,-0.0859850696869031,6032.48000300841,300.0000000042279,-0.0010391146264827741,-79.99999999331635,-1.911168442042213e-09,-3.6122778757941463e-06,2.388960370425239e-11,-1.5706929889333354,1.7975973006419605,6012.542020837293,285.6957338343322
23.332416857,22.226,-0.08618082521710581,6017.280003009651,300.00000000386467,-0.001017537821967587,-79.99999999359372,-1.890186410988328e-09,-3.5371853665732243e-06,2.362732839324193e-11,-1.5706927192232678,1.7944608567100406,5996.536969892699,285.9155261878688
23.541291788000002,22.415999999999997,-0.0863775134900807,6001.680003010925,300.00000000349957,-0.000995861935712163,-79.99999999386648,-1.8757998778153907e-09,-3.461778253067371e-06,2.344749680370296e-11,-1.570692448274679,1.8190601538092426,5983.084129994997,285.8311575189446
23.751183505,22.61099999999999,-0.08657490135662632,5985.680003012083,300.00000000312656,-0.0009741076674144643,-79.99999999413434,-1.8362751192476982e-09,-3.3861329572945206e-06,2.2953437393561158e-11,-1.5706921763463146,1.8494518287991768,5966.465916003665,285.72693739851655
23.921685122,22.778999999999996,-0.08672681242160052,5973.120003012992,300.0000000028411,-0.000957367362639439,-79.99999999433642,-1.8074170346333926e-09,-3.327939213298571e-06,2.259271138824595e-11,-1.5706919670924977,1.6460683937633733,5951.50129453398,289.36202035272635
24.125069389000004,22.971000000000004,-0.08690999140770515,5957.680003014109,300.0000000024955,-0.0009371805183884054,-79.99999999457549,-1.7751169533914891e-09,-3.257778917722345e-06,2.2188960437548582e-11,-1.5706917147569346,1.6605390925556518,5936.393050505807,289.4800458745984
24.328815433000003,23.158999999999992,-0.08709390736565653,5941.8400030151315,300.0000000021479,-0.0009169099198387854,-79.9999999948104,-1.724031798519525e-09,-3.1873503702096884e-06,2.1550396066498848e-11,-1.5706914613744423,1.0654389360432572,5922.325108049551,289.30944676721225
24.498348411000002,23.319000000000003,-0.08723961211682547,5929.040003015938,300.00000000187504,-0.0009008526415540345,-79.9999999949928,-1.6805759989145837e-09,-3.1315683665774287e-06,2.1007198620619718e-11,-1.5706912606584562,1.043319155691363,5906.945000456406,289.4126081565478
24.703864113999998,23.51299999999999,-0.0874110917187851,5913.680003016907,300.00000000155586,-0.0008819542316311738,-79.9999999952034,-1.6326162048422559e-09,-3.0659269098437535e-06,2.0407701250970496e-11,-1.570691024428323,1.0238384094896602,5893.397755426143,289.50347570156623
24.873565305,23.677999999999997,-0.08755819351497775,5900.240003017729,300.0000000012833,-0.0008657398257392903,-79.99999999538052,-1.5913261486546411e-09,-3.0096028024432288e-06,1.989157559811373e-11,-1.570690821748241,0.9280240569738266,5878.050428079086,290.7448381412425
25.076015088000005,23.867999999999995,-0.08771958712383217,5885.200003018536,300.0000000009899,-0.0008479538987876572,-79.99999999557102,-1.52425452409847e-09,-2.947822912522986e-06,1.9053180342607406e-11,-1.570690599424145,0.901854601629375,5862.864437444979,290.91366945562726
25.279787279000004,24.058999999999997,-0.08790839869883751,5867.200003019503,300.00000000065427,-0.0008271443091793156,-79.99999999578887,-1.4493869705106408e-09,-2.8755597898645155e-06,1.8117335979822064e-11,-1.5706903393042655,0.8729341240989237,5846.07992148093,291.1002724873283
25.483944617999995,24.262,-0.08803739266734892,5854.640003020178,300.0000000004299,-0.0008129279583296067,-79.99999999593456,-1.4010703355203315e-09,-2.8261779592371763e-06,1.7513378081097767e-11,-1.570690161599873,1.565353027269701,5832.685739530568,289.967738831987
25.687676855000007,24.450999999999993,-0.08816817430590718,5841.680003020873,300.00000000020617,-0.0007985113464351878,-79.99999999607978,-1.3542655887848625e-09,-2.77610151871971e-06,1.6928318787622288e-11,-1.570689981392217,1.5820228486758923,5815.92878462693,290.0724814146064
25.930187712999995,24.680999999999997,-0.08838024613717713,5820.16000302183,299.9999999998534,-0.0007751346238169962,-79.9999999963097,-1.2510958454668692e-09,-2.6948930937922266e-06,1.5638697056633878e-11,-1.5706896891831734,0.7915217827070683,5797.189617638776,291.1602422895673
26.167607786999994,24.90299999999999,-0.0885255105545777,5805.040003022501,299.99999999962165,-0.0007591177674648363,-79.99999999646332,-1.177129791535665e-09,-2.639225526141066e-06,1.4714121425784746e-11,-1.5706894889724605,0.7557614003986677,5780.423138794953,291.327961581917
26.403714746000006,25.12599999999999,-0.08871750121816165,5784.56000302341,299.99999999932953,-0.0007379559553221749,-79.9999999966614,-1.0855673958498411e-09,-2.5656575765105306e-06,1.3569591531799134e-11,-1.570689224449799,0.716599196041121,5762.05985244216,291.51165414022086
26.606899479999996,25.317999999999998,-0.08885797536422531,5769.2000030240915,299.99999999912677,-0.0007224727514762981,-79.99999999680274,-1.023272630872432e-09,-2.5118257011898732e-06,1.2790907006288643e-11,-1.5706890309097439,0.48762728114344533,5747.263302073647,292.1436859401154
26.813311077999998,25.510999999999996,-0.08899620866072822,5753.760003024658,299.9999999989339,-0.0007072360737417882,-79.99999999693897,-9.499234937134888e-10,-2.4588505838051182e-06,1.187404282861285e-11,-1.5706888404512647,0.44881767026415664,5733.721267362574,292.30350686715445
27.015986827999996,25.711,-0.08913638808922852,5737.760003025219,299.9999999987521,-0.0006917831834761943,-79.9999999970741,-8.646289355647195e-10,-2.405126958686933e-06,1.0807860888421619e-11,-1.5706886472901291,0.8896268488146086,5718.277442346347,289.8857284312185
27.218798424,25.897999999999996,-0.08926467467753679,5722.8000030257435,299.9999999985963,-0.0006776444725028523,-79.9999999971951,-7.898582493820203e-10,-2.3559761780545436e-06,9.873227343564267e-12,-1.570688470556235,0.8747185987268857,5703.138139600709,289.91177588448124
27.388232466999995,26.054000000000002,-0.08936968486488879,5710.320003026181,299.9999999984769,-0.0006660714331504659,-79.99999999729229,-7.313361425611877e-10,-2.3157428465879843e-06,9.141701035614365e-12,-1.570688325893237,0.8590284031427171,5687.202031447387,289.93919425635
27.591046688999995,26.256,-0.08949908933547437,5694.6400030267305,299.9999999983398,-0.0006518067168147186,-79.99999999740977,-6.62928722540684e-10,-2.2661622908136406e-06,8.286608315968814e-12,-1.570688147584276,0.2388174708497116,5673.497144532787,289.5266071552413
27.797248118,26.450999999999993,-0.08960395026811119,5681.680003027185,299.9999999982353,-0.0006402468339202679,-79.99999999750312,-6.113497024267056e-10,-2.2259755362338515e-06,7.641870590287297e-12,-1.570688003085734,0.19419979462922796,5659.955570395203,289.5274120189904
27.970062087000002,26.613,-0.08973148076176646,5665.600003027699,299.9999999981182,-0.0006261892225831526,-79.99999999761434,-5.477687671437762e-10,-2.1771010314126943e-06,6.847108929028148e-12,-1.5706878273655858,0.14433534024511985,5644.8208698884755,289.5283115726055
28.173513064000005,26.801999999999992,-0.08984883197945397,5650.4800030280885,299.9999999980203,-0.0006132549688418731,-79.99999999771451,-4.709188909388732e-10,-2.132119915273881e-06,5.8864855042143775e-12,-1.5706876656874078,-0.27892235604919874,5629.191158758762,287.9939410654646
28.377212357999994,26.992999999999995,-0.08996556771763636,5635.120003028484,299.99999999793505,-0.0006003883832895988,-79.99999999781214,-3.9478810044050594e-10,-2.0873865512973833e-06,4.934850649464785e-12,-1.5706875048550817,-0.35345053934149534,5613.292100556108,287.9034094507719
28.581839437,27.195999999999998,-0.09009984192778911,5617.040003028948,299.999999997855,-0.0005855854241991931,-79.99999999792189,-3.125411435405195e-10,-2.0359320155403444e-06,3.906763717073685e-12,-1.5706873198180862,0.09057111250357068,5594.781299129747,289.03741961517875
28.818661472000002,27.42,-0.09023023203311668,5599.040003029412,299.9999999977923,-0.0005712153245046604,-79.99999999802581,-2.377929256160915e-10,-1.985971530897259e-06,2.9724110199660393e-12,-1.5706871401918336,0.04609824715807104,5578.037093098125,289.02149365973906
29.057268983,27.644999999999996,-0.09034345129528391,5583.040003029823,299.99999999775036,-0.0005587340680642118,-79.99999999811396,-1.7918862306548253e-10,-1.942581429043858e-06,2.2398572623216664e-12,-1.5706869841761222,0.9269108352643193,5564.093446869281,290.4051475904865
29.259918943000002,27.834000000000003,-0.09043003454908889,5570.560003030145,299.99999999772547,-0.0005491916981861756,-79.99999999818003,-1.357304750635782e-10,-1.9093956313382e-06,1.6966304309637723e-12,-1.5706868648964933,0.9414736484834225,5548.887238397684,290.4743099598992
29.429896903,27.99199999999999,-0.0905345755360047,5555.20000303054,299.9999999977029,-0.0005376689471538661,-79.99999999825828,-8.829113755745213e-11,-1.869337447302021e-06,1.1036387332295626e-12,-1.5706867208621,0.9552719299640472,5534.481356687738,290.5398322046138
29.633245693999996,28.192999999999998,-0.09064061750443357,5539.280003030926,299.9999999976889,-0.0005259786456743569,-79.99999999833601,-4.111715136943122e-11,-1.8287047824240066e-06,5.139639262019126e-13,-1.5706865747333256,2.160600917173755,5520.720655291375,289.34747996541785
29.836936198999993,28.385999999999996,-0.0907417726788091,5523.7600030311805,299.9999999976846,-0.0005148287034686277,-79.99999999840853,1.6219926267323845e-11,-1.789942495216258e-06,-2.02749524941186e-13,-1.5706864353590433,2.258863940785603,5503.173951909794,289.34154562419053
30.076447739000002,28.611999999999995,-0.09085590303803387,5505.840003031475,299.9999999976954,-0.0005022487632920904,-79.9999999984885,8.913900998467003e-11,-1.7462053932468016e-06,-1.1142380496277223e-12,-1.5706862781097843,2.315990224418092,5483.957373447154,288.5241400138105
30.313350536,28.836,-0.09096872064944302,5487.680003031773,299.9999999977224,-0.0004898132097764327,-79.99999999856564,1.5288783281879658e-10,-1.702970922246275e-06,-1.911098314740669e-12,-1.57068612266536,2.4077741132069224,5466.963963550614,288.4640136792498
30.516489116000002,29.027,-0.09106099548070962,5472.480003032022,299.9999999977548,-0.0004796426573849072,-79.9999999986273,2.0250923093826173e-10,-1.6676098591043695e-06,-2.5313657745249535e-12,-1.57068599553345,2.4853397727226882,5452.603335469021,288.4132026923049
30.719807589,29.227999999999994,-0.09115182612893298,5457.200003032273,299.99999999779675,-0.0004696290894620828,-79.9999999986868,2.4462787909441014e-10,-1.6327957688127692e-06,-3.0578488600751415e-12,-1.570685870363846,1.5517649044266861,5437.850842824001,289.27357505903177
30.889414337000005,29.385999999999996,-0.09122923033834528,5443.920003032491,299.99999999784,-0.0004610976988306575,-79.99999999873646,2.7872758523975936e-10,-1.6031323205868544e-06,-3.4840951736134386e-12,-1.5706857637214586,1.575657367836623,5421.885204768079,289.2732358012199
31.130700289000004,29.611999999999995,-0.09133325470058781,5425.68000303279,299.9999999979069,-0.0004496317043318817,-79.99999999880175,3.1853365255640847e-10,-1.5632673135316439e-06,-3.981670997519451e-12,-1.5706856203965218,1.6007477284452272,5405.121284809341,289.272879580527
31.334776269000002,29.804999999999993,-0.09141928534472807,5410.240003033044,299.9999999979699,-0.0004401486916171399,-79.9999999988545,3.468665690845656e-10,-1.5302899552770184e-06,-4.335832439471682e-12,-1.5706855018588586,1.299559970087205,5389.3422665255075,289.9467499114111
31.537882306,29.99799999999999,-0.09150436555459222,5394.6400030333,299.9999999980411,-0.00043077034221774673,-79.99999999890561,3.721599996819448e-10,-1.4976821033392668e-06,-4.652000308254435e-12,-1.5706853846294866,1.303659816905087,5374.95320904266,289.9826441011392
31.707745892000005,30.167999999999992,-0.09159059325078558,5378.480003033565,299.9999999981165,-0.00042126404247904125,-79.99999999895626,3.9086581779428325e-10,-1.4646304181825794e-06,-4.885823021401639e-12,-1.5706852658007353,1.1645628161671857,5358.127097383245,293.17148438108114
31.910859744999996,30.364999999999995,-0.09165919559205751,5365.36000303378,299.99999999818215,-0.0004137019496969949,-79.99999999899573,4.041409638254006e-10,-1.4383303139804146e-06,-5.0517623362224175e-12,-1.570685171274572,1.1604512481736162,5342.9034939406465,293.39431146119426
32.113846964000004,30.561999999999998,-0.09173997594757197,5349.600003034039,299.99999999826485,-0.00040479728188858103,-79.99999999904126,4.166566856494531e-10,-1.4073603077573584e-06,-5.208208846606562e-12,-1.5706850599662197,1.156124942575597,5326.878648211591,293.6288662823682
32.35151165400001,30.793999999999997,-0.09183209045968663,5331.200003034244,299.9999999983614,-0.0003946430979002304,-79.99999999909205,4.3101226707285413e-10,-1.372041558163891e-06,-5.387653600751322e-12,-1.5706849330389154,1.9959626158821737,5312.323855049767,288.417318975618
32.554107019,30.985,-0.09189363390626566,5318.640003034333,299.99999999842873,-0.0003878600260836703,-79.99999999912527,4.4934091299219945e-10,-1.3484506035603315e-06,-5.616761666151308e-12,-1.5706848482505142,2.0377552219717567,5297.994049414869,288.3335252987291
32.723794915,31.149,-0.09198113508162233,5300.400003034462,299.99999999853503,-0.00037821520511117804,-79.99999999917145,4.813172121692279e-10,-1.3149090601023495e-06,-6.0164653930532894e-12,-1.5706847276902476,2.085695041085817,5280.715319609939,289.6027432545192
32.925879784,31.339,-0.09205350018052674,5284.960003034572,299.9999999986309,-0.00037023919290062203,-79.99999999920881,5.067348246174489e-10,-1.2871754655586476e-06,-6.334185538544466e-12,-1.570684627990091,2.136833867398879,5263.124446258602,289.5938542065116
33.162852349999994,31.566999999999993,-0.09212579412578713,5269.2000030346835,299.99999999873194,-0.00036227031528629006,-79.99999999924528,5.260384370899093e-10,-1.2594706992167651e-06,-6.575480684555152e-12,-1.5706845283791164,2.1810007254542207,5247.932328364259,289.586177301417
33.332246608999995,31.735,-0.09218371820558116,5256.320003034774,299.9999999988158,-0.0003558848509608341,-79.999999999274,5.389363273685673e-10,-1.2372715973199578e-06,-6.7367043053312645e-12,-1.5706844485608098,2.062935284943961,5232.758005508629,290.38266627781707
33.535491793999995,31.929999999999993,-0.09226505098971254,5237.840003034906,299.99999999894504,-0.00034692045673298793,-79.99999999931337,5.514669011584319e-10,-1.206103846566538e-06,-6.8933364672321175e-12,-1.5706843365058774,2.1015305741531094,5215.932220616659,290.42535411597385
33.774169279999995,32.16199999999999,-0.0923348349721176,5221.600003035021,299.9999999990586,-0.0003392273793652198,-79.99999999934639,5.604137428580273e-10,-1.1793554831495437e-06,-7.005171979451633e-12,-1.5706842403424064,1.1347337763034473,5201.571344011778,290.02332036904977
33.976804388999994,32.355999999999995,-0.09238874042375368,5208.800003035111,299.99999999914814,-0.00033328600543571635,-79.99999999937135,5.651109683445541e-10,-1.1586948652663393e-06,-7.063887291468567e-12,-1.5706841660752295,1.1101387373351015,5186.4135030860125,290.03573922720017
34.146149062000006,32.51599999999999,-0.09245250946372492,5193.360003035221,299.9999999992561,-0.00032625741080423177,-79.99999999940033,5.646162643082128e-10,-1.1342578972274662e-06,-7.057703483179665e-12,-1.570684078217793,1.0881336985065386,5172.8512243629575,290.04685083712417
34.351048848999994,32.717,-0.09251717614932754,5177.360003035334,299.999999999368,-0.00031912866436562687,-79.99999999942906,5.624525919193963e-10,-1.1094730125610205e-06,-7.030657570613729e-12,-1.5706839891084594,1.273374920585463,5158.3250211615095,288.5206548499946
34.520013288,32.875,-0.0925666292155696,5164.880003035422,299.99999999945527,-0.00031367847217881695,-79.99999999945064,5.604922168031865e-10,-1.0905222378481693e-06,-7.0061528755800475e-12,-1.570683920981054,1.2610355579682917,5143.171472343511,288.442872164869
34.723893254000004,33.06399999999999,-0.09262633942055382,5149.520003035531,299.9999999995627,-0.0003070977002786104,-79.99999999947613,5.568248754498905e-10,-1.0676477086707307e-06,-6.960311101803005e-12,-1.5706838387214024,1.248697361499538,5128.017923525503,288.36508947974244
34.926144311,33.263999999999996,-0.09268539914289499,5134.000003035641,299.9999999996712,-0.0003005880240618028,-79.99999999950087,5.50835789442417e-10,-1.0450226738914807e-06,-6.885447520210504e-12,-1.5706837573504466,1.9967200542528087,5112.092355163482,288.02958363986414
35.128887229,33.459,-0.09273375692666631,5121.040003035733,299.9999999997619,-0.0002952572738860091,-79.99999999952071,5.412669919702923e-10,-1.0264941337004012e-06,-6.765837546260164e-12,-1.5706836907160664,2.0246585640794694,5098.5474753981725,287.9470649244197
35.298985492,33.622,-0.09279314883786662,5104.800003035848,299.99999999986926,-0.00028871054168275314,-79.99999999954463,5.262181565767871e-10,-1.0037378583576335e-06,-6.577727097564071e-12,-1.570683608881911,2.055884969852793,5083.409080366348,287.8548381248029
35.503182181,33.818,-0.09283959621190604,5091.84000303594,299.9999999999523,-0.00028359093354062855,-79.99999999956297,5.138568666964085e-10,-9.859368632859515e-07,-6.423210969019851e-12,-1.5706835448868066,1.449818344509949,5069.983770456709,287.87150803218054
35.673065513,33.979,-0.09289413549917508,5076.32000303605,300.00000000005184,-0.00027757940029799285,-79.99999999958406,4.968010483491253e-10,-9.65036643236648e-07,-6.210013234017252e-12,-1.5706834697426384,1.4450619792106056,5054.865712901525,287.7849892032292
35.878356567,34.181,-0.0929496988360457,5060.160003036164,300.00000000015075,-0.0002714540901062592,-79.9999999996051,4.779793603882228e-10,-9.437434940812922e-07,-5.974742128888017e-12,-1.5706833931762576,0.09060521356557336,5039.444039038273,289.0801329420414
36.081781725,34.37400000000001,-0.09300137105859824,5044.800003036274,300.0000000002403,-0.00026575875913912043,-79.9999999996243,4.599465373955845e-10,-9.239403367982095e-07,-5.749331836323609e-12,-1.5706833219846184,0.0020355810153172486,5023.526275150886,289.0746945739658
36.285046627,34.57000000000001,-0.09305326372386583,5029.040003036385,300.00000000033083,-0.0002600386593511446,-79.99999999964314,4.391160934218066e-10,-9.040542453043397e-07,-5.488951281635528e-12,-1.570683250483368,-0.09538970178036163,5006.016734874755,289.06871236907773
36.522413402,34.801,-0.09311218302619033,5010.720003036515,300.0000000004269,-0.00025354408072293937,-79.99999999966406,4.132986323211474e-10,-8.814719637549311e-07,-5.166233012198313e-12,-1.570683169301132,0.5933283410744128,4990.839999014924,288.03566085532105
36.69174954499999,34.967,-0.09315147304112288,4998.240003036603,300.0000000004911,-0.0002492138884532783,-79.9999999996777,3.9133773479003494e-10,-8.664171462212826e-07,-4.8917217896042016e-12,-1.5706831151737264,0.5553412068710483,4976.523922622998,287.97537577708334
36.894600495000006,35.158,-0.09320160310944195,4982.000003036718,300.00000000056684,-0.00024368769342428327,-79.99999999969475,3.6422236149078934e-10,-8.472058366724595e-07,-4.5527796186489825e-12,-1.5706830460962857,0.8647508064716147,4962.7683534634025,287.0276184951009
37.100438866999994,35.349000000000004,-0.09323984592971576,4969.360003036808,300.0000000006242,-0.0002394728233961004,-79.9999999997075,3.417929419797296e-10,-8.325517027066274e-07,-4.2724118713441515e-12,-1.5706829934104087,0.8422518739973135,4945.325866951444,286.8929904541682
37.343730928,35.58,-0.09329457419494379,4950.880003036939,300.0000000006996,-0.00023344007905212624,-79.99999999972535,3.10210646242227e-10,-8.115791553572878e-07,-3.877633169709558e-12,-1.5706829180011015,0.8207772153087076,4928.6762207354805,286.7644818696329
37.547652699,35.78099999999999,-0.09334655329703473,4932.880003037067,300.0000000007656,-0.00022770774865753235,-79.99999999974193,2.7956304497769956e-10,-7.916417761969455e-07,-3.4945381495406336e-12,-1.5706828463469686,0.19261268361995132,4913.65993033912,288.5109087372427
37.752013308,35.974000000000004,-0.09339012195452775,4917.440003037176,300.0000000008196,-0.00022290564752595063,-79.99999999975553,2.522358350218764e-10,-7.749322408120669e-07,-3.1529480216139764e-12,-1.5706827863207025,0.13265352222124718,4897.028345483666,288.5003433038953
37.955689389,36.16699999999999,-0.0934421541144678,4898.56000303731,300.00000000087465,-0.0002171698094726793,-79.9999999997713,2.209848627021018e-10,-7.549775065923568e-07,-2.7623108632757252e-12,-1.5706827146227238,0.5408461106245233,4879.062707006979,293.34661161215803
38.193125644000006,36.39299999999999,-0.09348370661780202,4883.120003037419,300.0000000009149,-0.00021259013227802555,-79.9999999997836,1.9546920519903935e-10,-7.390484267248676e-07,-2.4433651412074247e-12,-1.5706826573767567,0.512697159728452,4863.155414962746,293.63638412313514
38.396201203000004,36.588999999999984,-0.09352479991577771,4867.52000303753,300.0000000009513,-0.00020806091989413735,-79.9999999997955,1.7016195304737048e-10,-7.23298400602477e-07,-2.1270244860149427e-12,-1.5706826007615997,0.48595646343303955,4848.043487520727,293.91166800855876
38.565696380999995,36.75699999999999,-0.0935582723211172,4854.560003037609,300.00000000097714,-0.0002043717096528624,-79.99999999980504,1.472180048427328e-10,-7.104698732272626e-07,-1.840225130932491e-12,-1.5706825546464698,0.23455987231630585,4834.817137098353,293.1828383721151
38.770572679,36.951999999999984,-0.09359797773836603,4838.880003037586,300.00000000100454,-0.00019999541927595517,-79.9999999998161,1.2411070162956725e-10,-6.952553578291331e-07,-1.5513838378121977e-12,-1.570682499942838,0.19695647064326385,4820.572842360368,293.38957639683076
38.939923715999996,37.11399999999999,-0.09363133501694243,4825.440003037556,300.00000000102483,-0.00019631842425308808,-79.99999999982526,1.1176405623233455e-10,-6.824725825198658e-07,-1.3970507677521377e-12,-1.5706824539803987,0.1551756650967211,4804.745848207051,293.6192853131805
39.142940092,37.307,-0.0936687048872007,4810.080003037522,300.00000000104274,-0.00019219987125678785,-79.9999999998353,1.0644783092141965e-10,-6.681535965453774e-07,-1.3305979486754395e-12,-1.570682402498484,0.2635333071361609,4790.377016212462,293.9288912148073
39.346639763,37.504000000000005,-0.09370000448398359,4796.960003037492,300.000000001058,-0.00018875001109611492,-79.99999999984352,1.0555640449789242e-10,-6.561655081886604e-07,-1.3194551162224987e-12,-1.5706823593752306,0.23533245412507425,4776.889740186599,294.1297556906819
39.516486984,37.67299999999999,-0.09373760148852808,4780.880003037457,300.0000000010768,-0.0001846056877116159,-79.9999999998532,1.0536145373978706e-10,-6.417611780546235e-07,-1.3170182291147859e-12,-1.570682307571186,0.33050233537057794,4762.614963868253,292.34910381066226
39.718863393999996,37.86200000000001,-0.09377256040761921,4765.6000030374225,300.0000000010946,-0.0001807528788313486,-79.99999999986201,1.0502543313219213e-10,-6.283694409515291e-07,-1.312817969123963e-12,-1.5706822594110728,0.30641571233598025,4747.555386132088,292.4553927326395
39.922918102,38.05499999999999,-0.09380714484278331,4750.1600030373875,300.0000000011126,-0.00017694116606252225,-79.99999999987055,1.0448421582975531e-10,-6.151243273702329e-07,-1.3060527505379235e-12,-1.5706822117646615,0.28232977565656425,4732.495808395923,292.5616816546167
40.091919473000004,38.224000000000004,-0.09383543641678098,4737.280003037359,300.0000000011276,-0.00017382242461103705,-79.99999999987745,1.0378747814830397e-10,-6.042880038670226e-07,-1.2973435276516456e-12,-1.570682172780392,0.28541770307001535,4718.993331746172,294.2064351415913
40.296428377,38.41799999999999,-0.09386903612798801,4721.680003037324,300.0000000011458,-0.0001701191369718096,-79.99999999988542,1.0273732531369793e-10,-5.914182682989791e-07,-1.2842166151227539e-12,-1.5706821264892947,0.2615271280079972,4703.105267659524,294.41393180030263
40.50311138000001,38.61399999999999,-0.0939032561419208,4705.440003037288,300.0000000011647,-0.0001663472804799345,-79.99999999989342,1.0127609495757204e-10,-5.783109343896723e-07,-1.2659512335470349e-12,-1.5706820793410867,0.235248750606211,4685.6283971642,294.64217812488437
40.705735387999994,38.80399999999999,-0.0939345940882354,4690.240003037254,300.00000000118246,-0.0001628934782367199,-79.99999999990051,9.965224872866117e-11,-5.663052418256252e-07,-1.2456531537394398e-12,-1.5706820361685567,-0.1851348733806929,4671.512609417254,295.74436638313927
40.87566557700001,38.974000000000004,-0.09396031850607042,4677.520003037225,300.0000000011973,-0.0001600582200277576,-79.99999999990621,9.814523538580558e-11,-5.564544171252598e-07,-1.2268154855231555e-12,-1.5706820007278282,-0.23535167987294248,4654.806712172948,296.0202577058821
41.114350071000004,39.2,-0.09400126749507168,4656.800003037179,300.0000000012214,-0.0001555441141742787,-79.99999999991512,9.443001018875802e-11,-5.407665311085614e-07,-1.180375168090034e-12,-1.5706819443015023,1.0469583404043057,4636.74621879109,294.5400702906538
41.351197211,39.42299999999999,-0.09403057012764195,4641.600003037145,300.00000000123913,-0.00015231454342573734,-79.99999999992131,9.13987651910008e-11,-5.295418567547484e-07,-1.1424846039207602e-12,-1.5706819039318667,1.0757511854458075,4623.205737602364,294.67121946895287
41.519612811,39.58,-0.09406076010569743,4625.600003037109,300.0000000012578,-0.0001489871391722266,-79.9999999999276,8.775600793252707e-11,-5.179785071295101e-07,-1.0969501365027778e-12,-1.570681862339312,1.1113194737815122,4606.479260839824,294.83322727743916
41.722198026,39.778000000000006,-0.09408384747297797,4613.120003037081,300.0000000012723,-0.00014644268730021258,-79.99999999993233,8.437286297653596e-11,-5.091360078088423e-07,-1.0546608233534424e-12,-1.5706818305336623,0.6747157793394902,4590.194993262188,297.21160908674335
41.926757804000005,39.969999999999985,-0.09411157937170643,4597.840003037047,300.0000000012901,-0.0001433860478871224,-79.99999999993786,8.016428290424767e-11,-4.985136200457509e-07,-1.0020535709512451e-12,-1.5706817923256682,0.67992594234547,4575.765661938304,297.4714141819143
42.130294081,40.16199999999999,-0.09413535346015793,4584.480003037017,300.0000000013057,-0.00014076513986888795,-79.99999999994253,7.573862180304904e-11,-4.894052130258606e-07,-9.467328058861736e-13,-1.5706817595643168,0.09764710467298783,4560.734206155515,297.6507054228752
42.332038201,40.35000000000001,-0.09416655936767568,4566.560003036977,300.0000000013266,-0.0001373256291221911,-79.99999999994847,6.940856622913727e-11,-4.774500780185282e-07,-8.676071095630586e-13,-1.5706817165704305,0.0666921764642785,4544.729118065162,297.93317230572234
42.53970807499999,40.54699999999998,-0.09419323913830656,4550.880003036942,300.00000000133576,-0.00013438465864072527,-79.99999999995343,6.595536965809231e-11,-4.6722859639011264e-07,-8.244421511170271e-13,-1.570681679808298,0.035737816253174744,4528.724029974806,298.2156391885687
42.744657192000005,40.74900000000001,-0.0942186878863841,4535.600003036908,300.00000000134463,-0.0001315789900188601,-79.99999999995813,6.361496651966811e-11,-4.574756169487235e-07,-7.951871106090214e-13,-1.570681644737439,0.4078447215605375,4513.016044885702,296.60952372206106
42.948348912,40.938,-0.09424347579672264,4520.400003036873,300.0000000013535,-0.00012884693845045217,-79.99999999996261,6.121641795533272e-11,-4.4797676873598015e-07,-7.652052523312702e-13,-1.5706816105867931,0.4023240381150361,4499.439395441112,296.75210268323724
43.152555648,41.130999999999986,-0.09426952024683713,4504.080003036837,300.000000001363,-0.00012597606696173697,-79.99999999996714,5.8061054304252434e-11,-4.3799623950541227e-07,-7.257632055469607e-13,-1.570681574700898,0.3951801972607884,4481.869613806936,296.9366166329934
43.356156169,41.319,-0.09429275757360502,4489.2000030368035,300.0000000013717,-0.00012341492952669888,-79.99999999997114,5.205362667558739e-11,-4.29091288142099e-07,-6.506703591348139e-13,-1.5706815426866791,0.667434947083268,4466.486170700325,294.7096183757575
43.56315927200001,41.51100000000001,-0.09431612841758168,4473.920003036769,300.0000000013806,-0.00012083891140750921,-79.99999999997507,4.2619474952140207e-11,-4.2013543982063186e-07,-5.327434614882357e-13,-1.5706815104864513,0.6774236326911537,4450.51542003868,294.73599258432586
43.799886524,41.742000000000004,-0.09433996091920821,4458.000003036734,300.0000000013899,-0.00011821165792434799,-79.99999999997907,3.222237723034058e-11,-4.110018011516884e-07,-4.027797389348666e-13,-1.5706814776457816,0.7726040078844346,4434.395487982509,296.93350509031217
44.003076226000005,41.931,-0.09436223082489992,4442.800003036699,300.00000000139875,-0.0001157570856946558,-79.9999999999827,2.1889314458822377e-11,-4.024686515711116e-07,-2.736164533316393e-13,-1.5706814469636274,0.7863037880161421,4419.982827646265,297.07681588568204
