Real_time_s,Simulation_time_s,x_ft,y_ft,alt_ft,vx_fps,vy_fps,vz_fps,roll_rad,pitch_rad,yaw_rad,adsb_x_ft,adsb_y_ft,adsb_alt_ft
0.0,0.0,4780.639999999957,8999.999995304184,325.0000000003608,-79.99999999992166,0.00011237691961090833,2.0364129356443894e-09,7.437158961310333e-05,-2.5423326332206205e-11,3.141707575245136,-3394.1061053701455,9003.041822608006,298.66875673311256
0.13588104699999803,0.1349999999999909,4764.5600000000195,9000.000051707824,325.00000000128193,-79.99999999752018,0.0006303008505498743,4.1973725746948485e-09,0.00011982545993925218,-5.2436742646384284e-11,3.1417011013702343,-3394.1061053701455,9003.041822608006,298.66875673311256
0.33907102300000247,0.3229999999999933,4752.16000000066,9000.000181483858,325.00000000220564,-79.99999999067752,0.0012217634258007563,4.799802579172515e-09,0.00014340617647934506,-5.997489277578117e-11,3.141693708183997,-3394.1061053701455,9003.041822608006,298.66875673311256
0.544457033999997,0.5120000000000005,4734.320000004369,9000.000546383522,325.0000000034383,-79.99999996812171,0.0022589342665757122,3.838738489882457e-09,0.00016272646987483498,-4.797282812076702e-11,3.141680743636279,4790.348513462319,9000.440011308165,301.49794783053596
0.7481705379999966,0.7129999999999939,4718.960000012754,9000.001056043917,325.0000000040794,-79.99999993400104,0.003250115429697212,1.5422633068901606e-09,0.00016803767659736402,-1.9277428704211528e-11,3.141668353936674,4781.548513475214,9000.440365265607,301.4979478290757
0.9859690319999999,0.938999999999993,4700.8800000326255,9000.001904303637,325.00000000402565,-79.99999987649666,0.0044458190014910835,-2.3340144050194528e-09,0.0001636656811798243,2.9165431129157707e-11,3.141653407706708,4771.592920640862,9000.46692867608,301.3665890606228
1.156355480000002,1.097999999999999,4687.280000056969,9000.002719124184,325.00000000331056,-79.99999982309296,0.005320787632521768,-5.515366149935333e-09,0.000154446563843733,6.892799488611207e-11,3.141642470630411,4764.324902549802,9000.468448506046,301.3621997829894
1.3605056829999995,1.2920000000000016,4671.840000096257,9000.00382123524,325.0000000018131,-79.99999975585041,0.006250640132353693,-8.949492702950149e-09,0.0001395176010731624,1.1185198156039342e-10,3.1416308475024906,4757.056884470079,9000.470107420444,301.35781050485923
1.5642357190000027,1.48599999999999,4656.400000148861,9000.005096072591,324.9999999996752,-79.99999968614372,0.007086910315699257,-1.1893552316090157e-08,0.0001213411910253621,1.4865279842730504e-10,3.1416203941424774,4743.142029295455,9000.610144854692,301.20520196479276
1.8017897280000028,1.7199999999999989,4629.920000269794,9000.007625886643,324.99999999491416,-79.9999995741442,0.008254998284535799,-1.5260073420075226e-08,8.646699578797491e-05,1.9073825419129352e-10,3.1416057930524053,4729.759475966249,9000.631768545356,301.17808574300216
2.1476708490000007,2.0459999999999923,4608.880000390495,9000.009879302257,324.99999999062766,-79.99999950266285,0.008920892568876494,-1.612302377317376e-08,5.8427445329308784e-05,2.015295627065196e-10,3.141597469368283,4713.368619575122,9000.80003116252,300.5630839542179
2.3843038919999984,2.280000000000001,4593.600000488768,9000.011612596689,324.99999998747273,-79.99999946429686,0.009258563410652962,-1.6072424682995183e-08,3.914909362297275e-05,2.0090014441742013e-10,3.1415932484737077,4705.268880666862,9000.82586183174,300.4949732798604
2.5870333069999987,2.4710000000000036,4578.640000591193,9000.01336339871,324.999999984462,-79.99999943869844,0.009477172013349295,-1.558428686024495e-08,2.1746282121846763e-05,1.9480097460034385e-10,3.141590515854319,4685.303752667549,9001.12476608207,299.96291584764845
2.7901767430000035,2.6599999999999966,4563.120000701545,9000.0152143356,324.9999999814885,-79.99999942421529,0.009598651757569715,-1.4678165169837647e-08,5.554690244008051e-06,1.8347648369672243e-10,3.1415889973420157,4674.138652927487,9001.187333453698,299.82734505423764
2.993982006000003,2.8529999999999944,4545.0400008323,9000.017388698376,324.99999997828326,-79.99999942208858,0.009616360987531356,-1.3483847395211625e-08,-1.0553736252731567e-05,1.6854901723444899e-10,3.1415887759596837,4646.946232069801,9001.319890879264,299.5529839107281
3.2319060869999987,3.078000000000003,4528.960000947965,9000.019317446588,324.99999997568165,-79.99999943130372,0.009539391815908939,-1.2286074203020621e-08,-2.2343911493641974e-05,1.5357751288768966e-10,3.141589738057661,4635.8611056836135,9001.380125748932,299.4235966588906
3.435597897000001,3.280000000000001,4513.600001056023,9000.02113952312,324.9999999734282,-79.99999944813366,0.009397193791418608,-1.1161204052669023e-08,-3.1343795120109613e-05,1.3951680818550902e-10,3.1415915155180993,4622.889149268886,9001.450567484942,299.27218604530333
3.6389818119999973,3.471999999999994,4498.400001159271,9000.022911328673,324.99999997140606,-79.99999947057314,0.009204183301942847,-1.0118839228527755e-08,-3.819013262153963e-05,1.2648709858417486e-10,3.141593928135273,4588.417365179061,9001.206440403974,300.31140794547906
3.841483283999999,3.661999999999992,4483.040001258962,9000.02466112807,324.9999999695537,-79.99999949725667,0.008969264399819685,-9.152857959869838e-09,-4.3207171678432885e-05,1.1441194666329323e-10,3.1415968646077435,4575.353608104363,9001.242085484359,300.27658840095114
4.0444653130000034,3.853999999999999,4467.680001353258,9000.026363230678,324.9999999678777,-79.9999995264439,0.008705046692618384,-8.264129320642438e-09,-4.647502814730365e-05,1.0330238715822053e-10,3.1416001673173994,4562.289851024081,9001.27767865053,300.2417688565698
4.247954759999999,4.043999999999997,4451.840001444538,9000.028063654847,324.9999999663134,-79.99999955767339,0.008413157386632463,-7.436878510823019e-09,-4.8253090439559325e-05,9.296131946906187e-11,3.14160381592417,4524.191764348141,9001.184784660194,300.4381087092531
4.450884930000001,4.244,4436.800001525404,9000.029623612161,324.9999999649729,-79.99999958728516,0.008126711752736647,-6.705413656010089e-09,-4.867339388346772e-05,8.381761797347323e-11,3.1416073964865223,4509.353833529522,9001.210853241591,300.4201456165625
4.654651549999997,4.432999999999993,4421.680001601206,9000.03113733266,324.999999963757,-79.99999961619112,0.007837000900944635,-6.022568310333405e-09,-4.807776928794781e-05,7.528173401053373e-11,3.1416110178655785,4472.2892692093965,9002.034431821656,299.35561236593264
4.8584285829999985,4.620999999999995,4408.240001664059,9000.032437188882,324.99999996277955,-79.99999964069747,0.007582720553663439,-5.432838320481582e-09,-4.686198070036791e-05,6.79099227143275e-11,3.1416141963657562,4457.65912213887,9002.107588909712,299.2739837730753
5.031866200000003,4.783999999999992,4392.640001731923,9000.03389277238,324.9999999617685,-79.99999966735304,0.007296084870063554,-4.755999045607537e-09,-4.4833504081210796e-05,5.944927589067832e-11,3.1416177793078024,4437.865393743678,9002.206503159448,299.16354508877276
5.273336299999997,5.0120000000000005,4374.240001805571,9000.035539227321,324.9999999607415,-79.99999969601625,0.006974727979731558,-3.973464703077395e-09,-4.184179359697485e-05,4.9667521466393954e-11,3.1416217962660165,4403.411182196298,9002.134183234182,300.5795707229056
5.477931284999997,5.213999999999999,4358.640001863038,9000.036878602074,324.99999996001276,-79.99999971784788,0.006719661038690469,-3.292972370610277e-09,-3.899957687840336e-05,4.116137060299791e-11,3.1416249846015036,4383.126135534166,9002.217315166768,300.58536393546876
5.681184901000002,5.408000000000001,4343.200001915918,9000.03815655537,324.999999959421,-79.99999973724863,0.006484581089875643,-2.6346696604092547e-09,-3.606573330197025e-05,3.293263186121029e-11,3.14162792310049,4353.111414256336,9001.93093100673,302.1398905701335
5.882585116999998,5.60199999999999,4324.400001975495,9000.039653744587,324.9999999588732,-79.99999975808136,0.006222267550648665,-1.8185158775209363e-09,-3.2499596132363533e-05,2.2730799469431083e-11,3.1416312020202586,4333.832549194773,9001.98280137364,302.24755362158714
6.120127525000001,5.826999999999998,4309.120002020497,9000.04082674739,324.9999999585715,-79.99999977290614,0.006028656136262538,-1.1461868217731914e-09,-2.971412929730627e-05,1.4326772003458095e-11,3.141633622163959,4311.661854370516,9002.042406039793,302.3713661309322
6.323505625000003,6.018000000000001,4293.840002062794,9000.041964089043,324.9999999584004,-79.99999978604338,0.005851732364179816,-4.713517207826325e-10,-2.710107268626828e-05,5.891420746202717e-12,3.1416358337125168,4285.545523674934,9002.471094272278,301.5481429967682
6.526975139000001,6.219999999999999,4277.9200021043325,9000.043114536622,324.9999999583581,-79.99999979815239,0.005683780387230713,2.3703010524173605e-10,-2.4607683060080533e-05,-2.9632642833387044e-12,3.1416379331140236,4267.805675606655,9002.538559986899,301.59360851947037
6.736832878999998,6.417999999999992,4262.400002142613,9000.04420508117,324.9999999584531,-79.99999980858352,0.0055350155191907354,9.118068564395521e-10,-2.243609563249945e-05,-1.139789748638365e-11,3.141639792676748,4245.398102770392,9002.089411271274,305.08352259667436
6.9426616319999965,6.611999999999995,4246.240002180446,9000.0453111839,324.9999999586903,-79.999999818224,0.005393879978302237,1.5955023015531553e-09,-2.0459846126887486e-05,-1.9944023727057004e-11,3.141641556872937,4225.5061117418845,9002.131560414082,305.3492595541439
7.146258457000002,6.804999999999993,4231.280002213839,9000.046310520074,324.99999995903244,-79.99999982618831,0.00527443552425848,2.1958863944041207e-09,-1.8893856863583797e-05,-2.7448771063346513e-11,3.1416430499304724,4205.614120711805,9002.173685579382,305.61499651173926
7.348571219999997,6.991,4216.08000224628,9000.04730379486,324.9999999594945,-79.99999983350065,0.005162337496836408,2.7876310620730614e-09,-1.755237464601579e-05,-3.484553599807189e-11,3.141644451157519,4187.414016220553,9001.341190334459,305.31658981018484
7.550172951,7.189999999999998,4200.560002278019,9000.048296696703,324.99999996008114,-79.99999984029613,0.0050559338783727524,3.3612397103312672e-09,-1.6425171093608115e-05,-4.2015609107132264e-11,3.1416457812043053,4169.591937288226,9001.331806709824,305.52539791200365
7.7225190070000025,7.35199999999999,4187.680002303394,9000.049105402175,324.99999996065026,-79.99999984550922,0.004972764916264416,3.8172933780219886e-09,-1.5658574912922422e-05,-4.7716253837473576e-11,3.141646820817665,4150.779742858608,9001.321884709616,305.7458064640159
7.928978037,7.546999999999997,4171.5200023340785,9000.050101619043,324.9999999614653,-79.99999985159992,0.004873796228155865,4.351181815978123e-09,-1.48934244159118e-05,-5.4389835319698684e-11,3.141648057927595,4137.303550418982,9000.452176158204,304.46814483748943
8.133038493,7.7479999999999905,4159.040002356967,9000.050857466946,324.99999996216803,-79.99999985602034,0.00480069067609909,4.734175278007183e-09,-1.4436361318468421e-05,-5.917723974029006e-11,3.1416489717478244,4118.723836279156,9000.39398613082,304.60536946849015
8.303219495999997,7.905000000000001,4143.600002384353,9000.051777073904,324.9999999631161,-79.99999986121932,0.004713258694991498,5.175141527244252e-09,-1.4003231757741548e-05,-6.468930289395113e-11,3.1416500646485543,4106.24211351337,9000.790932612723,306.291559267488
8.505280249999998,8.096000000000004,4130.3200024071075,9000.052554714623,324.9999999639985,-79.99999986549615,0.004640100039859975,5.52655027255229e-09,-1.3729555865498315e-05,-6.908190151307342e-11,3.141650979132476,4089.8753348692385,9000.762419377372,306.49568407497986
8.674191299999997,8.262999999999991,4114.720002432917,9000.053452819226,324.9999999651063,-79.99999987033353,0.004555936741914841,5.9115477699743364e-09,-1.3504511631890207e-05,-7.389436176434432e-11,3.141652031174301,4070.6203011693888,9000.728859005663,306.7358309073882
8.876100049000001,8.456999999999994,4099.680002456928,9000.054303226323,324.99999996624337,-79.99999987484286,0.004476055338747198,6.243674273757263e-09,-1.336266811910815e-05,-7.804593711915219e-11,3.141653029692275,4056.059151130814,9001.771479033448,302.70634294386304
9.115878656,8.677999999999997,4079.2800024881935,9000.055432865127,324.99999996787693,-79.99999988076543,0.0043689199179399825,6.633546991039842e-09,-1.3251090406104436e-05,-8.291934089636534e-11,3.1416543688854235,4035.3029961204957,9001.805787869818,302.687141311613
9.352237371000001,8.900999999999996,4064.000002510612,9000.05626114361,324.999999969163,-79.99999988507876,0.00428921191753708,6.887180807418478e-09,-1.3205294183184396e-05,-8.608976147581297e-11,3.1416553652355903,4023.869746672103,9001.93216688318,301.6475751193202
9.520631121999998,9.057999999999993,4050.560002529629,9000.05697716306,324.9999999703333,-79.99999988879561,0.004219319095436752,7.089900795590697e-09,-1.3178219791562885e-05,-8.862376047920873e-11,3.1416562388959317,4007.4343712229515,9001.965236939863,301.5755936402378
9.723578017999998,9.259,4035.36000255043,9000.057772745684,324.99999997169596,-79.99999989291682,0.0041404430114388895,7.2790773898662575e-09,-1.3151785542776155e-05,-9.098846806712414e-11,3.1416572248469707,3988.044321534904,9002.004235675568,301.4906716705668
9.926979543999998,9.450999999999993,4016.9600025745763,9000.058715836461,324.9999999733874,-79.99999989779074,0.004045175313801514,7.462977877167985e-09,-1.3112186891617244e-05,-9.328722537343455e-11,3.1416584156931,3976.14154258372,9002.32465594866,299.6181560030509
10.168202825999998,9.679999999999993,4001.680002593786,9000.059482344705,324.99999997482377,-79.99999990174081,0.0039662894870633545,7.579702959817704e-09,-1.3064356728509278e-05,-9.474629060878128e-11,3.1416594017658044,3959.9181467958674,9002.37335992064,299.4482272205443
10.337002738000002,9.837000000000003,3988.4800026097564,9000.060132422457,324.9999999760808,-79.99999990507884,0.00389838151302956,7.660021771758265e-09,-1.3007863315491474e-05,-9.575027730484912e-11,3.1416602506153612,3942.793451241321,9002.424755223457,299.2688579501332
10.539983935999999,10.025999999999996,3973.1200026276783,9000.060874776493,324.9999999775552,-79.99999990887237,0.0038197409883307695,7.723909620675478e-09,-1.292175155939846e-05,-9.654887750582933e-11,3.1416612336217566,3932.6689600286154,9002.048828963681,296.82365751936555
10.743498523,10.227999999999994,3957.7600026448813,9000.061602064985,324.99999997904115,-79.99999991256341,0.003741638636330779,7.75653901649227e-09,-1.2812230572209897e-05,-9.69567471455472e-11,3.141662209900982,3914.1686189787133,9002.078885248184,296.48343956204627
10.946002350999997,10.418999999999997,3939.60000266433,9000.0624426689,324.99999998080324,-79.99999991678857,0.003650183661997104,7.759813443512393e-09,-1.2652090397383942e-05,-9.69976797869921e-11,3.1416633530879707,3902.2773787870956,9002.076670819772,296.1147855835966
11.186854928999999,10.646999999999991,3923.440002680844,9000.063173362598,324.99999998236666,-79.9999999204168,0.003569780742717069,7.73275313864634e-09,-1.2483212529150041e-05,-9.665942789977793e-11,3.141664358124296,3882.468066332723,9002.107299649035,295.73993547299295
11.42546515,10.872,3906.2400026976175,9000.063933237667,324.9999999840248,-79.99999992413633,0.0034854291758162287,7.672864792440952e-09,-1.2278118712615674e-05,-9.591082532261431e-11,3.141665412518723,3866.1038516958074,9002.132585744843,295.4302766859569
11.628277722,11.060999999999993,3893.200002709818,9000.064497351557,324.999999985271,-79.99999992685697,0.003422413433472902,7.605584679293274e-09,-1.2107523089075965e-05,-9.506982481931031e-11,3.1416662002154094,3856.8639549871323,9002.82649536349,297.5736880543392
11.796555476000002,11.22699999999999,3877.920002723562,9000.065145361883,324.99999998671524,-79.99999992993497,0.0033496920173251544,7.508749650356088e-09,-1.1893651315944882e-05,-9.385938790878349e-11,3.1416671092330084,3840.79717758988,9002.88995297064,297.40151235279137
12.000806124999997,11.417000000000002,3865.040002734687,9000.065680869697,324.99999998791776,-79.99999993243694,0.0032893952701173656,7.411418307432136e-09,-1.1703508848571253e-05,-9.264274660388339e-11,3.141667862942284,3827.140996592907,9002.377278637348,298.96305003404996
12.209320732999998,11.613,3846.2400027501985,9000.066445290333,324.99999998964563,-79.99999993593818,0.003203111558580783,7.251549055145274e-09,-1.141385371338967e-05,-9.064438137187869e-11,3.1416689414886037,3812.1391454353497,9002.404908894958,298.89752575708417
12.378734676,11.780000000000001,3833.680002760109,9000.066944731638,324.999999990777,-79.99999993817758,0.0031466838254893205,7.127311232959097e-09,-1.1214436758729553e-05,-8.909140863259463e-11,3.1416696468352363,3796.3038581018495,9002.434060796031,298.82836124247484
12.615688653,11.99499999999999,3815.6800027737327,9000.067645208617,324.99999999236064,-79.9999999412519,0.0030675293657283723,6.918971358267583e-09,-1.0924021673637739e-05,-8.648716001444006e-11,3.1416706362659577,3782.6506209155314,9002.648036928826,298.74227353236085
12.819617623,12.197000000000003,3800.4000027847455,9000.06822598384,324.999999993666,-79.99999994373923,0.003001960954783149,6.7196893518200564e-09,-1.0675738138583004e-05,-8.399613456778454e-11,3.1416714558710908,3767.0747645578385,9002.68753558346,298.67272234028917
13.021810486,12.387,3785.040002795366,9000.068797294954,324.9999999949391,-79.9999999461302,0.002937552554012834,6.502405984966635e-09,-1.0426872063213134e-05,-8.128009196807333e-11,3.1416722609761107,3751.4989081997187,9002.727022512763,298.60317114817644
13.226748200000003,12.579999999999998,3771.680002804208,9000.069284278514,324.9999999960122,-79.99999994812418,0.002882739315841629,6.307851671625289e-09,-1.0212370633501432e-05,-7.884816250376901e-11,3.1416729461416075,3738.7330696989707,9002.504815528875,300.00065940267103
13.396415677,12.747,3756.4800028138866,9000.06982726262,324.99999999719194,-79.99999995029798,0.0028217702610463537,6.073859279164584e-09,-9.971907767592657e-06,-7.592325689578587e-11,3.1416737082548245,3724.1184280088682,9002.528238622801,300.0131433525778
13.598545958999999,12.935999999999993,3741.2800028231645,9000.070358773432,324.9999999983273,-79.99999995237583,0.002762235266670487,5.829141550054683e-09,-9.736477779150452e-06,-7.286428453764714e-11,3.1416744524422926,3709.6400660555487,9001.845103133597,301.2072501474017
13.801065057999999,13.126999999999995,3725.0400028326685,9000.070914330327,324.9999999994867,-79.9999999544953,0.0027001553578574334,5.554433138405881e-09,-9.49144045346226e-06,-6.943042859524064e-11,3.141675228441197,3695.158939562042,9001.829155348461,301.2850979974212
14.004746067,13.319000000000003,3709.680002841245,9000.07142826263,325.00000000053467,-79.99999995640745,0.002642896010985608,5.290791612820034e-09,-9.266608069288078e-06,-6.613490875127684e-11,3.1416759441830795,3679.8733060407876,9001.81231140687,301.3672707279484
14.175936280999998,13.479,3697.0400028480467,9000.071842998495,325.00000000135896,-79.9999999579171,0.0025967976562782575,5.066458123504685e-09,-9.086933594724568e-06,-6.33307394804073e-11,3.141676520412557,3667.211125670562,9001.702713778528,300.02202878344553
14.378785151999999,13.679999999999993,3682.0800028557856,9000.072324517494,325.0000000022889,-79.9999999596331,0.0025433835825258854,4.798703988347153e-09,-8.880715192209722e-06,-5.998381205599232e-11,3.1416771880885292,3652.021252346265,9001.680432674246,300.0220610697212
14.581374242999999,13.866,3666.9600028632817,9000.072801143217,325.0000000031757,-79.99999996129262,0.0024906368295711657,4.522330054198027e-09,-8.679436918387845e-06,-5.6529137169736606e-11,3.141677847422991,3635.2324449874795,9001.655794702907,300.0220967544907
14.783347272999997,14.054999999999993,3650.8000028709553,9000.07329968599,325.00000000406567,-79.999999962988,0.002435572224250917,4.2266647575234776e-09,-8.472098963838212e-06,-5.283332027093924e-11,3.141678535730607,3621.9516985497185,9001.093486353255,301.5454447600208
14.986350655999999,14.25699999999999,3635.20000287804,9000.073770475214,325.0000000048701,-79.99999996455156,0.002383660161554481,3.936995484171262e-09,-8.279361092593421e-06,-4.921245372743449e-11,3.141679184631437,3604.477588521687,9001.032393467425,301.64490191099674
15.194671778,14.453000000000003,3619.6800028847824,9000.074228896123,325.0000000056087,-79.99999996603948,0.0023331876605523763,3.655068800291497e-09,-8.094505860872014e-06,-4.568836959217096e-11,3.141679815537744,3591.5866157407586,9001.33391169591,301.2131773152844
15.400924658000001,14.646,3603.600002891469,9000.074693650067,325.0000000063163,-79.99999996751401,0.0022820685069288847,3.363580920152657e-09,-7.909769344038766e-06,-4.2044770522357466e-11,3.141680454527209,3575.8258568430606,9001.299976735632,301.27200561611045
15.603937661000003,14.835999999999999,3588.24000289761,9000.07512806369,325.0000000069371,-79.99999996886125,0.0022343392945601516,3.0805625508829487e-09,-7.739459174770897e-06,-3.850704041513423e-11,3.1416810511424025,3560.8531358899936,9001.267729341238,301.327892501841
15.807230333,15.030000000000001,3572.8000029035215,9000.075555587373,325.0000000075075,-79.9999999701586,0.002187393304194428,2.7996472828645056e-09,-7.573824750615074e-06,-3.4995599110089346e-11,3.1416816379673183,3547.2827425826,9001.573091670965,299.28224867052586
16.011312214999997,15.230999999999995,3560.1600029081646,9000.075898876283,325.000000007935,-79.99999997117997,0.0021497145367974143,2.5738188044266456e-09,-7.442073579517804e-06,-3.217274279217855e-11,3.1416821089519367,3533.1650950518647,9001.560690446515,299.2220460648029
16.181271543,15.39,3544.720002913651,9000.076310206836,325.000000008408,-79.9999999723803,0.0021045711776849427,2.2966227795358547e-09,-7.285475281142876e-06,-2.870779209615043e-11,3.141682673243957,3517.56869430488,9000.716427137791,301.1477833908642
16.418665206,15.61699999999999,3528.560002919115,9000.07673149756,325.000000008846,-79.99999997358347,0.0020583270838030504,2.0188402607142547e-09,-7.1262312068208736e-06,-2.5235510235149277e-11,3.1416832512951602,3500.3626314977073,9000.644744073927,301.21005453062423
16.630979996999997,15.816999999999993,3507.680002925837,9000.077262134251,325.0000000093317,-79.99999997506107,0.0020000733032627567,1.6661365697590402e-09,-6.92690619440616e-06,-2.082671366460526e-11,3.1416839794674516,3482.374474926296,9000.56979157799,301.27515617666995
16.871117517000002,16.045999999999992,3491.6800029307246,9000.077658578426,325.00000000964405,-79.99999997613754,0.001956542094060879,1.4037151716392912e-09,-6.778622103417262e-06,-1.754644589428254e-11,3.14168452360759,3468.9810582686373,9002.669931476821,299.356758869182
17.073447011,16.24499999999999,3476.320002935223,9000.078031024459,325.0000000098935,-79.99999997712759,0.0019156335635538303,1.1601103664608166e-09,-6.63957863798393e-06,-1.4501385558958129e-11,3.141685034964243,3453.3706167950413,9002.733257046968,299.2961273843339
17.277424157,16.438999999999993,3461.040002939514,9000.078393798558,325.0000000100973,-79.99999997807221,0.0018757696500631778,9.211870427209381e-10,-6.504272245486716e-06,-1.1514843767724413e-11,3.14168553326318,3437.24836981996,9001.232050111257,303.53251243791635
17.478352372000003,16.628,3444.9600029438507,9000.078767441091,325.0000000102617,-79.99999997902492,0.0018346867925220136,6.783295339953304e-10,-6.364875906709129e-06,-8.479124674734526e-12,3.1416860467989167,3422.3793640205286,9001.200674908674,303.72634045330886
17.682818855999997,16.820999999999998,3429.5200029478224,9000.07911849033,325.00000001037574,-79.99999997990112,0.0017960752141983139,4.5578276602758183e-10,-6.233746465148643e-06,-5.6972898594880215e-12,3.141686529443663,3406.7277789683253,9001.167640751468,303.9303699431525
17.886432164,17.01299999999999,3414.240002951585,9000.079458619746,325.00000001044606,-79.99999998073262,0.0017586490831813036,2.4610222458116857e-10,-6.106473592503062e-06,-3.076282888228419e-12,3.141686997270316,3391.153168843547,9000.568201110043,306.5990813425233
18.089658586,17.214,3399.040002955186,9000.079789932557,325.00000001047783,-79.99999998152607,0.0017221771618597071,4.444720516584962e-11,-5.982195202229153e-06,-5.555949546910197e-13,3.1416874531693475,3375.4968018502173,9000.501075602766,306.9514083232802
18.292970257,17.403999999999996,3381.0400029592493,9000.080173406146,325.0000000104666,-79.99999998242409,0.0016799443057929008,-1.8056189369469592e-10,-5.837926614391598e-06,2.2570190089342536e-12,3.141687981080067,3357.2812762779813,8999.531947949486,307.6451952879438
18.529838982,17.62899999999999,3367.680002962135,9000.08045194997,325.0000000104246,-79.99999998306278,0.0016492505042116764,-3.377866528546075e-10,-5.732853034931759e-06,4.222328649875869e-12,3.141688364752599,3343.1266052508468,8999.421709929888,307.9795106177619
18.700161414,17.784999999999997,3352.720002965262,9000.080757786684,325.00000001034886,-79.99999998375041,0.0016155497272455843,-5.149338532755364e-10,-5.617169787424147e-06,6.436668828009074e-12,3.1416887860123257,3327.399192998342,8999.29921669605,308.35097209530494
18.910675866,17.979,3336.960002968407,9000.081073241914,325.000000010234,-79.9999999844451,0.0015807741774456021,-6.883078556104259e-10,-5.497529587319011e-06,8.603844025874885e-12,3.141689220706712,3313.131609393215,8999.518688077924,308.7384721949277
19.113408063999998,18.179000000000002,3321.6800029713313,9000.081372593007,325.0000000100892,-79.99999998509055,0.0015477629866697058,-8.458633967914718e-10,-5.383662226300789e-06,1.0573288452937653e-11,3.141689633346611,3295.81338238323,8999.405904931917,309.1508859765838
19.316649622,18.372,3303.8400029745853,9000.081714199241,325.00000000988496,-79.99999998581043,0.0015100977989175874,-1.0165876695097667e-09,-5.2534070428124e-06,1.2707342035639566e-11,3.141690104161473,3281.6319395040778,9000.90671862755,306.3430358055466
19.519925627,18.560999999999993,3287.6800029774,9000.082016475337,325.0000000096684,-79.99999998643291,0.001476752992483886,-1.161059477459102e-09,-5.137851842470324e-06,1.4513239796796277e-11,3.1416905209715678,3264.5240930481427,9000.904095458229,306.5356160281447
19.756357373,18.792,3274.640002979583,9000.082255505611,325.00000000947216,-79.99999998691527,0.001450386701326274,-1.2695774596411382e-09,-5.046303040869981e-06,1.5869714697912635e-11,3.1416908505502192,3253.5374026635272,9000.902407039517,306.65929140044045
19.891876861,18.924999999999997,3266.9600029808316,9000.082394277946,325.0000000093484,-79.99999998719136,0.0014350767579962736,-1.3301956978238413e-09,-4.993084186612853e-06,1.6627442750059916e-11,3.141691041924518,3244.9050030755775,9000.901078266887,306.7564649072362
19.993898363,19.02199999999999,3253.6000029829443,9000.082632219392,325.00000000911973,-79.9999999876579,0.0014088293657200984,-1.4292538563480084e-09,-4.901761948416783e-06,1.786566984971985e-11,3.1416913700169333,3230.0858400901916,9001.331233285351,306.4540794722159
20.162766266,19.188000000000002,3237.9200029853214,9000.082905925385,325.00000000883045,-79.99999998818393,0.0013786359312033634,-1.5341270282111288e-09,-4.796568226715836e-06,1.917658463895117e-11,3.141691747434879,3211.190246341811,9001.359468601555,306.6329790666425
20.438010952,19.450999999999993,3219.6000029879656,9000.08321829353,325.00000000846745,-79.9999999887703,0.001344178034223272,-1.641630252277029e-09,-4.676413996159998e-06,2.0520375093653732e-11,3.141692178158607,3196.24281927285,9001.09590688731,305.12537300659085
20.645256161,19.64699999999999,3206.0800029898387,9000.08344381256,325.00000000818534,-79.99999998918445,0.0013192998481062644,-1.7126282180416212e-09,-4.589595279482296e-06,2.1407849777472453e-11,3.141692489135945,3182.106519995244,9001.10124040531,305.16820999990273
20.816183422,19.804999999999993,3190.800002991865,9000.083693649283,325.0000000078527,-79.99999998963412,0.0012917465060427698,-1.781415161471992e-09,-4.493393152734999e-06,2.2267686693429087e-11,3.141692833552735,3166.399520797816,9001.107160895088,305.2158066591252
21.019665684000003,19.997,3175.440002993823,9000.083939537953,325.00000000750623,-79.99999999006732,0.001264630294904341,-1.8426212424376722e-09,-4.398718898880664e-06,2.3032762824335688e-11,3.141693172505388,3153.1112121910614,9000.99320631671,302.3992784850214
21.223022198000002,20.198999999999998,3159.7600029957384,9000.084185228914,325.000000007141,-79.99999999049105,0.0012375350893737108,-1.8957492338865857e-09,-4.3041245307940305e-06,2.369686282987459e-11,3.141693511195469,3137.398494262108,9000.991914766144,302.27388208969097
21.427006515000002,20.396,3144.4000029975323,9000.084420796797,325.00000000677403,-79.99999999088865,0.0012115610505971368,-1.937946221470037e-09,-4.213446856202452e-06,2.4224325281082645e-11,3.1416938358709663,3117.7325507533715,9002.424953578264,302.7096181462507
21.630623731999997,20.587999999999994,3125.600002999631,9000.084702421611,325.0000000063138,-79.99999999135292,0.001180506405364894,-1.977309919327157e-09,-4.105061298066118e-06,2.4716371634472602e-11,3.1416942240540475,3101.9599590024236,9002.512401730337,302.6204103489165
21.871358301999997,20.817999999999998,3109.8400030013095,9000.084932929525,325.0000000059204,-79.99999999172393,0.0011550923844850624,-2.000060680901821e-09,-4.016395960440374e-06,2.5000756254945755e-11,3.141694541729321,3085.3987376638543,9002.604216923548,302.526742161712
22.078366646,21.012,3091.680003003154,9000.085192389019,325.0000000054653,-79.99999999213179,0.0011264898930153362,-2.016884653555269e-09,-3.916646550798941e-06,2.5211056026056763e-11,3.1416948992604796,3067.9167559134075,9004.687305006626,299.6790132687312
22.314627526000002,21.245999999999995,3076.320003004636,9000.085406819839,325.00000000508044,-79.99999999246111,0.001102853739568637,-2.023241022557166e-09,-3.834245878313365e-06,2.5290510730864288e-11,3.14169519471241,3052.1738268029408,9004.892693143565,299.4264955370621
22.517939105000004,21.438000000000002,3060.8000030060734,9000.085618917128,325.00000000469146,-79.99999999278,0.0010794756106961379,-2.0236292543036298e-09,-3.7528009793449264e-06,2.529536371495611e-11,3.1416954869390326,3035.178328263605,9003.355467254096,301.5966983240342
22.720907912999998,21.631,3044.720003007499,9000.085833937199,325.0000000042885,-79.99999999309628,0.0010557731087404469,-2.0161420487497805e-09,-3.6702762993312677e-06,2.520177372997463e-11,3.1416957832203183,3018.6081673442377,9003.458435726161,301.4881255394796
22.924948628000003,21.828999999999994,3028.8000030088483,9000.086042163868,325.00000000388957,-79.99999999339586,0.0010328215721738536,-1.999721366463249e-09,-3.590384646454263e-06,2.4996515282109326e-11,3.141696070114536,3002.8270617066837,9003.556496251047,301.38472288752763
23.129432674,22.025999999999996,3013.280003010116,9000.086240792074,325.00000000350195,-79.99999999367553,0.001010930348846015,-1.977164885854684e-09,-3.5142085879900833e-06,2.4714559350058492e-11,3.1416963437548384,2989.4070510616853,9003.347926011887,299.97339217975946
23.332416857,22.226,2998.080003011287,9000.086431237884,325.00000000312986,-79.99999999393799,0.0009899423784186091,-1.947199752862962e-09,-3.441188452202036e-06,2.433999526132969e-11,3.14169660610448,2973.663347416616,9003.428279417016,299.7910601639176
23.541291788000002,22.415999999999997,2982.4000030124485,9000.08662356404,325.0000000027505,-79.9999999941975,0.0009687452825038808,-1.911195652085266e-09,-3.3674880265131816e-06,2.388994407250534e-11,3.1416968710681896,2958.348622241634,9001.681932487534,302.225292868784
23.751183505,22.61099999999999,2966.4000030135944,9000.086815576944,325.0000000023713,-79.99999999445093,0.0009475815204274657,-1.8703807429090675e-09,-3.2939272471749917e-06,2.3379757775409785e-11,3.1416971356152255,2944.9807527564913,9001.654214265682,302.2078030471605
23.921685122,22.778999999999996,2953.76000301445,9000.086964286327,325.00000000207814,-79.99999999464342,0.0009311944347781604,-1.8302679129794058e-09,-3.236976124108509e-06,2.287834745211347e-11,3.1416973404538036,2930.0401927436424,9001.623231290858,302.1882555994727
24.125069389000004,22.971000000000004,2938.4000030154652,9000.0871415427,325.0000000017306,-79.99999999486842,0.0009116605645378051,-1.7820249752492226e-09,-3.1691067099177813e-06,2.227531079090528e-11,3.141697584627191,2914.1946153125346,9000.683499560728,301.88282531537055
24.328815433000003,23.158999999999992,2923.2000030164236,9000.087313288424,325.0000000013967,-79.9999999950819,0.00089273043841738,-1.7279566905659566e-09,-3.10334401612446e-06,2.1599457292419715e-11,3.1416978212537776,2900.025270811172,9000.604386038787,301.84867696022854
24.498348411000002,23.319000000000003,2909.680003017238,9000.087463067315,325.0000000011083,-79.9999999952644,0.0008762241062487421,-1.677335296590573e-09,-3.046010394565552e-06,2.0966689915161088e-11,3.1416980275829376,2885.855926309778,9000.525269441292,301.8145286050968
24.703864113999998,23.51299999999999,2894.2400030181393,9000.087630720142,325.00000000078904,-79.99999999546458,0.0008577471092055555,-1.6157876178509463e-09,-2.9818357380973895e-06,2.0197343984952706e-11,3.141698258545409,2871.528536159109,9001.767286637034,299.26266887363676
24.873565305,23.677999999999997,2881.84000301883,9000.087762793455,325.0000000005419,-79.99999999561935,0.0008431891326892908,-1.5646994658333071e-09,-2.931268146927546e-06,1.9558742128271478e-11,3.1416984405201234,2857.342050238332,9001.759898981272,299.0917027620317
25.076015088000005,23.867999999999995,2866.5600030196506,9000.087922469074,325.0000000002476,-79.99999999580291,0.0008255916695365029,-1.4977986336252884e-09,-2.870145897209718e-06,1.8722481775198074e-11,3.141698660488421,2841.5792881041043,9001.751687161226,298.90174041581645
25.279787279000004,24.058999999999997,2850.480003020477,9000.08808691882,324.9999999999525,-79.99999999598789,0.0008074672313967518,-1.4267525316268878e-09,-2.8071973862885588e-06,1.783440554883424e-11,3.1416988870439067,2827.2383462474018,9003.636848721608,295.2576994878282
25.483944617999995,24.262,2835.2800030212225,9000.08823903744,324.9999999996867,-79.99999999615535,0.000790701549774847,-1.3551198129766067e-09,-2.748961989019719e-06,1.6938996609690024e-11,3.1416990966149347,2812.33472733495,9003.735380665446,294.883125501125
25.687676855000007,24.450999999999993,2819.600003021967,9000.088392655354,324.9999999994264,-79.99999999632091,0.0007737689160703472,-1.284248613072156e-09,-2.690141482113771e-06,1.6053106655461092e-11,3.141699308272864,2792.7083984689725,9003.188347159654,295.8298228156154
25.930187712999995,24.680999999999997,2798.9600030228835,9000.088589860612,324.9999999991058,-79.99999999652823,0.000752031769858319,-1.1813121923861888e-09,-2.6146100633538286e-06,1.4766401451728788e-11,3.1416995799872014,2777.014660369203,9003.251247527216,295.5222986123443
26.167607786999994,24.90299999999999,2783.840003023542,9000.088730795658,324.9999999988881,-79.99999999667276,0.0007364985155064287,-1.110502767868127e-09,-2.560634681982679e-06,1.3881283683908464e-11,3.1416997741528885,2757.2118055110113,9003.322472516222,297.9920763104492
26.403714746000006,25.12599999999999,2765.040003024289,9000.088901994228,324.99999999863627,-79.99999999684424,0.0007176253022997902,-1.0130719583223635e-09,-2.4950484991116725e-06,1.2663398612371493e-11,3.141700010068064,2742.2827421519514,9003.381825964554,297.8664594594811
26.606899479999996,25.317999999999998,2749.8400030248927,9000.089037187649,324.99999999844914,-79.99999999697653,0.0007027240611762498,-9.397192950274477e-10,-2.4432593857913273e-06,1.1746490356125091e-11,3.141700196333584,2726.5679386160737,9003.444300304052,297.7342311953194
26.813311077999998,25.510999999999996,2734.4800030254532,9000.089170951815,324.99999999827475,-79.99999999710468,0.0006879797020166448,-8.629592879766198e-10,-2.392010692974655e-06,1.078699030251107e-11,3.141700380638081,2712.934179854161,9001.743671511926,300.5262926029066
27.015986827999996,25.711,2719.5200030259775,9000.089298532557,324.9999999981187,-79.99999999722438,0.0006739183450208862,-7.866268423148577e-10,-2.3431299093919967e-06,9.832834762852719e-12,3.14170055640505,2696.4559743546356,9001.697943631912,300.5718895668466
27.218798424,25.897999999999996,2706.9600030264182,9000.08940362996,324.9999999979985,-79.99999999732114,0.00066233189151308,-7.265191468349228e-10,-2.302852022543855e-06,9.081488597715118e-12,3.1417007012357256,2682.331798212165,9001.658745816103,300.6109726788082
27.388232466999995,26.054000000000002,2690.8800030269504,9000.089535559777,324.99999999785797,-79.9999999974402,0.0006477900248539819,-6.513201283795822e-10,-2.2523043570068784e-06,8.14150089819531e-12,3.141700883009065,2667.326098290518,9000.03884609566,302.47410542788896
27.591046688999995,26.256,2675.3600030274224,9000.089660139807,324.99999999773723,-79.99999999755026,0.0006340567033644914,-5.724120097484493e-10,-2.2045587712033685e-06,7.155149444569361e-12,3.1417010546755906,2653.1884193603773,8999.915633559849,302.61014671786444
27.797248118,26.450999999999993,2662.3200030278185,9000.089762770287,324.9999999976483,-79.99999999763912,0.0006227434465690186,-5.110671444851074e-10,-2.1652161304631207e-06,6.388338653136637e-12,3.141701196091306,2640.595994780473,9000.054804592297,302.2665321911253
27.970062087000002,26.613,2646.320003028305,9000.089886202575,324.9999999975519,-79.99999999774388,0.0006091356504719649,-4.405412527266699e-10,-2.1178981086226637e-06,5.506765033771291e-12,3.141701366188763,2625.708326940034,8999.939686114245,302.38246362783116
28.173513064000005,26.801999999999992,2631.1200030287087,9000.09000095686,324.99999999747376,-79.99999999783915,0.000596487128905102,-3.709162374697124e-10,-2.0739032943801548e-06,4.636452369351388e-12,3.1417015242952893,2610.0370976342883,8999.818506247824,302.504496719115
28.377212357999994,26.992999999999995,2615.7600030291037,9000.090114500865,324.9999999974075,-79.99999999793152,0.0005839718972693015,-2.999695175017113e-10,-2.0303816040306137e-06,3.7496183946097626e-12,3.1417016807356912,2592.5634868872576,9000.969758182471,301.68893248914895
28.581839437,27.195999999999998,2597.760003029567,9000.090244531735,324.99999999734877,-79.99999999803485,0.0005696385940704875,-2.244282941811594e-10,-1.9805316250527284e-06,2.8053531311152547e-12,3.141701859901988,2574.460136369866,9000.918880995301,301.7639788786122
28.818661472000002,27.42,2579.6000030300343,9000.090372486227,324.9999999973033,-79.99999999813404,0.0005555342708923254,-1.544689556603928e-10,-1.9314908907381975e-06,1.9308614254883853e-12,3.141702036206034,2557.592548971929,9002.845466600469,300.03899586758166
29.057268983,27.644999999999996,2563.7600030303684,9000.090481506215,324.9999999972787,-79.9999999982166,0.0005435159380917227,-8.999417756888409e-11,-1.889697140560506e-06,1.1249267217613761e-12,3.1417021864352,2543.440792038695,9002.914696305756,299.99854454662795
29.259918943000002,27.834000000000003,2551.200003030633,9000.090566267581,324.99999999726714,-79.99999999827953,0.0005341740358070611,-3.878000945753403e-11,-1.857207147477083e-06,4.847496377586605e-13,3.1417023032089837,2528.5028263869326,9002.98777002615,299.95584593007646
29.429896903,27.99199999999999,2535.8400030309567,9000.090667950033,324.99999999726447,-79.99999999835356,0.0005229662599234336,1.7871885217630526e-11,-1.8182371260972697e-06,-2.2339902562824396e-13,3.1417024433061878,2514.321923752793,9003.569622657003,299.52299273040575
29.633245693999996,28.192999999999998,2520.5600030312785,9000.090766983763,324.99999999727186,-79.99999999842417,0.0005120505368813854,6.920983190093251e-11,-1.7802832500646116e-06,-8.651233407247844e-13,3.1417025797527307,2498.586452766573,9003.677654285686,299.4542367881097
29.836936198999993,28.385999999999996,2502.4800030316596,9000.090881500668,324.99999999729135,-79.999999998504,0.0004994273234915304,1.234518979549472e-10,-1.7363881973545757e-06,-1.543149144241691e-12,3.1417027375429045,2478.2114012018646,9003.30305020914,298.30943247094126
30.076447739000002,28.611999999999995,2483.760003031967,9000.090997103334,324.9999999973272,-79.99999999858251,0.000486683305941796,1.8461175683043753e-10,-1.692081809530823e-06,-2.307647359504204e-12,3.14170289684313,2460.843787745135,9003.38735246293,298.1618661848935
30.313350536,28.836,2468.4800030322176,9000.091089267022,324.9999999973659,-79.99999999864369,0.00047652440326155575,2.3271445916959693e-10,-1.6567589869560927e-06,-2.908931122219625e-12,3.141703023829418,2445.055048239006,9003.463988698904,298.02771501576854
30.516489116000002,29.027,2453.12000303247,9000.091179975307,324.99999999741374,-79.99999999870262,0.00046652696296094464,2.752857636626752e-10,-1.6220001374699951e-06,-3.441072412683041e-12,3.1417031487974265,2430.3919876465334,9002.75189776056,298.44691257008986
30.719807589,29.227999999999994,2437.7600030327217,9000.091268780638,324.99999999746905,-79.99999999875912,0.00045673842485127053,3.131541493007427e-10,-1.5879584941067883e-06,-3.91442721727935e-12,3.1417032711541584,2416.1917309068785,9002.778622348436,298.35555442928074
30.889414337000005,29.385999999999996,2422.4800030329725,9000.091355272089,324.99999999753135,-79.99999999881295,0.0004472047074015195,3.456288487549058e-10,-1.5548135202158075e-06,-4.32036094597117e-12,3.141703390325631,2399.556489517237,9002.881698362131,297.91192439542505
31.130700289000004,29.611999999999995,2406.240003033239,9000.091445228623,324.99999999760547,-79.99999999886776,0.0004372879412536728,3.7471919587800223e-10,-1.520339524066632e-06,-4.68399027062588e-12,3.1417035142852123,2384.600421242734,9002.914060128269,297.79591352548937
31.334776269000002,29.804999999999993,2390.9600030334313,9000.091528038143,324.99999999767834,-79.99999999891719,0.00042816063856757026,4.0378294295054605e-10,-1.4886002111972814e-06,-5.047287095587584e-12,3.1417036283765,2368.0700299919554,9002.949826317677,297.6676909850418
31.537882306,29.99799999999999,2377.9200030335846,9000.09159734205,324.9999999977467,-79.99999999895768,0.0004205212741335723,4.3191526028976274e-10,-1.4620424301971521e-06,-5.398941051675596e-12,3.1417037238685595,2353.249387849057,9002.41490072231,300.0241524587422
31.707745892000005,30.167999999999992,2362.1600030337695,9000.091679453933,324.99999999783387,-79.99999999900474,0.00041146893772328684,4.6133631588397417e-10,-1.4305654131619562e-06,-5.766704233741162e-12,3.141703837022769,2337.457149309393,9002.414725484465,300.0513419667913
31.910859744999996,30.364999999999995,2346.400003033955,9000.091759798337,324.9999999979257,-79.9999999990498,0.0004026123504782351,4.866857753725212e-10,-1.3997639847063248e-06,-6.08357246512219e-12,3.1417039477301136,2319.80963536506,9002.057715240477,302.2691722372833
32.113846964000004,30.561999999999998,2330.2400030341446,9000.091840389741,324.99999999802765,-79.99999999909402,0.0003937285959902775,5.065873020343416e-10,-1.3688674439407155e-06,-6.332341536612254e-12,3.141704058777049,2304.781341593858,9002.036441628175,302.42442182728337
32.35151165400001,30.793999999999997,2311.92000303436,9000.091929600207,324.9999999981451,-79.99999999914183,0.00038389464170368966,5.231379345551036e-10,-1.3346632375128548e-06,-6.539224430140929e-12,3.141704181701482,2289.7530478226495,9002.015166554565,302.5796714172857
32.554107019,30.985,2299.4400030345064,9000.091989088858,324.99999999822506,-79.99999999917304,0.00037733827550120465,5.325573360143201e-10,-1.3118616931516449e-06,-6.6569669400566096e-12,3.141704263656063,2275.0357998160353,9002.90234694122,299.30357953371606
32.723794915,31.149,2283.6800030346917,9000.09206276848,324.9999999983307,-79.99999999921093,0.00036921705800286664,5.395502327265654e-10,-1.2836209432766987e-06,-6.744378138662945e-12,3.141704365171286,2259.2258843418076,9002.935452726182,299.2574047281861
32.925879784,31.339,2266.0000030348942,9000.092143533822,324.9999999984543,-79.99999999925149,0.00036031482435350135,5.413755880341148e-10,-1.252670846112713e-06,-6.767195068928885e-12,3.1417044764492106,2241.0444815464393,9002.973522343113,299.20430370182777
33.162852349999994,31.566999999999993,2249.920003035008,9000.09221530483,324.9999999985668,-79.99999999928674,0.0003524038885405176,5.478268295870326e-10,-1.2251685625625758e-06,-6.847835578983866e-12,3.141704575335912,2226.6705472507842,9002.20400804168,300.7539234184934
33.332246608999995,31.735,2236.9600030351,9000.092271998858,324.9999999986574,-79.99999999931401,0.0003461548554910954,5.563920795971596e-10,-1.2034402849137525e-06,-6.954901196631287e-12,3.141704653448828,2210.8426581077474,9002.189731773864,300.8020742200559
33.535491793999995,31.929999999999993,2218.4800030352308,9000.092351107853,324.9999999987867,-79.99999999935127,0.00033743446406197923,5.635720229719154e-10,-1.1731252183847118e-06,-7.044650478977746e-12,3.1417047624537258,2194.0206707637276,9001.980450072408,300.51596826165667
33.774169279999995,32.16199999999999,2202.800003035342,9000.092416665253,324.9999999988963,-79.99999999938142,0.0003302073142564017,5.670952870504076e-10,-1.1479963247492666e-06,-7.088691271670255e-12,3.1417048527931017,2179.0090866475275,9001.955673096863,300.5421152257413
33.976804388999994,32.355999999999995,2189.5200030354363,9000.09247108992,324.9999999989892,-79.99999999940596,0.0003242088049036972,5.675262586680138e-10,-1.1271384886113933e-06,-7.094078410433647e-12,3.1417049277744713,2164.7875859058595,9001.932199028044,300.56688603382156
34.146149062000006,32.51599999999999,2173.9200030355464,9000.092533759402,324.9999999990983,-79.99999999943365,0.00031730125657894036,5.653064305663266e-10,-1.1031233212280449e-06,-7.066330551719144e-12,3.1417050141188287,2150.378119634543,9001.156630130314,301.4500946530086
34.351048848999994,32.717,2161.440003035635,9000.092582929166,324.99999999918555,-79.99999999945497,0.0003118810856647389,5.632982858206165e-10,-1.0842774627857657e-06,-7.041228736415897e-12,3.1417050818709678,2136.13787710617,9001.092398916746,301.5213817745329
34.520013288,32.875,2146.320003035742,9000.092641377563,324.99999999929133,-79.99999999947981,0.00030543938626166123,5.577647494653612e-10,-1.0618814351125762e-06,-6.972059525137005e-12,3.1417051623922134,2120.315385407971,9001.021029607497,301.60058968733597
34.723893254000004,33.06399999999999,2130.3200030358557,9000.09270191821,324.9999999994032,-79.99999999950504,0.0002987667475960702,5.478459697471162e-10,-1.0386893278628935e-06,-6.848074771998765e-12,3.1417052458002006,2105.4322821513842,9000.290623360039,301.4640031884807
34.926144311,33.263999999999996,2114.640003035967,9000.092759962778,324.99999999951285,-79.99999999952864,0.00029236906431651317,5.355398545959202e-10,-1.0164521907569295e-06,-6.694248326402303e-12,3.1417053257712437,2089.6092015415443,9000.18003535498,301.530734010637
35.128887229,33.459,2101.600003036059,9000.092807286599,324.9999999995965,-79.99999999954755,0.00028715275231243977,5.252322222502259e-10,-9.983188384302048e-07,-6.565402916857427e-12,3.1417053909751465,2075.2857872420286,9001.187604201625,300.93730863841586
35.298985492,33.622,2085.360003036174,9000.09286504816,324.9999999997006,-79.99999999957016,0.0002807849919089052,5.08765865933534e-10,-9.76185634445443e-07,-6.359573456947314e-12,3.1417054705721545,2061.0316857311923,9001.149274412594,300.96124205957307
35.503182181,33.818,2072.400003036266,9000.092910220568,324.9999999997837,-79.99999999958747,0.0002758059182787675,4.937432135664784e-10,-9.588739018523791e-07,-6.171790297641692e-12,3.141705532810578,2045.9856896919753,9001.108814145575,300.98650511523596
35.673065513,33.979,2056.880003036376,9000.092963262712,324.9999999998769,-79.9999999996074,0.00026995940874616567,4.758998009999227e-10,-9.385473786977211e-07,-5.948747635183604e-12,3.14170560589195,2031.5273431032065,9001.183694637877,302.11411353156706
35.878356567,34.181,2041.520003036463,9000.09301465028,324.9999999999664,-79.99999999962631,0.00026429445458699905,4.564233231604053e-10,-9.188520521914641e-07,-5.705291657035895e-12,3.1417056767038796,2015.7154467283524,9001.148060518422,302.2074741159781
36.081781725,34.37400000000001,2025.7600030365013,9000.093066257146,325.00000000005826,-79.99999999964487,0.00025860641497074487,4.4335377395586567e-10,-8.990751592288067e-07,-5.541922286982949e-12,3.1417057478043775,2000.719171771634,9001.798573910628,300.4904431663716
36.285046627,34.57000000000001,2006.960003036547,9000.093126369975,325.0000000001584,-79.99999999966604,0.0002519800605675489,4.327087241022493e-10,-8.760383779894206e-07,-5.408859158241298e-12,3.1417058306338106,1982.7518176168987,9001.8069161309,300.46767366505554
36.522413402,34.801,1991.3600030365849,9000.093175077049,325.0000000002402,-79.99999999968277,0.0002466114211702285,4.2250850168293464e-10,-8.573693563810478e-07,-5.281356373458176e-12,3.1417058977418053,1968.5670643368426,9001.813501127002,300.4496977429616
36.69174954499999,34.967,1978.8000030366152,9000.093213536145,325.0000000003061,-79.99999999969576,0.00024237281959812922,4.128818943572461e-10,-8.42633179426848e-07,-5.161023778441347e-12,3.1417059507243277,1954.4562048157554,9002.222312147127,300.0488396663234
36.894600495000006,35.158,1963.280003036653,9000.093260148513,325.0000000003875,-79.99999999971114,0.00023723429226705028,3.962185122008828e-10,-8.247694683345499e-07,-4.9527314972484545e-12,3.141706014955922,1939.5241746365812,9002.2525242632,300.0077509243984
37.100438866999994,35.349000000000004,1944.9600030366973,9000.093313901025,325.00000000047385,-79.9999999997285,0.0002313100397891761,3.776426295660073e-10,-8.041747855388654e-07,-4.720532959748637e-12,3.14170608900908,1921.4485591565235,9002.2890956188,299.95801192101163
37.343730928,35.58,1928.8000030367364,9000.093360202565,325.00000000054916,-79.99999999974311,0.00022620580285398007,3.596469047666443e-10,-7.864298652049238e-07,-4.495586395794511e-12,3.141706152812044,1907.5420575270703,9001.392549602017,298.180517353143
37.547652699,35.78099999999999,1913.5200030367735,9000.093403039324,325.00000000061726,-79.99999999975631,0.00022148440201979453,3.416349584623247e-10,-7.700148391020854e-07,-4.270437063443794e-12,3.1417062118295567,1891.8754706869468,9001.369574336737,298.0345784536365
37.752013308,35.974000000000004,1898.080003036811,9000.09344541727,325.0000000006803,-79.99999999976912,0.00021681359647476127,3.243815822419885e-10,-7.537774312448256e-07,-4.054769857252156e-12,3.1417062702146286,1874.1054453422014,9001.191535567375,298.7337439024087
37.955689389,36.16699999999999,1879.920003036855,9000.093494118939,325.000000000753,-79.99999999978347,0.00021144550213856794,2.9874438368541286e-10,-7.351150065355609e-07,-3.734304871434786e-12,3.14170633731581,1856.878187066436,9001.156145944842,298.6308653983062
38.193125644000006,36.39299999999999,1864.1600030368932,9000.09353540629,325.00000000080814,-79.99999999979536,0.00020689443494023476,2.77766482432007e-10,-7.192940883272215e-07,-3.472081102543538e-12,3.141706394204153,1842.3831358301472,9001.8928515951,298.49492584369784
38.396201203000004,36.588999999999984,1850.8000030369255,9000.093569710345,325.0000000008548,-79.99999999980507,0.0002031128683378896,2.5869316766563605e-10,-7.06147196471751e-07,-3.2336646652759115e-12,3.141706441473737,1826.8538113503007,9001.908452447893,298.3991268891301
38.565696380999995,36.75699999999999,1835.2000030369634,9000.09360897177,325.0000000009019,-79.99999999981597,0.00019878515518425218,2.377901669236435e-10,-6.911019090549163e-07,-2.9723771531158854e-12,3.141706495570154,1812.7362436413516,9001.922634321023,298.31203693042846
38.770572679,36.951999999999984,1819.5200030370013,9000.09364759183,325.0000000009476,-79.99999999982639,0.00019452816492082447,2.161336959771631e-10,-6.763017902900985e-07,-2.7016712634730702e-12,3.141706548782534,1798.2970541064378,9002.530618921042,298.3862673851113
38.939923715999996,37.11399999999999,1806.080003037034,9000.093680037224,325.000000000982,-79.99999999983498,0.0001909514875987198,1.978916163529094e-10,-6.63865692251081e-07,-2.4736452658298246e-12,3.1417065934910022,1783.4130410210532,9002.580235724043,298.3039882658805
39.142940092,37.307,1790.6400030370712,9000.093716573168,325.000000001018,-79.99999999984453,0.00018692447210766908,1.7634171442861972e-10,-6.4986264118558e-07,-2.204271489175739e-12,3.141706643828698,1769.3123970454187,9002.627240398278,298.2260396266049
39.346639763,37.504000000000005,1777.5200030371032,9000.09374701369,325.000000001047,-79.99999999985229,0.00018356905173632477,1.5570543690165238e-10,-6.381980379381352e-07,-1.9463180180582747e-12,3.141706685771454,1755.7628090942605,9003.203615955334,297.4067393856221
39.516486984,37.67299999999999,1762.32000303714,9000.093781595753,325.0000000010736,-79.99999999986096,0.0001797568973671245,1.3396963120954003e-10,-6.249421837767364e-07,-1.6746204445063992e-12,3.1417067334233852,1741.6837242649826,9003.279586352157,297.2882169580927
39.718863393999996,37.86200000000001,1746.8800030371774,9000.093815989627,325.0000000010994,-79.99999999986939,0.00017596609224530794,1.1095182576822767e-10,-6.117621282810126e-07,-1.3868978741858661e-12,3.141706780808452,1725.2581252974917,9003.368217700192,297.14994079263744
39.922918102,38.05499999999999,1733.5200030372098,9000.093845165697,325.000000001115,-79.99999999987638,0.000172750394623251,9.29959346691723e-11,-6.005841601201546e-07,-1.1624492336294665e-12,3.1417068210046732,1709.3970080353795,9002.953953945653,299.9901880393203
40.091919473000004,38.224000000000004,1717.8400030372477,9000.093878727956,325.0000000011333,-79.9999999998843,0.00016905100493559428,7.080474358840249e-11,-5.877217423444766e-07,-8.850593429408521e-13,3.141706867247046,1694.4258990136427,9003.006409275353,300.03267973484515
40.296428377,38.41799999999999,1704.960003037279,9000.093905757805,325.0000000011423,-79.99999999989053,0.00016607176465343291,5.405210083787783e-11,-5.773662550566273e-07,-6.756513069636672e-13,3.1417069044875507,1679.3949896274137,9001.384793527475,301.0623471464547
40.50311138000001,38.61399999999999,1686.1600030373245,9000.093944361044,325.0000000011533,-79.99999999989925,0.0001618161867722725,2.995310744957015e-11,-5.625720004037431e-07,-3.744138872260121e-13,3.1417069576822767,1663.6224364668985,9001.336151428783,301.1683659843819
40.705735387999994,38.80399999999999,1673.5200030373405,9000.093969755906,325.00000000115614,-79.99999999990487,0.0001590173539737456,1.208238020174993e-11,-5.528412108486937e-07,-1.510297951346757e-13,3.1417069926676877,1649.427138622438,9001.292372911868,301.2637829385135
40.87566557700001,38.974000000000004,1655.4400030373422,9000.094005319514,325.00000000115614,-79.99999999991257,0.00015509739363763484,-5.6119808926433264e-12,-5.392132345235349e-07,7.014972068013054e-14,3.1417070416671944,1632.5163774072403,9002.39299839837,298.3006815793996
41.114350071000004,39.2,1637.5200030373437,9000.094039702706,325.00000000115614,-79.99999999991982,0.0001513076718955408,-2.3397921852908363e-11,-5.260381686893609e-07,2.9247398464286954e-13,3.141707089038718,1616.0228181163475,9002.41498697893,298.2170928145139
41.351197211,39.42299999999999,1624.880003037345,9000.094063448183,325.00000000114966,-79.99999999992475,0.00014869066679141184,-3.399636213630399e-11,-5.169426047378752e-07,4.2495448943698445e-13,3.141707121751283,1601.2891193219616,9001.555807867147,300.80506423042283
41.519612811,39.58,1608.9600030373465,9000.09409277381,325.00000000114034,-79.99999999993065,0.00014545791444031596,-4.642619281424726e-11,-5.057067829627738e-07,5.803273745512297e-13,3.1417071621606887,1586.3682655209664,9001.523725692123,300.88691279253464
41.722198026,39.778000000000006,1593.8400030373477,9000.09412003335,325.0000000011315,-79.9999999999361,0.00014245348316694356,-5.855317847163478e-11,-4.952643971848496e-07,7.319146967108231e-13,3.1417071997160813,1571.4474117199713,9001.491642956591,300.9687613546438
41.926757804000005,39.969999999999985,1578.4800030373492,9000.094147149865,325.0000000011219,-79.99999999994137,0.00013946473474275772,-7.228383866610067e-11,-4.848768517215834e-07,9.035479505608187e-13,3.1417072370754378,1558.1629662482355,9001.416599430962,301.91702520201886
42.130294081,40.16199999999999,1563.2000030373506,9000.094173560323,325.00000000110407,-79.99999999994637,0.00013655329692404284,-8.28450686461623e-11,-4.7475740642734004e-07,1.035563326697228e-12,3.1417072734684117,1541.7160494209872,9001.378250510123,302.06343996926086
42.332038201,40.35000000000001,1547.6800030373522,9000.094199821771,325.000000001086,-79.99999999995126,0.00013365876008590544,-9.339141742627468e-11,-4.646964208270197e-07,1.1673926877770339e-12,3.1417073096501236,1526.8355056248993,9001.343553318145,302.19591047295404
42.53970807499999,40.54699999999998,1531.5200030373537,9000.09422657645,325.0000000010672,-79.99999999995615,0.00013070961212888804,-1.0439314894299435e-10,-4.544456933679808e-07,1.3049143330148908e-12,3.141707346514475,1510.6438781430818,9000.593612799013,302.13513180964503
42.744657192000005,40.74900000000001,1516.320003037355,9000.094251200844,325.00000000104944,-79.99999999996051,0.00012799551546890028,-1.1485329718554824e-10,-4.4500836711843007e-07,1.4356661872564388e-12,3.1417073804406845,1494.939399312335,9000.514598775413,302.26273880947474
42.948348912,40.938,1500.9600030373565,9000.09427556517,325.0000000010242,-79.99999999996476,0.0001253100025694393,-1.2307844973329782e-10,-4.3567249789550413e-07,1.5384805952525391e-12,3.1417074140095966,1479.7375718549927,9000.743654312308,301.8652789327764
43.152555648,41.130999999999986,1484.7200030373579,9000.094300771609,325.00000000099584,-79.99999999996908,0.0001225310737895247,-1.2976513945135276e-10,-4.2601338527570905e-07,1.6220642178500068e-12,3.1417074487462076,1462.3792056248917,9000.677132218128,301.97083387360766
43.356156169,41.319,1469.8400030373593,9000.094323373589,325.0000000009698,-79.99999999997286,0.00012004003640541077,-1.3546309746049653e-10,-4.1735309076507303e-07,1.693288693983688e-12,3.141707479884176,1446.5988726884352,9000.616657043522,302.06679291072567
43.56315927200001,41.51100000000001,1454.6400030373607,9000.094345987383,325.00000000094326,-79.99999999997654,0.0001175475382964124,-1.4158556075857885e-10,-4.086883749904415e-07,1.7698194862096729e-12,3.141707511040404,1431.5444544142608,9001.950018390955,298.3705104646122
43.799886524,41.742000000000004,1436.8800030373625,9000.094371816196,325.00000000091217,-79.99999999998067,0.00011470068876643906,-1.4963003382132678e-10,-3.987902007351274e-07,1.870375400634906e-12,3.1417075466260247,1415.7981423794195,9001.972974846962,298.23943155898445
44.003076226000005,41.931,1424.2400030373635,9000.094389816722,325.00000000089005,-79.99999999998349,0.00011271664386904187,-1.551455876144748e-10,-3.9189502522460785e-07,1.939319823755488e-12,3.1417075714265863,1401.5647389493674,9001.31106086158,299.30189890694527
44.172852378,42.08999999999999,1410.720003037365,9000.09440872779,325.00000000086646,-79.9999999999864,0.00011063179750843895,-1.6072304361839435e-10,-3.8464710092754603e-07,2.0090380246226346e-12,3.1417075974871675,1387.3807688015265,9001.29346313748,299.25003927901844
44.342236621,42.257999999999996,1395.1200030373664,9000.094430112904,325.0000000008344,-79.99999999998958,0.00010827447193859858,-1.6585530657550574e-10,-3.764520954734917e-07,2.0731913124332984e-12,3.141707626953738,1373.1967986536872,9001.275865041498,299.1981796510914
44.548206961000005,42.45299999999999,1379.6800030373677,9000.094450829505,325.0000000007984,-79.99999999999265,0.00010599085439441724,-1.6771210955172433e-10,-3.6851191285653534e-07,2.0964013504599243e-12,3.1417076554989585,1357.6459271533206,9001.502574071166,299.92661643114604
44.756876039999995,42.647000000000006,1363.5200030373692,9000.094472045832,325.00000000076074,-79.99999999999577,0.00010365190357075221,-1.6883292403246372e-10,-3.60378451326659e-07,2.1104115322990908e-12,3.141707684735845,1338.6795967200271,9001.497201547923,299.91524359614823
