Real_time_s,Simulation_time_s,x_ft,y_ft,alt_ft,vx_fps,vy_fps,vz_fps,roll_rad,pitch_rad,yaw_rad
0.0,0.0,1.0946716237735316e-14,4001.83974449768,280.0306624082952,2.8930063731835628e-11,24.380614037880644,0.40634361801047403,1.1849806804625242e-15,-0.016665123713998864,1.5709126535897924
0.13588104699999803,0.1349999999999909,-1.1402787931171948e-06,4012.6382573773626,280.21918251612675,2.126199101305874e-05,24.37967059749191,0.4594753065594714,4.323531316351292e-05,-0.018844424736229583,1.5709117814727513
0.33907102300000247,0.3229999999999933,3.262071485815945e-05,4027.6754478064972,280.5204260040339,0.0001333524690426298,24.378239245076113,0.5300068792478292,8.725285643100254e-05,-0.021737556396691515,1.570907183450798
0.544457033999997,0.5120000000000005,0.00015611529850508978,4042.791693370541,280.86605954958856,0.0003166551862672759,24.37669803503725,0.5966982556897329,0.00011782821539828155,-0.024473334204478146,1.570899663518744
0.7481705379999966,0.7129999999999939,0.00042735152031965625,4058.8666211384193,281.27761332444294,0.000562718908164111,24.37498465138143,0.6630074873409686,0.00013800460148306353,-0.02719361749213663,1.5708895676782775
0.9859690319999999,0.938999999999993,0.0009393842300673233,4076.939533816475,281.7909475622061,0.0008743043725667441,24.37301903865851,0.7317090793379301,0.00014798300413734986,-0.03001225804114734,1.5708767817845088
1.156355480000002,1.097999999999999,0.0014410429161205022,4089.6536616767257,282.18176338801686,0.0011008945454992218,24.371638132962993,0.7763436764342039,0.0001485430108266769,-0.03184362129688628,1.5708674824625912
1.3605056829999995,1.2920000000000016,0.002212999878870013,4105.165514944482,282.6891503233412,0.0013733074272127348,24.36998065685614,0.8267387123441913,0.00014375731168331804,-0.03391146484619987,1.5708563011751302
1.5642357190000027,1.48599999999999,0.003155417159032278,4120.67631381196,283.2274265577476,0.0016313972440155484,24.36838198253425,0.8725897614845439,0.0001342801420753506,-0.03579298223799407,1.570845706301889
1.8017897280000028,1.7199999999999989,0.004502251171312338,4139.383877535077,283.91366104174193,0.0019132187165762265,24.366563904117257,0.9219630394807482,0.00011860334970041201,-0.03781917775159767,1.5708341353964788
2.1476708490000007,2.0459999999999923,0.006712368968159527,4165.444296177039,284.9284531117893,0.002238482176391806,24.364294400386125,0.9801068107686014,9.259718893557275e-05,-0.04020549928664564,1.5708207780760428
2.3843038919999984,2.280000000000001,0.008493536817646178,4184.148805486584,285.6923549366486,0.002419378443628501,24.362890578309102,1.0144026892460452,7.302192748815414e-05,-0.04161316837414222,1.5708133477070652
2.5870333069999987,2.4710000000000036,0.010041336199253528,4199.415390142617,286.33417722950855,0.002534022639139059,24.361903166265154,1.037845699636385,5.740318268528774e-05,-0.04257543047205011,1.5708086378012682
2.7901767430000035,2.6599999999999966,0.011636535697206735,4214.521531105639,286.982755516013,0.002619814889400698,24.3610729854029,1.0571528444114344,4.27390165754668e-05,-0.04336795784766385,1.5708051125616949
2.993982006000003,2.8529999999999944,0.013313562878474794,4229.946874999594,287.6564268375374,0.0026812407800053477,24.36037943974338,1.0730155463368667,2.8875695914875558e-05,-0.04401911675319695,1.5708025879503336
3.2319060869999987,3.078000000000003,0.015308560824525514,4247.929278509625,288.4530704181788,0.0027225507955902606,24.35977173474777,1.0867242606593848,1.4430328252149877e-05,-0.0445818702104055,1.5708008893745082
3.435597897000001,3.280000000000001,0.01711833277756908,4264.073138857454,289.17567639161626,0.0027354417963733188,24.35940817420536,1.0948433311753425,3.139413322715223e-06,-0.04491517109423217,1.5708003585058405
3.6389818119999973,3.471999999999994,0.018841307693421003,4279.417605610112,289.86655814082394,0.0027291031568816293,24.359223132208214,1.098952659258859,-6.051025257364357e-06,-0.04508386755307223,1.5708006178675504
3.841483283999999,3.661999999999992,0.020538395880373383,4294.602147129439,290.5519545001669,0.0027079877539461007,24.359187609474105,1.0997398207074203,-1.3709045320155359e-05,-0.045116182383520956,1.570801484539075
4.0444653130000034,3.853999999999999,0.022236648518122633,4309.946530113067,291.2442610083775,0.0026742851567281745,24.359294372140067,1.0973725619076864,-2.0072773258453623e-05,-0.04501900132874014,1.5708028685881399
4.247954759999999,4.043999999999997,0.02389358529267956,4325.131167374759,291.92712148077794,0.002631079165576656,24.359533972136862,1.0920410879347573,-2.5090616626768013e-05,-0.044800134325920504,1.5708046433466274
4.450884930000001,4.244,0.025606376347181138,4341.115183358798,292.6415406106493,0.002577481166530304,24.359919042968645,1.0834175449059575,-2.9134912782976986e-05,-0.04444612620704266,1.5708068453073816
4.654651549999997,4.432999999999993,0.027190849157688057,4356.220334268919,293.31073055825976,0.0025209986395538526,24.360401360010293,1.0725181694402524,-3.1906743084320614e-05,-0.04399870002332185,1.5708091660227022
4.8584285829999985,4.620999999999995,0.028731096514137272,4371.245879074337,293.96905281862814,0.002460981952933203,24.360983328312564,1.05921726819895,-3.378563584667998e-05,-0.0434527016158303,1.570811632134591
5.031866200000003,4.783999999999992,0.030036100012720727,4384.273646983814,294.53279466200325,0.0024069740428016638,24.361561122469013,1.0458441005656145,-3.4804266126604614e-05,-0.042903749748397946,1.5708138514619134
5.273336299999997,5.0120000000000005,0.0318124520917376,4402.497076793414,295.3085658817241,0.002329814716901949,24.362472366947532,1.0243977458423674,-3.542481800410066e-05,-0.04202343052853765,1.5708170222959934
5.477931284999997,5.213999999999999,0.033337932686239,4418.642981793214,295.9817997665836,0.0022611774301948277,24.3633637060613,1.0029754798878843,-3.5343426729944116e-05,-0.04114413261078101,1.5708198430282685
5.681184901000002,5.408000000000001,0.034760161811043286,4434.150013831618,296.6144325978413,0.0021959636038161334,24.364282567290687,0.9804010194624561,-3.481851673511752e-05,-0.040217576159509,1.5708225231443957
5.882585116999998,5.60199999999999,0.036141176168143385,4449.657638672474,297.23222752037395,0.002132115610854861,24.36525003216141,0.9560556073502997,-3.3963374508197864e-05,-0.03921837064299346,1.5708251471762253
6.120127525000001,5.826999999999998,0.03769261698431672,4467.644064986757,297.9287484307618,0.0020604228000516665,24.366417499395126,0.9258239572585081,-3.267280202771318e-05,-0.037977631448465304,1.5708280936484655
6.323505625000003,6.018000000000001,0.03896867582212959,4482.913222397993,298.5020735435738,0.0020019312519620144,24.367434543609967,0.8986577519615119,-3.140829485988406e-05,-0.03686275132323725,1.5708304975761473
6.526975139000001,6.219999999999999,0.04027914927498532,4499.062446770026,299.08960254829356,0.0019426358343030434,24.368523578385172,0.8686258319079513,-2.997371959275704e-05,-0.03563031775596117,1.570832934526813
6.736832878999998,6.417999999999992,0.04152619593474343,4514.892584087086,299.64583623526534,0.0018872376792273087,24.369594681922084,0.8380378733537107,-2.852283043856727e-05,-0.03437512141827703,1.5708352112796502
6.9426616319999965,6.611999999999995,0.04271379018557244,4530.4035925170965,300.17127939283375,0.0018356087692355202,24.370638139430408,0.8071240967076618,-2.71016735824508e-05,-0.033106609961924736,1.5708373330837178
7.146258457000002,6.804999999999993,0.043863319346005444,4545.835300479315,300.67428930283825,0.0017867794053884084,24.37166158513356,0.7756058194410063,-2.5720305473449844e-05,-0.03181334835975986,1.570839339777088
7.348571219999997,6.991,0.044942413487712725,4560.707917838717,301.1399515586511,0.001742095632817749,24.372627634592995,0.7446308821034463,-2.4442729145579297e-05,-0.03054243300767685,1.5708411760419039
7.550172951,7.189999999999998,0.046067507920264164,4576.620660184363,301.6171949022789,0.0016966769141282573,24.373631841448695,0.7110020948004868,-2.3150736022562752e-05,-0.029162684818288754,1.57084304242351
7.7225190070000025,7.35199999999999,0.04696188275393244,4589.575230108167,301.9894024019092,0.0016614373655376954,24.37442275887226,0.6833508699052891,-2.2164433997979485e-05,-0.02802823045127744,1.5708444904416479
7.928978037,7.546999999999997,0.048014085272489494,4605.169242166029,302.41788569590364,0.0016209419955898676,24.37533871918465,0.6498582134354709,-2.1061512474298346e-05,-0.026654166250553207,1.5708461543285073
8.133038493,7.7479999999999905,0.04907215838388279,4621.243669850374,302.8371374847212,0.0015812195403015121,24.376237390338783,0.6152269415433118,-2.0023412582179804e-05,-0.025233442297113245,1.570847786336625
8.303219495999997,7.905000000000001,0.04988063098709282,4633.799723676816,303.14866314896847,0.0015515350446514446,24.376904800134934,0.5881887094330214,-1.928349132493305e-05,-0.024124253099761097,1.5708490058429436
8.505280249999998,8.096000000000004,0.050843920647439755,4649.075376541523,303.50890399194964,0.0015168319101901888,24.377673693163533,0.5554088663954992,-1.8462991179650763e-05,-0.022779565516799983,1.5708504314126692
8.674191299999997,8.262999999999991,0.051668680177221975,4662.431960693237,303.8071398949566,0.001487639720552725,24.37830595148177,0.5269276258496568,-1.781362311399895e-05,-0.02161124779968878,1.570851630492328
8.876100049000001,8.456999999999994,0.05260696436810582,4677.948417948203,304.1340204757401,0.0014549685553886856,24.378992329523868,0.4941526890442772,-1.7135701749718567e-05,-0.020266836471718636,1.5708529723464255
9.115878656,8.677999999999997,0.053650910575101296,4695.624898140261,304.48110195483525,0.0014191932333043047,24.379710566965592,0.45734741377280713,-1.6453920511873997e-05,-0.01875714624596373,1.5708544415266263
9.352237371000001,8.900999999999996,0.05467846087881038,4713.46185514795,304.8045002091261,0.0013844626856648968,24.380366689434595,0.42092062432211663,-1.5853211298500996e-05,-0.017263022974890907,1.5708558676225874
9.520631121999998,9.057999999999993,0.055386808991749664,4726.019993018225,305.0162895064319,0.0013607437321788718,24.380787812150245,0.3957774719351444,-1.5475779495278407e-05,-0.01623174507591614,1.5708568414577193
9.723578017999998,9.259,0.05627612221737097,4742.097914416279,305.26877926669505,0.0013311506280824325,24.381279075729754,0.36425932991420934,-1.5040831348673012e-05,-0.014939013241052458,1.5708580563457037
9.926979543999998,9.450999999999993,0.05710754118040128,4757.456221900871,305.49070027980054,0.0013036358567432129,24.381699330966573,0.3349507947237058,-1.4669207243516766e-05,-0.013736931944351065,1.5708591857877539
10.168202825999998,9.679999999999993,0.05807680372875397,4775.774534487012,305.731595063451,0.0012716626480795859,24.382140956784166,0.3010925877391102,-1.427195828129021e-05,-0.012348271740324572,1.5708604980934233
10.337002738000002,9.837000000000003,0.05872752327214952,4788.333563479661,305.8821881208131,0.0012502319248658415,24.3824079462109,0.27863449441995064,-1.4023936876312228e-05,-0.011427188998037028,1.5708613776065734
10.539983935999999,10.025999999999996,0.0594963515088644,4803.452570922454,306.04833398958954,0.0012249119340734301,24.382693070679686,0.2524541951115367,-1.3746276350380415e-05,-0.010353458118407087,1.5708624166472986
10.743498523,10.227999999999994,0.060300923920394246,4819.611696995546,306.2083178951708,0.0011983792686330306,24.382956897039016,0.22553829172746082,-1.3469637515684309e-05,-0.009249570387489357,1.5708635053552698
10.946002350999997,10.418999999999997,0.06104557910072186,4834.891025769372,306.34340386633505,0.0011737765216573925,24.383170059631038,0.2011776960093042,-1.3223255797608567e-05,-0.00825049189170456,1.5708645147902087
11.186854928999999,10.646999999999991,0.06191449700342805,4853.130390923682,306.48510980822846,0.0011449806038736372,24.38338260041492,0.17351556360359643,-1.2943315855800214e-05,-0.007116020464720906,1.570865696174678
11.42546515,10.872,0.06275104191000251,4871.129912284863,306.60514206578995,0.0011171518748803047,24.383552087246382,0.1477916118218272,-1.2677489632675302e-05,-0.006061045390598837,1.5708668377921018
11.628277722,11.060999999999993,0.06343795081258802,4886.249603238847,306.6915989901147,0.0010942137615042916,24.383667022846794,0.12742574952205932,-1.2459589993576032e-05,-0.005225817865262465,1.5708677787243839
11.796555476000002,11.22699999999999,0.06402965748506123,4899.529388968635,306.7573731618851,0.0010743847693283476,24.383749716925305,0.11047437736277203,-1.2270756967636401e-05,-0.004530625325773767,1.5708685920817829
12.000806124999997,11.417000000000002,0.06469370331254047,4914.729197958451,306.8215556701772,0.0010520578476016498,24.38382571751199,0.09218606828759325,-1.2056311158970315e-05,-0.0037806061239847055,1.570869507863863
12.209320732999998,11.613,0.06536426665703753,4930.40904937799,306.87616022906434,0.001029429134578027,24.38388599433717,0.07455706173470544,-1.1836102878712241e-05,-0.003057627498470628,1.570870435989673
12.378734676,11.780000000000001,0.06592422752181558,4943.7689533501825,306.91398423404553,0.0010104700695203834,24.383924847761488,0.06053096464801531,-1.1648709923522923e-05,-0.0024824080183825674,1.5708712135800593
12.615688653,11.99499999999999,0.06662988010056033,4960.968861410351,306.95167861708785,0.0009865070007295724,24.383960546343644,0.04385317744043775,-1.1407413248189672e-05,-0.0017984420290371632,1.5708721963797303
12.819617623,12.197000000000003,0.06727767311226351,4977.128798540185,306.9768177424082,0.0009644409413984068,24.383982053718803,0.02956812108871607,-1.1180530087766203e-05,-0.001212604038798145,1.5708731013561872
13.021810486,12.387,0.06787368421489713,4992.328753882569,306.9921037035411,0.0009440870462457558,24.383993800165246,0.017362667271464894,-1.0966978295432417e-05,-0.0007120520212941828,1.5708739360988526
13.226748200000003,12.579999999999998,0.0684662300795098,5007.768717877018,307.00015708754387,0.0009238077290667933,24.38399920277929,0.0061664779896940716,-1.0750158195794777e-05,-0.00025289062539926506,1.570874767772378
13.396415677,12.747,0.0689686902049971,5021.128691392063,307.0016385320092,0.0009065795838534892,24.383999848434662,-0.0025631356741459194,-1.0562834037035807e-05,0.0001051152151761591,1.5708754743082205
13.598545958999999,12.935999999999993,0.0695259982273883,5036.248664290759,306.9977836153543,0.0008874480531258869,24.383997338571458,-0.011358036328755918,-1.0351502139047317e-05,0.00046579852474660496,1.5708762588981044
13.801065057999999,13.126999999999995,0.07007726122833303,5051.5286380882935,306.9886397077222,0.0008685011504230055,24.383992491449956,-0.019116030744688064,-1.0139049873488783e-05,0.0007839578389077743,1.570877035913047
14.004746067,13.319000000000003,0.07061954528398509,5066.888611692238,306.97483320089447,0.0008498456509925279,24.383986344302716,-0.025792220444992468,-9.92700659268866e-06,0.0010577518553200281,1.570877800975841
14.175936280999998,13.479,0.07106253762963553,5079.688589157995,306.9603025636303,0.0008345947894213825,24.383980885108986,-0.030520453899642034,-9.751767620956737e-06,0.001251659222712385,1.570878426413975
14.378785151999999,13.679999999999993,0.07160783201216772,5095.76856005008,306.93880729233825,0.000815818627351482,24.38397429486187,-0.0353966378435246,-9.533937359129606e-06,0.001451634169796794,1.5708791964253155
14.581374242999999,13.866,0.07210143853692152,5110.6485325026315,306.91629715724423,0.0007988212755149044,24.383968992398216,-0.03887852442300547,-9.334984834922146e-06,0.0015944282676144828,1.5708798934888106
14.783347272999997,14.054999999999993,0.07259248769308829,5125.768504389029,306.8914935135692,0.0007819114828298876,24.383964757829556,-0.041449699097864834,-9.135782144952275e-06,0.001699873592940214,1.5708805869631635
14.986350655999999,14.25699999999999,0.0731058757448984,5141.928474946865,306.8635023250952,0.0007642311592063272,24.383961773189164,-0.043170124104604614,-8.926433791512247e-06,0.0017704292140248896,1.5708813120392737
15.194671778,14.453000000000003,0.0735928960023891,5157.60844794355,306.8355179444976,0.000747466360236724,24.38396057683038,-0.04384094992637412,-8.727072120400021e-06,0.0017979401847346538,1.570881999571623
15.400924658000001,14.646,0.07406201103349157,5173.048423788889,306.80777899948095,0.000731325699736688,24.3839610350134,-0.04358564127975677,-8.534637688110258e-06,0.0017874698569226239,1.570882661509802
15.603937661000003,14.835999999999999,0.07451393214971123,5188.248403222752,306.78084317200853,0.0007157847320938847,24.38396297157822,-0.042488685189358937,-8.34908560043869e-06,0.0017424830931064377,1.5708832988559935
15.807230333,15.030000000000001,0.07496547778645707,5203.768386288478,306.7542571129104,0.0007002645521081938,24.38396627348781,-0.04054976021943267,-8.16373854751303e-06,0.0016629667195058534,1.5708839353511785
16.011312214999997,15.230999999999995,0.07542301357465953,5219.848373748329,306.7282320539578,0.0006845449528649655,24.383970816235905,-0.037719548897047636,-7.976112842183829e-06,0.0015468982134861338,1.5708845800259132
16.181271543,15.39,0.0757776352683216,5232.568367828826,306.7091019978286,0.0006723699930440048,24.38397500276414,-0.034908630839325744,-7.830953354619188e-06,0.0014316209502391356,1.5708850793324258
16.418665206,15.61699999999999,0.07627303136936905,5250.728365742093,306.6845538314204,0.0006553706529355171,24.38398142877005,-0.03008740436583046,-7.62864634053908e-06,0.0012338998934761575,1.5708857764916482
16.630979996999997,15.816999999999993,0.07669913106824508,5266.728370093665,306.66610581454194,0.000640755615558395,24.38398706562997,-0.025107222812282594,-7.455161252062705e-06,0.0010296600506168843,1.570886375868159
16.871117517000002,16.045999999999992,0.07717534996466036,5285.048381835485,306.64923895837586,0.000624432208315027,24.383992882879863,-0.018619821782300018,-7.261888686762639e-06,0.0007636084095224509,1.5708870453057038
17.073447011,16.24499999999999,0.07757932773416541,5300.968397172332,306.63871507551556,0.000610590377223819,24.38399685705482,-0.012365368358011103,-7.0985301990709744e-06,0.000507110117592237,1.5708876129703542
17.277424157,16.438999999999993,0.07426960489725142,5316.488362924284,306.6327303187387,-0.01266551347577601,24.383986139815534,-0.022705022958624532,0.0514022783396694,0.0009311419334575155,1.571432072826751
17.478352372000003,16.628,0.06893449119519987,5331.608098497098,306.59773865725856,0.08408875837752458,24.383613515385875,-0.10852194718305164,0.17655079661672915,0.004450551463010064,1.567464097934103
17.682818855999997,16.820999999999998,0.1906075352089709,5347.047259822883,306.50927787001797,0.42550774467694913,24.379536236183636,-0.19134280191210293,0.2810789300580895,0.00784714197572573,1.5534609585981274
17.886432164,17.01299999999999,0.5812009331594328,5362.401672251284,306.3701417811037,0.9635044907238376,24.36345180180889,-0.27079770550205523,0.3602995488675744,0.011105775074695207,1.531386142976702
18.089658586,17.214,1.4002151966199587,5378.459647546417,306.17154567204864,1.6938330919808195,24.322559576372406,-0.35139879103683413,0.42293749436565753,0.014411536480345105,1.5013845158886048
18.292970257,17.403999999999996,2.654116744981118,5393.606206624865,305.9352107994869,2.510676118244809,24.250679529913207,-0.42485734869739866,0.4673526779578504,0.017424491538958465,1.4677500778114032
18.529838982,17.62899999999999,4.834753655494138,5411.470330275573,305.5969321394452,3.5973572731971704,24.111832030147312,-0.5079692893854071,0.5063681747296866,0.02083357918673782,1.4228104162029895
18.700161414,17.784999999999997,6.833290894929181,5423.786818592837,305.3267210017255,4.408558587702548,23.975554987152794,-0.5628767510127033,0.5258856891136694,0.023085905211941482,1.389066750265937
18.910675866,17.979,9.910236894583734,5438.994397304548,304.951813503385,5.46379662473171,23.755668783961408,-0.6281584754811995,0.5371940362013746,0.025763941009725587,1.3448445826468203
19.113408063999998,18.179000000000002,13.790862588444671,5454.510929625772,304.5224288501868,6.568181245566642,23.472543436770657,-0.691488057982258,0.5354638099964464,0.028362071028801873,1.2980671823376049
19.316649622,18.372,18.221882383904195,5469.294793804627,304.0693238147352,7.616538471767217,23.151849206180586,-0.748114992764776,0.5228550464491089,0.030685383011990953,1.253083551024519
19.519925627,18.560999999999993,23.196197320947906,5483.565435650041,303.59169057348106,8.600635008494166,22.802859445888394,-0.7988332377664734,0.5018399923027476,0.03276641126948036,1.210237812902631
19.756357373,18.792,30.07991840633214,5500.703760928428,302.96705142586495,9.720802954938785,22.346277839545824,-0.85399802641311,0.4670778661656967,0.03503004785233125,1.1605960475373591
19.891876861,18.924999999999997,34.418139840214145,5510.41237535815,302.58913974878647,10.315762610804418,22.076828795056233,-0.8821157017922275,0.4435794003736294,0.03618389927917805,1.1337930642063712
19.993898363,19.02199999999999,37.74353857831991,5517.418499064848,302.30594128631236,10.724711312947443,21.88031934690693,-0.9009153852341041,0.4252125744152004,0.036955399580134704,1.1151733907267505
20.162766266,19.188000000000002,43.7270133218239,5529.2640462371,301.8080405858436,11.37494277672683,21.548218999509658,-0.9297261830270157,0.3921157964855142,0.03813777827803253,1.0852081315292066
20.438010952,19.450999999999993,53.89058009159437,5547.667598795407,300.9899414520004,12.27443213393258,21.047171282241607,-0.966619266057911,0.33726548830930153,0.03965192749511942,1.0429475728417863
20.645256161,19.64699999999999,61.93935843303384,5561.109618220605,300.3617271080136,12.843715187184065,20.70371278637071,-0.9872755694408879,0.2962390608110918,0.04049973367398124,1.0156583415018638
20.816183422,19.804999999999993,68.6814148875305,5571.789170118392,299.84663452576984,13.243902937963,20.449419379143496,-0.9998690043065704,0.2639788742047681,0.041016626104685,0.9961968760422741
21.019665684000003,19.997,77.13693671793366,5584.596755114339,299.21318983525526,13.663766796258113,20.170769059482282,-1.0104496457293954,0.22654267484924828,0.04145091273976711,0.9755130721503377
21.223022198000002,20.198999999999998,86.29819195541526,5597.892107206306,298.5411158998788,14.034685925266952,19.914166403630567,-1.0163776009308931,0.18994363817021362,0.041694231475379845,0.9569999451033727
21.427006515000002,20.396,95.4528311154553,5610.703769717426,297.8832876783863,14.333948976877354,19.69980362385154,-1.0173985993751158,0.1575427943982827,0.04173613969035564,0.9418900127110217
21.630623731999997,20.587999999999994,104.54736126773122,5623.065409242931,297.24272605590437,14.573151040274023,19.52368148771572,-1.014192251811731,0.12941490674161304,0.04160453162488429,0.9296973268547228
21.871358301999997,20.817999999999998,115.62200097059366,5637.7395596534725,296.4796415189775,14.801710093559723,19.351434350876648,-1.0053968718732804,0.10033673612203728,0.04124351911552395,0.917950137179123
22.078366646,21.012,125.0851154563892,5650.024309849552,295.8423259772896,14.952604197659111,19.235665226919775,-0.9941161833837603,0.07974594963292725,0.0407805031960221,0.910143865451512
22.314627526000002,21.245999999999995,136.61361833274924,5664.7538560802,295.08450035412005,15.0931842273237,19.126477311972245,-0.9762743030143968,0.059455472986967454,0.04004820090039318,0.9028379873505482
22.517939105000004,21.438000000000002,146.1454064423185,5676.783134913176,294.4738904609579,15.180753304827606,19.057953320166845,-0.9584364060045486,0.046324404851750274,0.03931608355608167,0.8982744023430704
22.720907912999998,21.631,155.77119304291165,5688.840423571601,293.87233839890024,15.243711493196551,19.008666451783583,-0.9377183143522354,0.07811144106945607,0.038465781358269,0.8949930598790988
22.924948628000003,21.828999999999994,165.70001834088285,5701.167768337981,293.2694643071121,15.357680385759306,18.917863895615863,-0.9140759245629757,0.10140212553899647,0.037495495440022425,0.8890128456226359
23.129432674,22.025999999999996,175.6634087904628,5713.364917519857,292.68537343887505,15.506858839893344,18.79700445666477,-0.8884865647796077,0.11221123229118572,0.03644534544896949,0.8811338183134604
23.332416857,22.226,185.8829207094333,5725.662624915323,292.109726043158,15.674301399499747,18.658915440513464,-0.8605848136330209,0.11242043203454284,0.03530034406279744,0.8722273067640337
23.541291788000002,22.415999999999997,195.69462036496256,5737.259758660171,291.58026456182154,15.832831306618374,18.525876208659565,-0.8323578062551199,0.10447962791582033,0.03414204226466152,0.863734849534859
23.751183505,22.61099999999999,205.8647400849779,5749.077399850673,291.05552339383746,15.982969184783673,18.397862676685243,-0.8017486938777018,0.09007127080188501,0.03288604196393973,0.8556388552114685
23.921685122,22.778999999999996,214.7001000412179,5759.195820439787,290.61938104289686,16.095443701427186,18.300734621009262,-0.7741191029991691,0.07394563024404993,0.03175234659711978,0.849541276372716
24.125069389000004,22.971000000000004,224.86807219555456,5770.69866025188,290.13998640862496,16.199018485398796,18.210487924598404,-0.7412055435652393,0.05269289839189865,0.030401892962493363,0.8439048377313553
24.328815433000003,23.158999999999992,234.8807750633883,5781.91244129231,289.6910385648234,16.271927595097228,18.146704482222816,-0.707774522595547,0.03021659795146232,0.029030264485367403,0.83993054337115
24.498348411000002,23.319000000000003,243.43217855744945,5791.42990162057,289.32538396077877,16.309340123227162,18.114208491452874,-0.6784773195299395,0.010635829297252116,0.02782828582290289,0.8378977369272629
24.703864113999998,23.51299999999999,253.81986271314187,5802.953410878258,288.902892844937,16.324560812782536,18.101819122078556,-0.6421173890829589,-0.012848947311851783,0.026336599808432618,0.8370935974422304
24.873565305,23.677999999999997,262.6562188514187,5812.7536677801645,288.56188968780924,16.312041930169936,18.114186341046967,-0.6107350245829039,-0.030079870915705745,0.02504916840567539,0.8378147569864354
25.076015088000005,23.867999999999995,272.81691332647046,5824.052596617483,288.19047392623986,16.271466056704252,18.151839165691555,-0.5740934317990987,-0.05080365845758152,0.023546034598606352,0.8400852551218804
25.279787279000004,24.058999999999997,282.9983328005111,5835.441104671383,287.8402503525238,16.201997637649594,18.215006507676193,-0.5369045305808506,-0.07133446129696067,0.022020503155490482,0.843936716290008
25.483944617999995,24.262,293.7635281308443,5847.595622175623,287.4935522172751,16.096979929112013,18.30900019866947,-0.4971970302950626,-0.09216833624416171,0.02039171237086531,0.8497178614421736
25.687676855000007,24.450999999999993,303.7155375939598,5858.974843264986,287.19466867060214,15.970401506375142,18.420475416547447,-0.46023597598314925,-0.11015420718828009,0.018875628753971748,0.856636295605769
25.930187712999995,24.680999999999997,315.71040010684237,5872.923962335579,286.8617461610795,15.781735782138833,18.583423426628773,-0.4155062567893208,-0.12977335605303608,0.017040944565800832,0.8668615537196598
26.167607786999994,24.90299999999999,327.14211218284396,5886.512748909378,286.572336781333,15.566025299457765,18.765375560222203,-0.3728169262561226,-0.14602008454387064,0.015290004823517155,0.8784363169557389
26.403714746000006,25.12599999999999,338.45782346506223,5900.302537522439,286.3127052695917,15.319965066904153,18.967572880455783,-0.3306136317253064,-0.15958967803078625,0.013559046364159067,0.8914987651783134
26.606899479999996,25.317999999999998,348.0505204961552,5912.297332416887,286.1136897330282,15.087461516043966,19.153614873034297,-0.2949547379163162,-0.16903428901885895,0.012096536873416216,0.9037117061228102
26.813311077999998,25.510999999999996,357.5409863971928,5924.475105405724,285.9360918487358,14.837291557547347,19.348558633754994,-0.25983462534231194,-0.17654892457657984,0.010656150189450618,0.9167193676673616
27.015986827999996,25.711,367.2062413256831,5937.225117342641,285.7756238572593,14.558701053371779,19.55948821064889,-0.2238315797355095,-0.20030097994619642,0.009179574559234956,0.9310506432989821
27.218798424,25.897999999999996,376.0674475248991,5949.277910556625,285.64665694211465,14.262555715282664,19.776813401408727,-0.19134302800729386,-0.21616389168063566,0.007847154446227701,0.9461157705879187
27.388232466999995,26.054000000000002,383.31573252570115,5959.437112737256,285.5541003510691,13.994641195973237,19.96752903199031,-0.1651004319850571,-0.22598201983218416,0.006770903677668085,0.9596030533830935
27.591046688999995,26.256,392.4928016549995,5972.738356117869,285.4537504387362,13.625802058487949,20.221262917602704,-0.1322886243800511,-0.23457086667204968,0.005425249936981117,0.9779635007181579
27.797248118,26.450999999999993,401.11410293200254,5985.739649883044,285.3771662718056,13.251860736248632,20.468445568371777,-0.10187758204159013,-0.23915683721702213,0.004178063439869276,0.9963470814123522
27.970062087000002,26.613,408.0920963280075,5996.660851331771,285.32809394008666,12.932123992097726,20.672049055078496,-0.077543004117895,-0.2406708280316384,0.003180083444809772,1.0118927561543491
28.173513064000005,26.801999999999992,416.0161303501987,6009.538280839375,285.28693097975764,12.552737849528361,20.90468148322181,-0.050205239875217585,-0.24028184709546024,0.0020589441646358354,1.0301439765320815
28.377212357999994,26.992999999999995,423.7841313066894,6022.696608310618,285.26220965788474,12.166122203928396,21.13206954663695,-0.023731734666475005,-0.23800759616641765,0.0009732511827796678,1.0485385994273078
28.581839437,27.195999999999998,431.7753708207702,6036.834610124454,285.2536942513874,11.755338433148903,21.36332053659361,0.003157996398600358,-0.23403661539989656,-0.00012951028318776466,1.0678713573685774
28.818661472000002,27.42,440.2755112585094,6052.610484143668,285.26469017989746,11.305925570209569,21.604502356212787,0.03131998290965417,-0.22834196419784683,-0.0012844477900624545,1.0887887339721865
29.057268983,27.644999999999996,448.4836590943962,6068.630172424713,285.29719960143177,10.84086671723401,21.841509812571662,0.05927838185884121,-0.25834787854986774,-0.0024310377553846455,1.1101954156484288
29.259918943000002,27.834000000000003,455.0993748815198,6082.226170737929,285.3396630777803,10.406065546506875,22.051910578798534,0.08059569794747387,-0.27203179473936984,-0.0033052751768113194,1.1300052317816585
29.429896903,27.99199999999999,460.41787414631824,6093.692958985,285.38493280081775,10.021277600568265,22.22935040664272,0.09711720287580436,-0.27898463240799226,-0.0039828348747255205,1.1473829226926902
29.633245693999996,28.192999999999998,466.89130676235595,6108.412413353867,285.454349810779,9.513422618365777,22.451295525864875,0.11651306664975984,-0.2827634964610031,-0.004778276607513416,1.1701130808414002
29.836936198999993,28.385999999999996,472.7877690930006,6122.682157716946,285.53256849099125,9.015808312730421,22.655613350701284,0.1335671055366324,-0.28200810490249845,-0.00547768049095907,1.1921744858320262
30.076447739000002,28.611999999999995,479.29057079016513,6139.552027424358,285.6372739582271,8.43130143872217,22.8794576369475,0.15175733452260698,-0.27702280797184825,-0.00622368367801189,1.2178442252603512
30.313350536,28.836,485.30949188797945,6156.430669161789,285.75376114284296,7.859233445988143,23.082107100379442,0.16804001943258395,-0.26894091209383353,-0.006891459115494909,1.2427347092270187
30.516489116000002,29.027,490.11215743339926,6170.93605249589,285.86216514896233,7.382437137265708,23.23889934486353,0.1806520237340935,-0.2604677928960173,-0.007408696961847448,1.263319378385305
30.719807589,29.227999999999994,494.84977992270404,6186.301974796577,285.9848611408498,6.896929831224187,23.38747967629143,0.19393115861945162,-0.27395943395368494,-0.00795329701981728,1.284142779808143
30.889414337000005,29.385999999999996,498.34860021307463,6198.447916249361,286.08833090128024,6.485822930875308,23.504717431850867,0.2044880393490472,-0.31146084358323717,-0.008386254446006564,1.3016754463770204
31.130700289000004,29.611999999999995,502.94793293300125,6215.932563196569,286.24517709509445,5.777890728438906,23.688571011247408,0.2168828609374646,-0.35733979172232466,-0.008894591281697355,1.3316734457779982
31.334776269000002,29.804999999999993,506.43544082005906,6230.973165986787,286.3851773336415,5.093486893857311,23.845030072190127,0.22447297947479358,-0.3799093342645457,-0.009205878611011527,1.360467443358345
31.537882306,29.99799999999999,509.4751095673306,6246.110601429062,286.5290675401771,4.3624454284647145,23.98949254632214,0.2297242992932713,-0.39076929237069663,-0.009421247225697238,1.3910301005999803
31.707745892000005,30.167999999999992,511.7651818023524,6259.516169298047,286.6579571653479,3.69951050782951,24.100599547091754,0.23276484538099024,-0.3923972889201771,-0.009545947168031022,1.418598696668595
31.910859744999996,30.364999999999995,513.9528772791646,6275.123115597351,286.8088546715348,2.9276608694947908,24.206468661698604,0.23480367011617187,-0.38683387068062347,-0.009629564257006442,1.4505518391018877
32.113846964000004,30.561999999999998,515.6437936314466,6290.791644224243,286.9605599297559,2.168584781892285,24.286234474583253,0.23560791450698737,-0.3750638768657656,-0.00966254828002839,1.481856066508078
32.35151165400001,30.793999999999997,517.0153637342786,6309.300004011663,287.13938688640854,1.3086644689452878,24.347719318299596,0.2354088041919155,-0.35563362079539096,-0.009654382314132114,1.5172153500133816
32.554107019,30.985,517.6617706524455,6324.565823191041,287.28624299652773,0.6385484484482972,24.374509159429596,0.2345530130660563,-0.33676279222539784,-0.009619284286044213,1.5447212399178245
32.723794915,31.149,517.8892719316327,6337.68351753826,287.41181965744966,0.09441707295140549,24.38269954354624,0.2334617432420289,-0.3194705735653271,-0.009574528722945359,1.5670403587353612
32.925879784,31.339,517.7945439874095,6352.882707345582,287.55650386166207,-0.4980098512112844,24.377811330191932,0.23185542420961885,-0.299049673158688,-0.009508649800383132,1.5913386142758854
33.162852349999994,31.566999999999993,517.2103197345718,6371.112545005661,287.72873670214375,-1.1551973431450275,24.355539166149747,0.22953654308086957,-0.27503397290395887,-0.009413547096554621,1.618307699701755
33.332246608999995,31.735,516.4751063039861,6384.532000687044,287.85451680804897,-1.6032781831534824,24.33016988106689,0.2275711447521739,-0.25824799878162147,-0.009332941607325196,1.6367142168293118
33.535491793999995,31.929999999999993,515.3204280212414,6400.088643306005,287.9991256262103,-2.0868467527413213,24.293495129508308,0.22499116250306853,-0.24017977328237658,-0.009227130712080206,1.6566037434386238
33.774169279999995,32.16199999999999,513.5583918151058,6418.564029380916,288.16896975127423,-2.6162930573078222,24.242223595908012,0.2214989037450312,-0.2210543576616283,-0.009083905458414124,1.6784195220279434
33.976804388999994,32.355999999999995,511.78499731406623,6433.981816331198,288.30889808942203,-3.0249915926765762,24.194653878400707,0.21818700397291768,-0.20723186919452438,-0.008948077294464394,1.6952944908970708
34.146149062000006,32.51599999999999,510.1311994135224,6446.674115526214,288.42268581672477,-3.34191551395079,24.152945108886467,0.21517263954957797,-0.1973753462022145,-0.008824452874205793,1.7084043827759887
34.351048848999994,32.717,507.827259931597,6462.587824125208,288.59333060202266,-3.77676230902181,24.08718354738549,0.3508720789586562,-0.2948990850660612,-0.01438993130880236,1.726441849137077
34.520013288,32.875,505.7815521578495,6475.060088749231,288.80240850863254,-4.262677014681311,24.003761355499375,0.4779973397656146,-0.35701732506111156,-0.01960416091871975,1.7466641324205976
34.723893254000004,33.06399999999999,502.96771018888614,6489.912904715584,289.13697663220637,-4.983471200168392,23.86123846911936,0.621103467220395,-0.41756330030907696,-0.025474514291989176,1.7768052138939476
34.926144311,33.263999999999996,499.47045888190945,6505.520308915564,289.5838567313443,-5.860993167391304,23.656897065523278,0.7612071486215903,-0.4582005596375469,-0.03122255380137522,1.813772403714894
35.128887229,33.459,495.48569205879073,6520.594542737168,290.1045089070779,-6.771195888879704,23.408211180540487,0.8865729308548603,-0.47327150346668434,-0.036366810244810206,1.8524927110986102
35.298985492,33.622,491.7057282179244,6533.065724697416,290.59892931048483,-7.530675962170571,23.171126638861267,0.9834967405787894,-0.47047826106721163,-0.04034463247676051,1.8851468622141352
35.503182181,33.818,486.63062464473535,6547.8876045153265,291.2594111482044,-8.401189889789075,22.865006511485564,1.0913027377957232,-0.4516719366121341,-0.04476982068083375,1.9230262957669508
35.673065513,33.979,482.0538607829573,6559.913147020528,291.85208780663606,-9.058876594097462,22.608395617727005,1.1733108903220286,-0.4262733500265436,-0.04813664968653776,1.9520105913857873
35.878356567,34.181,475.8440490097409,6574.811326645438,292.6545884474097,-9.789919392428802,22.29636661288611,1.2684518728034149,-0.3848419522400344,-0.05204333144900194,1.9846496267920732
36.081781725,34.37400000000001,469.48444951102715,6588.857139075873,293.4783506202912,-10.380363153039598,22.022723383401708,1.3517291109109912,-0.3386520523015595,-0.05546351439704824,2.011376926995644
36.285046627,34.57000000000001,462.671698951625,6602.952221442926,294.3670654046503,-10.871561944297365,21.779489540839705,1.4291368835263585,-0.288351464876083,-0.058643221021528365,2.033892139093343
36.522413402,34.801,454.2776442252013,6619.378759615187,295.47583121781753,-11.317654820881728,21.54544299849611,1.5113012122088287,-0.2282806959606864,-0.062018964704679116,2.0545887434597123
36.69174954499999,34.967,448.05777988593366,6631.082737193624,296.3096912642138,-11.55626597034219,21.414609742414836,1.5641810646082743,-0.18639768004013807,-0.0641919196708109,2.065770253240566
36.894600495000006,35.158,440.75873735656273,6644.470095241439,297.30347958479143,-11.75576882597023,21.30168047439922,1.6185685889212764,-0.14089796694883824,-0.06642714514230014,2.0751908017392102
37.100438866999994,35.349000000000004,433.35298029211003,6657.7961946214955,298.3298158700075,-11.885190972783988,21.22607228131618,1.6659973135910233,-0.09912197380554019,-0.06837664794950146,2.0813504199398407
37.343730928,35.58,424.31299370318135,6673.863571038438,299.6081077550583,-11.962414330086824,21.178818931517306,1.7139801811675286,-0.05433502569313229,-0.07034919311159701,2.08506967810475
37.547652699,35.78099999999999,416.41735769805075,6687.825302709996,300.74768106144455,-11.970419389396428,21.17156877237316,1.747338364122421,-0.020662229453012194,-0.07172068795169409,2.085502867590911
37.752013308,35.974000000000004,408.84316435640335,6701.233825314181,301.8607623677202,-11.934695764146786,21.189684486684595,1.77193802716483,0.007012680158082767,-0.07273216977042099,2.083857549467849
37.955689389,36.16699999999999,401.3010828555891,6714.659262291447,302.9876421481464,-11.864460923169997,21.227619615162272,1.789465975270086,0.030384413146779088,-0.07345292433568858,2.0805755517512354
38.193125644000006,36.39299999999999,392.536995384677,6730.417003564896,304.31877857319216,-11.746865774518529,21.29192567353018,1.8012500071925392,0.05273739328314409,-0.07393750887152423,2.075064087947169
38.396201203000004,36.588999999999984,385.0142721663223,6744.125656384236,305.4782294595214,-11.620426830546739,21.360953494552287,1.8041070033627873,0.0681829057015379,-0.07405499739057202,2.0691401360692288
38.565696380999995,36.75699999999999,378.6343704235637,6755.913042005569,306.47229555816523,-11.497933225220196,21.427367225771317,1.8013665147372266,0.07886367067269555,-0.07394230031782145,2.0634100754232874
38.770572679,36.951999999999984,371.31751176984477,6769.642556758226,307.622767799183,-11.342836459442465,21.510625040126,1.7923524869692968,0.08861433325169818,-0.0735716228988832,2.0561713165785935
38.939923715999996,37.11399999999999,365.3164036818035,6781.0900359037105,308.5731335903974,-11.205942120583892,21.58324786079882,1.7803732669147694,0.09485766792372842,-0.07307902557571008,2.049799095847969
39.142940092,37.307,358.26379652486696,6794.779179035645,309.6958252803549,-11.035896789065625,21.67226307908381,1.7610937204390689,0.10040629168679438,-0.07228626883529042,2.041907090280329
39.346639763,37.504000000000005,351.1776583967829,6808.810613472891,310.82776948504863,-10.856757929845378,21.764566717971665,1.736058418313399,0.10427602826206715,-0.07125690863574885,2.033621589883154
39.516486984,37.67299999999999,345.1915354302053,6820.8952763934885,311.78502505597953,-10.700279797200453,21.843931334071055,1.7105940880614592,0.10639919279006474,-0.07020998591071434,2.0264084558733755
39.718863393999996,37.86200000000001,338.60085677542475,6834.462401197771,312.83774330636993,-10.523584792076475,21.93212291507951,1.6779760313896994,0.10769538046594533,-0.06886906227788198,2.0182905393434423
39.922918102,38.05499999999999,331.98383815229994,6848.372716316174,313.8908311930587,-10.342594378030968,22.020871508658544,1.6405534221020117,0.10807134993533372,-0.06733077676721264,2.0100051413619875
40.091919473000004,38.224000000000004,326.28343854493795,6860.598921177265,314.792838075294,-10.184444262783764,22.097095451534706,1.6046568680292297,0.10777833021387648,-0.06585537090081721,2.002789970169971
40.296428377,38.41799999999999,319.84804450359917,6874.68553083171,315.8028090071001,-10.004039532620888,22.182534710729303,1.5600650105511749,0.10688056480893296,-0.06402277367482233,1.9945872497493182
40.50311138000001,38.61399999999999,313.46240757377683,6888.97191017746,316.79350806040736,-9.823628511910396,22.26635395449881,1.5117077869264623,0.1055139883131059,-0.062035673823444146,1.986413666687879
40.705735387999994,38.80399999999999,307.3826703924332,6902.871843182438,317.7233979174559,-9.6509631259818,22.345043475691796,1.4619845452264417,0.1038715231737435,-0.059992697060432996,1.978618358539336
40.87566557700001,38.974000000000004,302.03320383165834,6915.34948194179,318.5287578546364,-9.498600732612475,22.413228851836443,1.4153489173054106,0.10221861970080363,-0.058076808901164,1.9717617036514399
41.114350071000004,39.2,295.0526731697922,6931.9955610009165,319.55821253523993,-9.299407975671047,22.500585408299546,1.3506011942615395,0.09985387331016124,-0.055417190643686526,1.962828526550238
41.351197211,39.42299999999999,288.3085283480845,6948.483083615042,320.5260588317181,-9.106795575966537,22.583110972003233,1.284067429631497,0.09742607134670468,-0.05268461634720231,1.95422356049347
41.519612811,39.58,283.64445670343207,6960.126625894118,321.1779076384,-8.973570157287522,22.639060341632298,1.2358970346546772,0.09570345727234049,-0.050706481514017215,1.9482906159947204
41.722198026,39.778000000000006,277.8592370707822,6974.851188946908,321.96440169732927,-8.808310250971681,22.70716114027821,1.173865184833678,0.09354997272051924,-0.04815941236895667,1.9409524283271344
41.926757804000005,39.969999999999985,272.3512300782835,6989.171187315819,322.68821459503243,-8.651011021974282,22.770630517190913,1.1125871414641,0.09150836962722177,-0.045643602043582504,1.9339894948110188
42.130294081,40.16199999999999,266.94158651316116,7003.530534344775,323.3732019871838,-8.496515467704546,22.83167049662589,1.0504776250153658,0.08953181274907,-0.04309394993394097,1.9271711761592922
42.332038201,40.35000000000001,261.7384544288586,7017.627473324846,324.0057865958876,-8.34788110767594,22.889168133017144,0.9891001924363043,0.08767086636368282,-0.04057462593957382,1.9206305258901881
42.53970807499999,40.54699999999998,256.38355599241106,7032.436578591089,324.6280778720016,-8.194790802640357,22.9471188414795,0.9244439280321064,0.08580702293694378,-0.0379209959697994,1.913913069298062
42.744657192000005,40.74900000000001,250.99458829452166,7047.659743294937,325.22279840091755,-8.040523832022753,23.0041995242387,0.8580423974302691,0.08398997192559432,-0.03519601444361971,1.907163515593523
42.948348912,40.938,246.0447452647147,7061.937048138596,325.73925917588576,-7.898625923725607,23.05553006276573,0.7960515322847456,0.08237611927443152,-0.03265227386924354,1.90097218727968
43.152555648,41.130999999999986,241.08023616537344,7076.548814425286,326.2271144338806,-7.755990741173298,23.105986799153797,0.7331013983497707,0.08081049450781923,-0.03006938672100991,1.8947648972180398
43.356156169,41.319,236.33076650646373,7090.812333671845,326.6640768602305,-7.619178541277909,23.153305425274116,0.6723259925067072,0.0793612027563461,-0.027575920709965118,1.8888260061029416
43.56315927200001,41.51100000000001,231.5667695981992,7105.40898568274,327.0718403250663,-7.481515707686305,23.199850489199612,0.6109959038532623,0.07795101683680124,-0.025059871205742466,1.8828647072079383
43.799886524,41.742000000000004,225.94898556528943,7123.008680055455,327.51168678107575,-7.318519567150728,23.25357613543239,0.538446152348622,0.07633906172951502,-0.02208374180966019,1.8758247657630673
44.003076226000005,41.931,221.44411714383526,7137.438290593947,327.8308982169394,-7.187248838289806,23.29575535118564,0.48030485559166214,0.07508134862797378,-0.019698817211574786,1.8701691827719316
44.172852378,42.08999999999999,217.717005570576,7149.597472384319,328.07173949043056,-7.07820520457501,23.330056537192654,0.43235292692347144,0.0740606573997342,-0.0177319399019768,1.8654805339681544
44.342236621,42.257999999999996,213.840198304475,7162.464035951425,328.29935777156334,-6.964309273826549,23.36517444826854,0.38272096959863305,0.07301338830130011,-0.01569622385181788,1.8605920421400135
44.548206961000005,42.45299999999999,209.41880760956565,7177.422421370383,328.5295348157292,-6.8338228618354036,23.404522088765432,0.32659897373495045,0.07183385519745752,-0.013394388771016839,1.8550022227591927
44.756876039999995,42.647000000000006,205.10249929778223,7192.32871244469,328.72332150820546,-6.705780514209028,23.44222103558001,0.27246396892650643,0.07069225182221171,-0.011174117203346066,1.8495279176951658
44.993600932999996,42.86999999999999,200.24107925590178,7209.492425823685,328.904127163569,-6.56075034845085,23.48384252102086,0.21248838390191152,0.06941182044524415,-0.00871436625523603,1.8433398016714395
45.162826966,43.033,196.75438111175217,7222.057079438746,329.0089331817936,-6.456167633637595,23.513153146828778,0.17024858367979148,0.06849376585661918,-0.0069820373717264655,1.838885430475861
45.367045215999994,43.23299999999999,192.55209561918232,7237.49490686994,329.1071964178367,-6.329471206976524,23.547882408017497,0.12035089668772964,0.06738286330354205,-0.004935671598876388,1.8334977854611003
45.570858797,43.42999999999999,188.4937061632475,7252.723122716325,329.1725303494143,-6.206448551761152,23.58079866009512,0.07339568445447128,0.06630224354656152,-0.003009999376835115,1.8282750494649311
45.775071588,43.628,184.4943595111626,7268.049748634302,329.2082087417433,-6.084549630868968,23.612642850863384,0.02844973042197546,0.06522655346749572,-0.0011667390464813402,1.8231081320417846
45.977367711,43.82000000000001,180.69155687225708,7282.9314359318405,329.21543403922726,-5.968041582785516,23.64237233008611,-0.012894643057655109,0.06419105573411055,0.0005288146775860357,1.8181769698417176
46.214248018999996,44.051,176.2127352813121,7300.860314707914,329.1905520901302,-5.8300516360611425,23.67670566470632,-0.059689092991253564,0.06295286496030347,0.002447880899007411,1.8123453808198542
46.382280394999995,44.217,173.05837043843056,7313.760103897215,329.151282237168,-5.732374564739542,23.70044313542707,-0.09128545345644418,0.06206715975344144,0.003743669752423614,1.8082229823569393
46.585097008000005,44.407,169.51306421356944,7328.540617962945,329.085663686392,-5.622129411021821,23.726681488300958,-0.12530937131054987,0.061056949349654756,0.005139021528555883,1.8035754405267135
46.787605811999995,44.598,166.01791003092933,7343.415161282199,328.9989127235236,-5.5129563538215,23.752095664980914,-0.15722519693840173,0.06004505503620556,0.006447927576681674,1.798978412013328
46.991445501,44.79099999999998,162.55517030650842,7358.461386814492,328.8915467918764,-5.404314826981351,23.776833481340088,-0.18715461947958614,0.05902604042860596,0.007675378868985961,1.7944088151185582
47.16134855,44.957999999999984,159.6139816669275,7371.493105775288,328.78382555864414,-5.31170134713487,23.797493738852523,-0.21113158981609764,0.058147389381275255,0.00865871926591261,1.790517206422667
47.364424412000005,45.14899999999999,156.31213698730807,7386.411377347355,328.6449865517904,-5.207355383929834,23.82030699762298,-0.2363904493608515,0.05714648952795748,0.009694641418930887,1.786136668240112
47.601072869999996,45.372,152.53923548518569,7403.8468338146495,328.4636852824416,-5.087648384540075,23.84588275178028,-0.26299373325677894,0.05598377984843013,0.010785712691121559,1.7811163703767088
47.804188928,45.562,149.3932839663496,7418.716692577344,328.29451690845815,-4.987476167483622,23.86680389833272,-0.28321221267838786,0.05499932278770262,0.011614934710174591,1.77691936159565
47.974154509,45.727999999999994,146.69535521235858,7431.718755828617,328.1368390338894,-4.901299186948717,23.884456572399205,-0.29909283055533087,0.05414452543272179,0.012266253264290984,1.7733115643497237
48.177812333000006,45.92,143.63312523624947,7446.7691940157965,327.9462938360288,-4.803262395151323,23.904291697829077,-0.30490127668134437,0.05316043643722979,0.012504479201138825,1.7692092456431472
48.34758988,46.07799999999999,141.15925887994484,7459.163729377011,327.78780672601465,-4.723878323210015,23.920080531866933,-0.30688261046297854,0.052357528084095446,0.012585741109081259,1.7658896351658169
48.516621926,46.245999999999995,138.57347077847652,7472.351552167706,327.6183507796818,-4.640708543216804,23.936339370750986,-0.30811969305616316,0.05151091629608694,0.012636478545566486,1.762413959330021
48.65221821,46.36999999999999,136.6943664034658,7482.091149711272,327.49293429313485,-4.580172675406449,23.94799222670455,-0.3084518978007227,0.050891318691741655,0.012650103536810089,1.7598855731114498
48.85597374300001,46.56099999999999,133.84771192324203,7497.102405683006,327.2996848100959,-4.488288584461425,23.965387939172608,-0.3080625060778866,0.0499463623415661,0.012634133141337678,1.7560501144304792
49.093261134,46.79099999999998,130.49548200178856,7515.192982941136,327.0677145230078,-4.379808361832097,23.985474154870445,-0.30620953571895937,0.048824275918826036,0.012558135908170866,1.7515253038639282
49.262132308000005,46.957999999999984,128.11233614795705,7528.337661004414,326.9003880791159,-4.302530767466834,23.999485376015556,-0.30395177498155174,0.04802064907748549,0.01246553678886201,1.7483041879507455
49.43121424,47.116,125.89652665184676,7540.780952553739,326.7433624847423,-4.230565627556881,24.0123110915399,-0.30114201656650613,0.04726948815488575,0.012350298345092874,1.7453061252606918
49.669012249999994,47.344999999999985,122.75056143757777,7558.827431874113,326.5186537644072,-4.128183999181664,24.03018814425083,-0.29599091355161794,0.04619674868666372,0.012139033232167425,1.741043554064323
49.915059263,47.57899999999999,119.61451107979067,7577.2815266958705,326.29343447550013,-4.025893791241748,24.047615894655088,-0.2894908718278577,0.045120387707350745,0.011872444093117773,1.736787822899466
50.118641233999995,47.77999999999999,116.98287497287737,7593.143614693836,326.1042305327807,-3.939890476298703,24.06193344773913,-0.2829801962039256,0.044212132629453345,0.011605419661146157,1.7332119960264931
50.289196305999994,47.93900000000001,114.94117147289359,7605.697855450472,325.9577438386337,-3.8730724148783278,24.072845522778987,-0.27726252113904654,0.043504572541696256,0.011370919496233088,1.7304352701236392
50.49104951300001,48.13000000000001,112.53430902652353,7620.786151545684,325.7858636696304,-3.7941910813507436,24.08548908857562,-0.2697876987614084,0.04266747006434384,0.011064354030715777,1.7271588093070978
50.727334572000004,48.35199999999999,109.79840050922972,7638.333115796215,325.59219520866435,-3.7043724035580543,24.099570623751397,-0.26033986762588524,0.041711842802430316,0.010676870885907195,1.7234300863905547
50.934953753,48.54699999999998,107.44870123722193,7653.754298245449,325.4279244283116,-3.627103123764402,24.11141556323824,-0.25143282703394254,0.040887941833393254,0.010311568606650199,1.7202240425368374
51.137890168,48.748000000000005,105.07791235757054,7669.657761627729,325.26469389300036,-3.5490114081800574,24.123132964110983,-0.24172302440853793,0.040053479648059574,0.009913344408001476,1.7169854469475103
51.340763292999995,48.938,102.88401150431396,7684.697901213074,325.11642468022916,-3.476657407411705,24.133761428469793,-0.23209606910131358,0.03927847193348928,0.009518519542841821,1.7139861895617168
51.578299255999994,49.163,100.34372004449993,7702.516995752897,324.94873882152575,-3.392748686089959,24.145811591102543,-0.22021571268477386,0.038377958709766416,0.009031279250921339,1.7105095987425574
51.815256829000006,49.386999999999986,97.87567349083041,7720.265559504595,324.79065133947876,-3.311098528705427,24.15725233073433,-0.20794798035935919,0.03749950293487853,0.008528154043125834,1.7071282443988742
52.019262960000006,49.581,95.7862070356942,7735.643753473449,324.66109945303106,-3.241872586882582,24.166731193726978,-0.1970318265249239,0.03675314536216605,0.008080461696596163,1.7042626661977684
52.188536122,49.74900000000001,94.01203747070451,7748.965744321074,324.5545528405152,-3.183013920532098,24.174630474125145,-0.18740283162225926,0.03611726342375165,0.007685559545741637,1.7018271270815803
52.391202392,49.93999999999998,92.03423380699077,7764.116805612464,324.4399318453876,-3.1173357666931,24.183270938396358,-0.17629644894645025,0.03540627354968394,0.007230068586580924,1.6991103501480795
52.595313678,50.130999999999986,90.09724882251449,7779.2731909422155,324.3323020828765,-3.0529364067208076,24.191564396380606,-0.16506772061824618,0.03470775207812222,0.006769561554968878,1.6964474256205977
52.764452945,50.28699999999999,88.54499830060155,7791.656036115113,324.24963854743675,-3.0012648264382276,24.198090424337042,-0.15583727825492763,0.03414629807441379,0.006391008313907404,1.6943114689933672
52.96908383,50.479,86.67049704794375,7806.900966096341,324.15438241980837,-2.938812754111297,24.205825184493833,-0.14443937862731016,0.03346634424958266,0.005923565901487251,1.6917306617957664
53.207674087,50.71499999999999,84.41964535935669,7825.646049479416,324.04710577280974,-2.8637253099088906,24.214902868589945,-0.1304316458637832,0.03264701637887012,0.005349092661571065,1.688628817517016
53.410824055999996,50.903000000000006,82.66802524055262,7840.583534695684,323.96943402184155,-2.8052270135303523,24.22180669910229,-0.11932155708042058,0.03200706846818037,0.004893456399167848,1.6862130926101715
53.58103183,51.05899999999998,81.24174997043349,7852.981654773616,323.9101720016706,-2.7575546279210648,24.22732367674084,-0.11016322691869601,0.031484474687052656,0.00451786454920553,1.6842449546325715
53.78432226699999,51.260000000000005,79.43958479627632,7868.9602327495695,323.8406689155656,-2.697244611295319,24.234162464211515,-0.09847418515473974,0.030822415440749432,0.0040384867218426065,1.6817557375386611
53.953922375999994,51.41699999999999,78.0595155831691,7881.444116809897,323.7917428168998,-2.6510271171394626,24.239296783412485,-0.08945764328553266,0.030313921555249583,0.0036687110918463446,1.6798486612925443
54.160428079,51.61200000000001,76.37823950310388,7896.953193057459,323.7373889785626,-2.594670529217326,24.245432365041285,-0.07842370254713997,0.02969273464411446,0.003216200989189646,1.6775237787973978
54.363667296,51.80200000000001,74.77452392567874,7912.068317129281,323.6911786104543,-2.540859863847215,24.251162443587937,-0.06787699979990255,0.02909834614878918,0.002783673493982023,1.6753044899553204
54.567127789,51.993999999999986,73.1876781343652,7927.346108998102,323.6510933762691,-2.487575498414646,24.256712951286673,-0.05745379596046026,0.02850855551262413,0.0023562112848080096,1.6731074402476813
54.770988852,52.193,71.57804098844072,7943.1845217284745,323.61639297038926,-2.4334840771118094,24.262221850443837,-0.04692681952129272,0.027908635255428648,0.0019244937317281262,1.6708776438433635
54.940363753,52.356999999999985,70.2778797216751,7956.239947742133,323.59291519833937,-2.3897525183022172,24.26658315927317,-0.03847954585151748,0.027422714581243898,0.0015780662860492858,1.6690752911721167
55.144039985999996,52.544,68.82399016677465,7971.129146573478,323.5716501742011,-2.340823482731408,24.27136488243326,-0.029123299608423713,0.026878016275312788,0.0011943615822756748,1.667059125276147
55.348247916000005,52.74300000000001,67.30934773748474,7986.9769524275,323.5552104187233,-2.2898026238878586,24.276241053252196,-0.019500464861098625,0.026309169107310505,0.0007997241223103164,1.664957198692126
55.518350873,52.89899999999999,66.14519812265954,7999.4025580894395,323.5466752831955,-2.25056969161714,24.27991439021657,-0.012217488673148764,0.025870965816275477,0.0005010455647695099,1.6633411990353693
55.756069483999994,53.123000000000005,64.50836594690642,8017.247676369786,323.5408203138875,-2.195364933806183,24.28497115691444,-0.002171485453176505,0.025253283841059803,8.90539303590148e-05,1.6610677455152127
55.995275042,53.355000000000004,62.855321948502024,8035.733945649209,323.542357265149,-2.139563363398272,24.28994988276851,0.007701084275404175,0.024627710132541857,-0.000315825095474496,1.658770204071236
56.199930306,53.54600000000001,61.52608492595052,8050.956042339471,323.5491605622282,-2.094666423781718,24.293859128725977,0.01540151941725266,0.024123374989420673,-0.0006316238282709898,1.6569219911937327
56.402513303999996,53.747,60.15726927931594,8066.977695472271,323.56140211845207,-2.0483966099983237,24.29779813923045,0.023084918412200065,0.023602896568850108,-0.0009467239636315093,1.6550175784650634
56.605282278000004,53.937,58.887825029997764,8082.124533029133,323.5778645718091,-2.0162776527489124,24.30049493401371,0.005137032284992855,0.07125055323083633,-0.00021067612499128991,1.653695728803462
56.77557555200001,54.094999999999985,57.847697813227036,8094.721341770012,323.5586202987894,-1.9211528080700206,24.30796446150595,-0.10719900330627885,0.16750307118324145,0.004396295021887986,1.6497825993289583
56.979456779,54.284000000000006,56.71757702435214,8109.798475907463,323.4615886957018,-1.60410070641098,24.330046191383683,-0.23488135074831565,0.27499894905016103,0.009632746761345226,1.6367482370029474
57.186763801,54.479,55.81437650566048,8125.371101835396,323.2801025570229,-1.0742382213710635,24.35764656358835,-0.3612784620761425,0.35725632532263063,0.014816748671889823,1.6149868201164916
57.390353851,54.67899999999999,55.287580494723684,8141.360112762497,323.01128053080544,-0.3614619407749564,24.376480523955518,-0.4857967997957294,0.4203809059289422,0.01992408404334926,1.5857398949949288
57.559688161,54.83800000000001,55.22727868376611,8154.07730371233,322.7397714326517,0.3058702345392387,24.37516204702085,-0.5808395485860223,0.45882697485893287,0.02382276981761119,1.5583648965089212
57.76369725399999,55.03099999999999,55.64588369566533,8169.506674779612,322.34455719445737,1.2105731050739237,24.344120474427722,-0.6912069761854086,0.49510222647371427,0.0283505376470666,1.5212260728307372
58.001217942,55.265,56.95558647954341,8188.171702738264,321.7738954389595,2.4154876792999884,24.250304616036374,-0.8170687245909656,0.5274888095904599,0.03351466708701088,1.471633660081179
58.204106608000004,55.455,58.721506141633036,8203.259665073887,321.24095726334116,3.4591385075949965,24.120150710595503,-0.9122206331506804,0.5466962329140418,0.03741935260472765,1.4284711205551168
58.373641088,55.612999999999985,60.6931720256298,8215.736040445647,320.7535529327225,4.358419492708463,23.971040340088116,-0.9863369300415813,0.5591004070165629,0.04046120620093005,1.3910572248953872
