Real_time_s,Simulation_time_s,x_ft,y_ft,alt_ft,vx_fps,vy_fps,vz_fps,roll_rad,pitch_rad,yaw_rad,adsb_x_ft,adsb_y_ft,adsb_alt_ft
0.0,0.0,3.80849231565604e-17,9800.0,300.0,1.7483827159451285e-14,-79.90018711022753,-3.995009355512359,-5.210671580281461e-17,0.049958395721955026,-1.5706800000000003,476064.65832881577,-103374.66929322077,3918066.95709857
0.04097797299999684,0.0309999999999917,5.800835651045387e-16,9797.523094199605,299.87615470997906,7.03485678782539e-08,-79.90018640864973,-3.9950093204334696,-5.210671580281461e-17,0.049958395721955026,-1.5706800000000003,476064.65832881577,-103374.66929322077,3918066.95709857
0.07560785599999775,0.06499999999999773,1.391870722418483e-06,9794.806501626532,299.7403573628283,0.00010425036462668533,-79.89933523804025,-4.011982797075246,2.1962864714614587e-05,0.05017083078879162,-1.5706786954047276,476064.65832881577,-103374.66929322077,3918066.95709857
0.10942771799999917,0.09899999999998954,5.214124538581782e-06,9792.089937711991,299.60398226292403,0.0001252032051637416,-79.89849754765783,-4.028617665183413,2.6355416140309123e-05,0.05037903012786404,-1.5706784336474837,476064.65832881577,-103374.66929322077,3918066.95709857
0.1428585620000007,0.1319999999999908,1.702774014127744e-05,9786.736790605772,299.3335935102758,0.00018375306071757527,-79.89691366043083,-4.059883574057481,4.925139358430299e-05,0.05077035516720549,-1.5706777006670887,476064.65832881577,-103374.66929322077,3918066.95709857
0.21049027899999828,0.19999999999998863,3.865321884574384e-05,9778.667313770955,298.9221339969533,0.0001737222886786731,-79.8946924942997,-4.103327659147819,8.105265310704092e-05,0.051314115562361234,-1.570677825912239,476064.65832881577,-103374.66929322077,3918066.95709857
0.3460281309999971,0.333999999999989,5.427857599404459e-05,9770.598026176167,298.5063690096785,3.62599688726292e-05,-79.89424636743982,-4.112023017826874,0.00010494759498836576,0.051422950514713496,-1.5706795464816636,-0.5402659094829508,9797.566820205002,284.4558520814236
0.4477126649999974,0.43599999999999284,4.6845715961593136e-05,9759.73216111365,297.9506780054793,-0.00029510170942373805,-79.89795050554505,-4.039470706491303,0.00013269766185440744,0.050514865370597344,-1.5706836937281348,-0.5403419249449058,9792.772261762913,284.70703184239414
0.5525129219999982,0.5309999999999917,1.128389129460006e-05,9752.221632531344,297.57245342430923,-0.0006152917124637195,-79.90051269938729,-3.9885155243772608,0.00014775839624813904,0.049877120869330875,-1.5706877009095308,-0.5404999698316864,9787.577712242231,284.98821689643216
0.688433431,0.6659999999999968,-9.672861192229949e-05,9741.434817211333,297.0376010049392,-0.0011748917395759688,-79.90418196965182,-3.9143817877368505,0.00016385233629554155,0.0489493147784639,-1.5706947038876145,-0.5407212147006906,9782.782347965209,285.255989928753
0.8238717230000034,0.8009999999999877,-0.00023120573700021209,9733.28445059012,296.64014745054646,-0.0016612225743580602,-79.90694143702677,-3.857689251776225,0.00017211282703324168,0.048239819135325504,-1.5707007895546838,-0.5427445650227634,9776.681795674778,285.2836744887134
0.9260166290000029,0.9029999999999916,-0.0004887246320397325,9722.496767738776,296.1230412496151,-0.0023664580978158254,-79.91056835186627,-3.7818812753801563,0.0001783490734008146,0.047291135576525443,-1.5707096138699175,-0.5431860575628202,9772.258530461586,285.5447909510781
1.0643309250000001,1.0309999999999917,-0.0007261479102023846,9714.985052619675,295.7690986094706,-0.0028867204849715553,-79.91307247383705,-3.72864433728905,0.00017973536764255335,0.04662493815726584,-1.570716123264877,-0.5437479398517969,9767.432786496802,285.8376169855024
1.1656039410000005,1.1319999999999908,-0.001153216817106121,9704.196544287908,295.26947236323,-0.0036557998875400015,-79.91662918657644,-3.65168856087951,0.00017815902524080651,0.045661964219179715,-1.5707257451374375,-0.5443349866787319,9763.008864944244,286.11324879668007
1.2677159750000015,1.2329999999999899,-0.0015452071673848894,9696.04490975046,294.8988727312137,-0.004243035452445189,-79.9192814594898,-3.5932274855017923,0.00017443925845646784,0.044930449228204106,-1.5707330914500774,-0.5600640828361578,9756.949064695145,285.87778801704513
1.3691373890000023,1.3349999999999937,-0.0019925459203878684,9687.972927065164,294.53779839355246,-0.004820728489800515,-79.92187437334172,-3.5351397252223213,0.00016886682911997314,0.044203629335547036,-1.5707403179265933,-0.5614879344427212,9752.408347944795,286.14289577943066
1.5047392040000034,1.4699999999999989,-0.002503242403965375,9679.8207594281,294.1790987073714,-0.005392851274262845,-79.92445603556264,-3.4763381970332947,0.00016161800245811995,0.043467902316562224,-1.570747474252805,-0.5631139066413673,9747.454497659543,286.4401343531217
1.6091746009999994,1.5649999999999977,-0.0032264218209347825,9669.590215093649,293.7375208281918,-0.006084218015676568,-79.92763900546758,-3.4024453978791,0.00015055582569400316,0.042543386021121544,-1.5707561214541945,-0.5646663631182877,9742.913165482607,286.71987249858944
1.710299980000002,1.6659999999999968,-0.0038583174521402805,9661.517392142487,293.3957241620356,-0.006603308223226456,-79.93010235525045,-3.3441340100928096,0.00014064796332355052,0.04181384377658221,-1.5707626133962211,-0.5662728437037655,9738.371555776683,287.00640504962934
1.8114820629999997,1.766999999999996,-0.004548760317669288,9653.364389642473,293.05650958820763,-0.007098548791242839,-79.93254445702095,-3.2853027002856297,0.00012976955851985356,0.04107781933441975,-1.570768806594078,-0.5608795602963845,9729.172149099153,286.5900158866961
1.9471065359999997,1.9019999999999868,-0.005281331085147243,9645.291074297553,292.7265398612163,-0.007556487214899411,-79.93491531149067,-3.2271617468396627,0.00011837101236653142,0.040350453684110235,-1.570774532843751,-0.5621719125112992,9724.360127131657,286.8489056173641
2.0488122229999988,2.003,-0.006282547046589748,9634.979265213717,292.3136692510895,-0.00808912596593082,-79.93787183882922,-3.153159066984929,0.00010319100546811425,0.03942468258726285,-1.5707811925009492,-0.5636282482792904,9719.110349159571,287.1391112259696
2.1546720340000007,2.0989999999999895,-0.007120973140578753,9626.825475942918,291.99391708532806,-0.008467872735911614,-79.94015077075434,-3.09490543293632,9.093760815376727e-05,0.03869595547196653,-1.5707859274932043,-0.5648750617874422,9714.735295878418,287.3872707134122
2.290507574000003,2.2339999999999947,-0.007988064275429392,9618.751398305487,291.6831551558967,-0.008803553416676727,-79.94235450581502,-3.037511819735429,7.874769993777294e-05,0.03797800697568858,-1.570790123607547,-0.6835547812192276,9701.64443466289,285.7100317252281
2.391733731000002,2.333999999999989,-0.00918818443644187,9608.038915957632,291.2797882489716,-0.009187455926129023,-79.94519502072161,-2.961893819745056,6.273960547574697e-05,0.03703211578064613,-1.570794921768746,-0.6926710337533558,9695.860068454214,285.8955315684673
2.5268481800000018,2.469999999999999,-0.010134352922186014,9599.884386571943,290.9795094357913,-0.009432970634140328,-79.94729233642869,-2.904796428449055,5.083997947198417e-05,0.0363179174365492,4.712387317464458,-0.7018117382210909,9690.075415813702,286.0891452735482
2.6315346270000006,2.5649999999999977,-0.011364545932272907,9589.571000998125,290.60811073646903,-0.00968482660926911,-79.9498626610023,-2.833257441185835,3.6346948796144286e-05,0.0354231035974134,4.712384171076892,-0.7102056689758998,9684.77258940982,286.27323956984714
2.733279510999999,2.665999999999997,-0.012338888857138474,9581.575903928879,290.3265128996839,-0.00983770150360729,-79.95179175401424,-2.778353650174769,2.563144272133653e-05,0.03473638313008227,4.71238226190434,-0.7186100008883591,9679.469540998149,286.46391452890913
2.834787054000003,2.765999999999991,-0.013317408043032582,9573.660569701837,290.0531319026425,-0.009953474128017524,-79.95364647276432,-2.724524326700427,1.5558592905807234e-05,0.03406311772727417,4.712380816754278,-0.6264650423780941,9660.857929572938,283.270460892502
2.9698877370000005,2.9009999999999962,-0.014687831891949834,9562.706729869726,289.6835211763812,-0.010058390981619756,-79.95612229169814,-2.650962922739332,2.5852372926130033e-06,0.03314308013561553,4.712379508417353,-0.6301827423310293,9653.730247326264,283.2996753359058
3.108784462999999,3.0309999999999917,-0.01565536188382845,9555.030845580046,289.4305557594234,-0.010094826720754669,-79.95779376378465,-2.600128462575347,-5.756922136869832e-06,0.03250730643534341,4.71237905535196,-0.633326102697873,9647.698911176314,283.3313937486046
3.2102099969999998,3.1329999999999956,-0.017029894692680476,9544.156408247844,289.0804356104707,-0.010100549183754505,-79.96007372157275,-2.5291361258672,-1.652759258803903e-05,0.03161944535654515,4.712378987372361,-0.6364636171939398,9641.667385881025,283.3692686097771
3.3120503359999987,3.2349999999999994,-0.01804986275482233,9536.0803417124,288.82664492158636,-0.010071752381188055,-79.96169988030358,-2.4772599613972193,-2.3679481784878853e-05,0.03097067529185157,4.712379350063971,-0.6292003607309481,9617.254392136561,279.90846028652703
3.4134692760000007,3.3359999999999985,-0.01906604373999944,9528.004113423138,288.5780700053081,-0.010017516420104159,-79.96326938181426,-2.426140015080418,-3.010130451476606e-05,0.030331375381371723,4.712380030787578,-0.6318107543968081,9610.324286321444,279.78648528087746
3.5486030590000013,3.469999999999999,-0.020075945013101757,9519.927729116955,288.3346334444745,-0.00994024492740569,-79.96478271695254,-2.3758086363359188,-3.580030603924973e-05,0.029701949351667183,4.712380999467886,-0.6346423371548585,9602.763975868116,279.6602154209777
3.653573483999999,3.5649999999999977,-0.02134317799288806,9509.692094858174,288.0334182367316,-0.00981240849724645,-79.96662023381633,-2.3132294025117726,-4.1978204091237756e-05,0.028919372457160964,4.712382600935186,-0.6376885445432265,9594.573427582583,279.53099923597665
3.788000093000001,3.6979999999999933,-0.022321092099709124,9501.695345773072,287.8036077499437,-0.0096930547669441,-79.9679950092441,-2.2652770488572327,-4.60522513894426e-05,0.02831972228985082,4.712384095553929,-0.6402465960026716,9587.642798084451,279.4277338055435
3.8894113699999977,3.7989999999999924,-0.02362126481126272,9490.899521661499,287.5008982245464,-0.009508667945975059,-79.969767482044,-2.201912339611326,-5.0514375143471407e-05,0.02752735433730239,4.7123864039356365,-0.23049279922563912,9558.115721603926,273.4923785879313
4.024549448000002,3.9339999999999975,-0.024577074598228936,9482.822492603682,287.27998293035716,-0.00935606151163213,-79.97103182761184,-2.1555760010781158,-5.3114833579896034e-05,0.02694793508397182,4.712388314079015,-0.2152962905870568,9550.24152101105,273.1494758264002
4.1302515300000024,4.030999999999992,-0.025793026913225714,9472.346159691428,287.00038474204393,-0.009143224439155793,-79.97259442422941,-2.0968988408900904,-5.561513698154251e-05,0.026214211271022934,-1.5707943294496145,-0.1986941264111013,9541.65133578769,272.78126119267216
4.266309933000002,4.166999999999987,-0.026693091071445536,9464.428798333023,286.79414236112746,-0.008973875404110862,-79.97371927996325,-2.0536221619070236,-5.689352481696e-05,0.025673070633247832,-1.5707922102897176,-0.18345229865600676,9533.776867379183,272.4490781780603
4.368151167000001,4.266999999999996,-0.02791066045620995,9453.472271856112,286.5156992783358,-0.008730919336206601,-79.97519788851544,-1.9953060952963069,-5.788475985131746e-05,0.02494388628117426,-1.5707891703310013,-0.416986149749929,9503.655416374744,270.9936595423041
4.503563839000002,4.402999999999992,-0.029068891062811738,9442.755478616546,286.2510164682839,-0.008487325090972858,-79.97655907459463,-1.9400758261628286,-5.805665081878675e-05,0.024253299016699217,-1.5707861226597766,-0.4108566443912057,9493.360783520351,270.56319243961406
4.642032700999998,4.530999999999992,-0.030161073875335363,9432.358420147866,286.00124526735806,-0.008248837794232734,-79.97780132783011,-1.888266403702878,-5.756707639100156e-05,0.023605495813126945,-1.57078313909915,-0.4056464024710328,9484.649827405101,270.20389771844407
4.743206991000001,4.631999999999991,-0.03098014828909628,9424.360576181793,285.81364142762067,-0.00806579190132139,-79.97870688209768,-1.8495843666886653,-5.6808442408759674e-05,0.023121838420822834,-1.570780849252503,-0.40041425030255345,9475.938771343084,269.8490906972493
4.844495960000003,4.73299999999999,-0.031788887820645734,9416.282664353088,285.62804785242906,-0.007882589412761602,-79.97957826707339,-1.8115825953736777,-5.5754225199719016e-05,0.022646691961944364,-1.5707785575415563,0.07811802731005164,9450.73772659595,268.79798653369994
4.979715521999999,4.867999999999995,-0.0328488382131746,9405.40534171832,285.3841217633541,-0.007640339561323245,-79.9806855427038,-1.7621121223282832,-5.394347612095337e-05,0.022028156892262726,-1.5707755273268118,0.11008667932996169,9437.955039746575,268.2879401462124
5.1151381319999984,5.003,-0.03356964600864222,9397.807124479597,285.2177168876848,-0.0074752784001713484,-79.9814151234002,-1.7287483169050042,-5.245450172335521e-05,0.02161101012297676,-1.5707734627139578,0.13355359894219285,9428.580972695385,267.91857388728465
5.223835686999998,5.0989999999999895,-0.03456747711295135,9387.009543697804,284.98658275233606,-0.007247930106576479,-79.98239227593136,-1.683023034760198,-5.009316956464278e-05,0.021039314292169653,-1.5707706190953203,0.16558449071561335,9415.798030042373,267.42104173628655
5.393627166999998,5.268000000000001,-0.03553505205339788,9376.21183604767,284.76152654062093,-0.007030208772660752,-79.9833027708104,-1.6392711426174034,-4.751533460711152e-05,0.020492297905138464,-1.570767895980718,0.6529596282108335,9393.689973670002,267.54970739252065
5.494774053999997,5.369,-0.03648061393296649,9365.334026239592,284.54067115069495,-0.0068217691059780745,-79.98415526087517,-1.5972216156271721,-4.477393178500144e-05,0.019966571471499495,-1.57076528903302,0.7006841526142689,9382.06444310545,267.1488180545146
5.630304279000001,5.503999999999991,-0.037338298543071524,9355.175970389333,284.33954696116297,-0.0066379070812115385,-79.98489461645279,-1.5598419305256042,-4.214199318191633e-05,0.019499234613956393,-1.570762989535734,0.7447573949314925,9371.333107297492,266.78286096375695
5.734215059999997,5.597999999999999,-0.038004118393167356,9347.097452472168,284.1829154553368,-0.0064990538613201344,-79.98544612809981,-1.5313624214620518,-4.00348259350766e-05,0.019143174469322406,-1.5707612529824715,0.7851732323292087,9361.4959905674,266.45061004468187
5.835615273000002,5.698999999999998,-0.03864972274734397,9339.098866941838,284.0306369871808,-0.0063683255230900645,-79.98596092475637,-1.5042938567351642,-3.795851879247591e-05,0.01880475667018752,-1.5707596180682373,0.9673059100893197,9343.147382891875,272.54651889971404
5.970549075000001,5.831999999999994,-0.03950103106317795,9328.300698523502,283.82927417645817,-0.006202241766274096,-79.98660935920041,-1.4694893357607013,-3.52037469173337e-05,0.018369625237296728,-1.5707575410275605,1.0127660297296965,9333.008754438122,272.44737720381426
6.071898640999997,5.9339999999999975,-0.04012969186627765,9320.142026909944,283.68019577070584,-0.006084688677852269,-79.98706499947858,-1.4445319108317505,-3.318106903552641e-05,0.01805760585967791,-1.5707560709338484,1.0665082761839983,9321.026676610747,272.3338196231622
6.212030274,6.061999999999998,-0.04091387700114622,9309.743655513901,283.4938320735927,-0.005944722609966956,-79.98760432784162,-1.4144259020925185,-3.070285381488948e-05,0.01768122088120492,-1.5707543205727124,1.1119952276087277,9310.887948215995,272.2405269973066
6.3141434249999975,6.165999999999997,-0.04151676408841075,9301.58488670498,283.3502862554906,-0.0058413730827901935,-79.98799921604345,-1.3919505097911906,-2.8839484837101303e-05,0.017400235503290208,-1.570753028141457,1.1574929603412534,9300.749180195706,272.1496233116667
6.415793219999998,6.268000000000001,-0.04210354142885618,9293.506068026642,283.2103742985029,-0.005745869333887398,-79.98836270987806,-1.370953908854169,-2.7098069261024823e-05,0.01713773902729366,-1.5707518338382833,0.6782940252132817,9288.008396706355,269.6080389038541
6.550732709000002,6.401999999999987,-0.04268086636101653,9285.427214439123,283.07254717377447,-0.005656184662995653,-79.98870170193251,-1.3510792083536476,-2.5443950621461306e-05,0.016889269482242317,-1.570750712315614,0.7061317151824925,9277.74990802757,269.43746905818136
6.652471394999999,6.503,-0.043405345291265045,9275.108631516572,282.89937831470985,-0.005549705922224261,-79.98910037808079,-1.3273278956367445,-2.3486368133357777e-05,0.01659233666816109,-1.5707493807959096,0.7365100792715537,9266.558794303044,269.25362352515896
6.757949156999999,6.5989999999999895,-0.04396875820223403,9266.94971790935,282.76456216862215,-0.005471277187020163,-79.98939025806672,-1.3097859440349469,-2.205653397888149e-05,0.01637303264648069,-1.5707484000537453,0.7668984987940443,9255.367645972627,269.0720114440052
6.892796752999999,6.733999999999995,-0.04469707799127155,9256.231103075346,282.5901028519077,-0.005375586215755648,-79.98973789016478,-1.2884356929321348,-2.034749180781324e-05,0.016106119513510292,-1.5707472034640277,0.10543766539422883,9242.874156232714,263.4383840395975
6.994307407000001,6.834999999999994,-0.045237766631517365,9248.152118377066,282.46045027902005,-0.005308473984913216,-79.9899762162789,-1.2735920391700215,-1.9184022601706823e-05,0.015920550193620518,-1.5707463642543669,0.10986345936625173,9232.539544343088,263.08903830682993
7.129553002999998,6.969999999999999,-0.04577181209535954,9240.073111195565,282.3322630481713,-0.0052452824077534035,-79.99019505070238,-1.2598086563444122,-1.8126700171389467e-05,0.01574823644340819,-1.5707455740798544,0.11429609171728689,9222.204911393947,262.741116366861
7.233822600000003,7.063999999999993,-0.04626836710719803,9232.474026125588,282.21294249450324,-0.005189237548579766,-79.99038317731623,-1.247840053523517,-1.7229282337360028e-05,0.015598610644666808,-1.5707448732793736,0.11877544140485083,9211.77630858146,262.39131290714806
7.335551948999999,7.165999999999997,-0.04679575131168709,9224.314990222576,282.0860515515034,-0.005132141749574862,-79.990567888003,-1.23597385148183,-1.6364013378033003e-05,0.01545026536598255,-1.5707441593466456,0.12322050949429282,9201.441640679486,262.0458083322562
7.436970653000003,7.265999999999991,-0.047474850924530826,9213.67622153566,281.9223515205551,-0.005062161772744379,-79.9907818608936,-1.2220848279150864,-1.5383897340073417e-05,0.01527663222367303,-1.5707432843228233,-0.5163246371374691,9192.352656451556,263.27010943815554
7.537869463,7.36699999999999,-0.047989500630219374,9205.517148441706,281.79801035993427,-0.005011464682816169,-79.99092636247167,-1.2126147941087997,-1.474040282512125e-05,0.01515824319498966,-1.5707426504218391,-0.5333439198436459,9182.031313158575,262.9778816196905
7.673786098000001,7.503,-0.04846918267003797,9197.83800855352,281.68184479912475,-0.0049658171802788855,-79.9910472944017,-1.2046335135610184,-1.4215349170589368e-05,0.015058465883619025,-1.5707420796683498,-0.5519044794962112,9170.771654243608,262.6599449275072
7.779576691999999,7.5989999999999895,-0.04913650783876215,9187.039200970432,281.5197100036752,-0.0049045405821693975,-79.99119341918356,-1.1949172025971164,-1.3600197496823966e-05,0.014936998441982471,-1.5707413135118289,-0.567366911365755,9161.38859728091,262.3955880147021
7.915176201000001,7.733999999999995,-0.049795709654907525,9176.240376472526,281.35880503721717,-0.004846032334723024,-79.99131324248528,-1.1868903400292001,-1.3115720664653254e-05,0.01483665163002919,-1.5707405819862439,-0.6680667024435177,9152.0383868346,259.29567479951874
8.050594636,7.869,-0.05028860573068795,9168.081255569003,281.23790814537523,-0.004803337065899603,-79.99138674776488,-1.181939172257693,-1.2828271032826448e-05,0.014774755304977565,-1.5707400481814342,-0.6878232172387233,9141.7844137883,258.9123249682087
8.152389683000003,7.969999999999999,-0.05090100361202489,9157.842350107267,281.0868588222092,-0.004751217027674242,-79.99145891395067,-1.1770585170708696,-1.2553025499576642e-05,0.014713740537427735,-1.570739396556231,-0.7093703856633824,9130.59825813806,258.49441699001005
8.256452664000001,8.064999999999998,-0.05137958352878289,9149.763208794044,280.9680714427899,-0.004710993368030658,-79.99150044749949,-1.1742399551457712,-1.2396236500717435e-05,0.01467850474115983,-1.570738893675654,-0.7291170247105279,9120.344280871454,258.11148493953704
8.391308768999998,8.198999999999998,-0.051854123000424704,9141.684064458646,280.8495420040801,-0.004671343744507761,-79.99152929829123,-1.1722778706071373,-1.2283946382968217e-05,0.014653976070028154,-1.5707383979810214,-0.747064470334644,9111.022483719054,257.76339295932985
8.492789916,8.299999999999997,-0.05232467577874675,9133.60491839189,280.7311833245942,-0.004632129749320197,-79.99154549587467,-1.1711745965944143,-1.2213080925586441e-05,0.014640183679600412,-1.5707379077419716,0.0996954800443352,9102.534892118174,252.67144196862773
8.594624213000003,8.401999999999987,-0.052947474397018204,9122.806059244529,280.5730986639856,-0.00458015223561533,-79.99154799481772,-1.1710035310654816,-1.2171797274853519e-05,0.014638045136072567,-1.5707372579520325,0.10871632434036994,9092.3733519473,252.13364473427632
8.696295822000003,8.503,-0.05338606602318021,9115.126871618804,280.460664224363,-0.004543356362032893,-79.99153638745281,-1.1717932252270948,-1.2174570727024084e-05,0.014647917365059195,-1.5707367979629554,0.11774197498307543,9082.21181691642,251.595556183767
8.803298822000002,8.59899999999999,-0.05384823668105191,9106.967737020437,280.3410960807905,-0.004504295904834883,-79.99151289011796,-1.1733910551309474,-1.219957449623827e-05,0.01466789236912821,-1.570736309671818,0.12677219878151702,9072.050288203847,251.05709236897977
8.905146268000003,8.700999999999993,-0.05445380060342768,9096.168887969474,280.1825405924291,-0.004452519571263488,-79.99146388101744,-1.1767171275302601,-1.226226654019297e-05,0.01470947272606108,-1.5707356624328082,0.7736000590276989,9066.433785814708,251.85863707965476
9.006690751,8.801999999999992,-0.054906703165104064,9088.009763265694,280.0624118747083,-0.004413251578938911,-79.99141362082342,-1.1801187179263957,-1.232602479387631e-05,0.014751997184488965,-1.5707351715650484,0.8042965351123182,9056.398229595514,251.36315854355772
9.176585903000003,8.971999999999994,-0.05535559546822903,9079.850644712566,279.9419124622962,-0.004373798588944401,-79.99135227608022,-1.1842574315739116,-1.2399389187054316e-05,0.014803736711468594,-1.570734678391569,0.8349978536916023,9046.362684028523,250.86701568040925
9.279006127000002,9.064999999999998,-0.055900152460972935,9069.851735089533,279.793618090868,-0.00432513022602779,-79.99126173156642,-1.190338667582577,-1.2497522544975923e-05,0.014879760475103065,-1.5707340700324126,0.8712872722414402,9034.50250877834,250.27972718001016
9.413641202999997,9.197999999999993,-0.05633574096045421,9061.772625383755,279.67321941199236,-0.004285536175399505,-79.99117718673592,-1.195990368198483,-1.2579285377641478e-05,0.014950414533120186,-1.5707335751093305,0.9019989963112577,9024.466990398025,249.781878382785
9.514881914,9.297999999999988,-0.05691170375421518,9050.973830319981,279.5113554147325,-0.004232206734347319,-79.99104822397311,-1.2045605773168067,-1.268735840934079e-05,0.01505755411824154,-1.570732908503138,0.6259337390288006,9018.274905550708,251.03449512777317
9.650024813999998,9.433999999999997,-0.057337887181330774,9042.894744288922,279.38947252120937,-0.004192000472152844,-79.99093996821999,-1.2117080458086953,-1.276415123032205e-05,0.01514690759100208,-1.5707324059396073,0.6463711244639415,9008.400303973793,250.5943642856821
9.757143571,9.530999999999992,-0.05774333875037494,9035.135633232034,279.27171521672375,-0.004153141363872469,-79.99082651134427,-1.2191532712768207,-1.2832456694854702e-05,0.015239983579014524,-1.5707319202194654,0.6668133665541949,8998.525719367733,250.15317297716152
9.858898650999997,9.632999999999996,-0.05830137079331902,9024.33689005846,279.1065929754661,-0.004098699514612547,-79.99065398248544,-1.2303901854473185,-1.2916179327042708e-05,0.01538046135717001,-1.5707312397289774,0.6891195678817957,8987.75346600081,249.6705824762787
9.993453254000002,9.765999999999991,-0.058709972239371466,9016.337837077821,278.98327640930887,-0.004058122665386799,-79.99051514570793,-1.2393586850841787,-1.2967844685818791e-05,0.015492580872400455,-1.5707307325472932,1.1975594426552556,8983.12995251561,256.03904016601825
10.093837157000003,9.86699999999999,-0.059118539357010294,9008.258808412633,278.85780073160186,-0.0040169555251933185,-79.99036565404295,-1.2489439230986514,-1.3009725309277162e-05,0.015612410745534466,-1.5707302179910148,1.2346089086780734,8973.405982881284,255.82380663756277
10.195430656,9.968999999999994,-0.05963826110346353,8997.860082211053,278.6948347460336,-0.003963743488594169,-79.99015967821077,-1.262030640836024,-1.30473205357586e-05,0.01577601474297566,-1.5707295528882539,1.2750324580354615,8962.798042080152,255.58741347670886
10.335329377,10.096999999999994,-0.06003334653533162,8989.861081113688,278.5683010575254,-0.00392267919190142,-79.98999090738315,-1.27265431868917,-1.3062803600237763e-05,0.015908827282242213,-1.5707290396250153,1.312092505502922,8953.074119964871,255.36928780817493
10.435868048000003,10.198999999999998,-0.06056408462095359,8978.98246784578,278.3944849903585,-0.00386672378349909,-79.98974780753,-1.2878039341672598,-1.3065144618864672e-05,0.016098221585436057,-1.5707283402420282,1.3491575558260356,8943.350222021885,255.14970856186727
10.537039839000002,10.299999999999997,-0.06095330179667002,8970.90351996926,278.26404647675133,-0.0038251346155533912,-79.98955708566051,-1.2995658352568942,-1.3052420734936241e-05,0.016245264468215483,-1.5707278204249877,0.27200643955068493,8937.581508481966,257.2369857934054
10.672377628,10.434999999999988,-0.061572553737997054,8957.865260442279,278.0509766763315,-0.003758063683044922,-79.98923145862236,-1.3194039928244565,-1.3005953075690866e-05,0.016493274492319413,-1.570726982120406,0.2719103473136703,8924.545002781342,257.0383577521122
10.846025609000002,10.597999999999999,-0.06195079712502671,8949.786366353786,277.9173131337766,-0.00371659742482233,-79.98901887270003,-1.3321974805822852,-1.2961497402968425e-05,0.016653214941959357,-1.570726463846031,0.2718457882895261,8914.984931503734,256.8907763362736
10.948138608999997,10.699999999999989,-0.06232485488717282,8941.707494295397,277.78234660070143,-0.0036752451257616244,-79.98879843016519,-1.3453355786215462,-1.2905797047086983e-05,0.01681746405444964,-1.570725946998114,0.27178624248077216,8905.42488940662,256.74150936664984
11.049536822,10.799999999999997,-0.06281468714641955,8930.989026147017,277.6012102454369,-0.0036206257491382776,-79.9884938754131,-1.36327865387195,-1.2814844958221023e-05,0.017041784490680157,-1.570725264332827,0.6112300171335417,8900.528362084713,253.43316325818543
11.150692288999998,10.900999999999996,-0.06318265614856967,8922.830220141415,277.4617083370785,-0.003579279957888321,-79.98825317933083,-1.37729495799646,-1.2733529420287244e-05,0.017217013882789678,-1.5707247475708788,0.6225422756395448,8891.153536969234,253.17526276321001
11.292149037999998,11.031999999999996,-0.06352509728623693,8915.151366998838,277.3290858356925,-0.003540590255513912,-79.98801964405438,-1.3907575579686724,-1.2647829978842951e-05,0.017385321469691278,-1.570724264007926,0.6348884499826188,8880.9264910575,252.89189778224218
11.392939487,11.132999999999996,-0.0640004306901488,8904.353018246553,277.1403970627896,-0.0034865870937637426,-79.9876805344922,-1.4100804121481234,-1.2514135933431746e-05,0.017626894011170326,-1.5707235890522488,0.6462107402639576,8871.551732538925,252.63028586045039
11.494556328999998,11.233999999999995,-0.06435475368076089,8896.19429674877,276.9960931355679,-0.0034461390492303407,-79.98741621022617,-1.4249608496650792,-1.2403651269200702e-05,0.017812928571777378,-1.5707230835162997,0.4659662643244673,8866.560036412655,249.51626876787915
11.629586349999997,11.369,-0.06470154107127507,8888.115589737754,276.8516988795779,-0.0034064213294545697,-79.98714780652085,-1.4399135846118911,-1.2286932961644025e-05,0.017999867616859323,-1.5707225871096928,0.47079896619415235,8857.308609553475,249.1531442811481
11.731692529,11.47099999999999,-0.06513525824486148,8877.877268181915,276.6665102436821,-0.0033566007030866535,-79.98679847582629,-1.4591434279584765,-1.212984484391972e-05,0.01824027999718496,-1.5707219644351809,0.4760762307836439,8847.216182956328,248.75490975600795
11.834641673,11.564999999999998,-0.06547302812332054,8869.798624400162,276.5186497235733,-0.0033177302283436006,-79.9865159042849,-1.4745171041092513,-1.1999543303535839e-05,0.01843248315250654,-1.5707214786206465,0.48091851701074134,8837.964828931736,248.38789400784609
11.969954275,11.698999999999998,-0.06580359093463098,8861.7999956637,276.37071628725033,-0.0032796307306951398,-79.98623049172163,-1.489884284022335,-1.1866068270169192e-05,0.018624605776404013,-1.5707210024430114,0.48576532072216594,8828.71351095568,248.01898400606595
12.070724028999997,11.799999999999997,-0.06624708702867378,8850.921906820793,276.16705835738657,-0.0032284729435907663,-79.98583370840709,-1.5109896773946263,-1.1678334512684594e-05,0.018888469467148054,-1.5707203630608793,0.2159528095584428,8823.3340270996,248.29743746191207
12.173002992,11.900999999999996,-0.066571958552336,8842.843361453266,276.01394737579096,-0.0031909920265207796,-79.9855329341199,-1.5267938740174904,-1.1535234124045795e-05,0.019086057441087333,-1.5707198946164924,0.2112177841768048,8813.386233829551,247.9145267665265
12.311933842999998,12.030999999999992,-0.06698454227844045,8832.445279079513,275.81450871106904,-0.003143419379788156,-79.98513860175673,-1.5472684166148762,-1.134763215555239e-05,0.019342036356619054,-1.5707193000446384,0.20648789027422937,8803.438485353992,247.52933784356244
12.413804421999998,12.13199999999999,-0.06730085585619305,8824.366804427189,275.6577275335506,-0.003106975094580522,-79.9848271119339,-1.5632536231178422,-1.1200057162356265e-05,0.019541889114677857,-1.5707188445577227,0.20255014641548733,8795.148729380662,247.20661517124094
12.548561720999999,12.265999999999991,-0.06771179323504277,8813.728861470785,275.4488025966873,-0.0030596963744029737,-79.98441056751122,-1.5843779496981878,-1.1004338616620237e-05,0.019805994192994808,-1.5707182536608428,-0.2767736572238908,8787.872277655448,251.83307334179773
12.649533853999998,12.36699999999999,-0.06801968509274514,8805.650460731646,275.2882701717941,-0.003024335603766899,-79.98408983016967,-1.600454355010414,-1.0855336004376532e-05,0.020006988995993985,-1.570717811716687,-0.29903809018380256,8778.026503959592,251.62695180911697
12.784526311999997,12.501999999999995,-0.06831201516384322,8797.892027445085,275.1325574606359,-0.002990822569547207,-79.98377849701981,-1.6159053715586567,-1.0712438316721926e-05,0.020200165665206497,-1.570717392865975,-0.31944285140869677,8769.001253200317,251.4359716054459
12.890668820000002,12.597999999999999,-0.06871055946332033,8787.17424142628,274.9149946964787,-0.0029452472625024506,-79.98334370640377,-1.6372414161280737,-1.0516132203093634e-05,0.020466921262609298,-1.570716823259254,-0.34169816380224344,8759.155569138486,251.22550723114745
13.025579387,12.73299999999999,-0.06910594821443437,8776.37653099553,274.6929216103602,-0.002900161444426703,-79.98290082144155,-1.658693318200123,-1.0320473306757192e-05,0.0207351268503882,-1.5707162597699207,-0.9108519035594809,8749.900181629426,254.55788401952984
13.161445987999997,12.867999999999995,-0.06940067486135072,8768.218300565737,274.5232161068335,-0.002866649996179855,-79.98256345292677,-1.6748505225686923,-1.0174545036997547e-05,0.02093713568120282,-1.5707158409384196,-0.9498301552341258,8740.925983943172,254.4822222073004
13.262855066999997,12.968999999999994,-0.06976851621750361,8757.900588223212,274.30621522531885,-0.0028249480701203005,-79.98213396199881,-1.6951950451085271,-9.992872232645528e-06,0.021191498567438176,-1.5707153197403292,-0.988804645192688,8731.95182624923,254.40469409203098
13.369863727999999,13.064999999999998,-0.07004999812066848,8749.90239954629,274.1362024355686,-0.002793137235668068,-79.98179933788501,-1.7108794726272072,-9.854583072465438e-06,0.02138759829054996,-1.5707149221621535,-1.0313179029765367,8722.161883324989,254.31793281467102
13.503461129999998,13.196999999999989,-0.0704222293288608,8739.184879097695,273.9059338246088,-0.0027511907823321215,-79.98134918298963,-1.731755507695286,-9.673065977777529e-06,0.021648609078820564,-1.570714397905725,-0.8175084785808238,8713.897779336057,254.27696478783992
13.604817981000004,13.298999999999992,-0.07070182925955419,8731.026806790393,273.7287880799254,-0.0027197756513349177,-79.98100563404176,-1.7475205829808063,-9.538018676230417e-06,0.021845719072364697,-1.5707140052710464,-0.8478878570413697,8704.895371957231,254.19441153808592
13.739171341000002,13.432999999999993,-0.07097013967950117,8723.108711369208,273.55531074061605,-0.0026897094177526218,-79.9806718455499,-1.762702055345652,-9.409687496811212e-06,0.022035533116551237,-1.5707136294941848,-0.8807262024025488,8695.163087646853,254.10301084872373
13.847460558000002,13.530999999999992,-0.0713232847143661,8712.551302020469,273.32167849927276,-0.0026502524083178475,-79.98022683465078,-1.7827414088006583,-9.242900445548505e-06,0.022286086500053513,-1.570713136346697,-0.9108244547579193,8686.241868020708,254.01740372262924
13.982504884999997,13.665999999999997,-0.07159263493262596,8704.393343788,273.1393464026721,-0.002620239410039685,-79.97988340526786,-1.7980548216567254,-9.117501345922203e-06,0.022477552071041348,-1.5707127612321061,-0.9436548580931465,8676.509675594616,253.92193565215803
14.083970756,13.766999999999996,-0.07185633624611676,8696.315399942145,272.9572653665171,-0.002590924478264417,-79.97954412009774,-1.8130563454557356,-8.996318154187249e-06,0.02266511885673251,-1.5707123948406774,-0.8706225675077013,8670.288121357204,248.48158180924173
14.185200907000002,13.86699999999999,-0.07220165069161621,8685.59818052409,272.7133635584105,-0.0025526357285883833,-79.97909576701588,-1.8326920506214517,-8.840169083149163e-06,0.022910628868198404,-1.5707119162877627,-0.8997221144965681,8660.628873445703,248.1840676524793
14.320505228000002,14.003,-0.07253176993967302,8675.200935292116,272.4742347701114,-0.0025161349115026942,-79.97866348294006,-1.8514260585067104,-8.693721669234491e-06,0.023144866037485227,-1.5707114600782903,-0.9312422104397837,8650.164740836983,247.85949968264075
14.459697386000002,14.13199999999999,-0.072785001302787,8667.123113882886,272.2867842060924,-0.0024881909432346127,-79.97832981832345,-1.8657586347410897,-8.583183093165536e-06,0.023324071581804995,-1.570711110815254,-0.95790943430665,8641.31051827073,247.58301302787066
14.560725380000001,14.23299999999999,-0.07311663649675347,8656.406055899075,272.03586520114084,-0.0024516688083684036,-79.97789078099022,-1.8844514704501594,-8.44097826636071e-06,0.023557796207677506,-1.5707106543331015,-0.33249380833899644,8633.625478429734,246.58814177034685
14.661730900000002,14.332999999999998,-0.07336094940279834,8648.408289455645,271.8469881065658,-0.002424811916645305,-79.97756626099091,-1.8981502255659015,-8.338000813236547e-06,0.023729078499813774,-1.5707103186521376,-0.3368299204842688,8624.8140995918,246.2839789944408
14.796377005000004,14.46799999999999,-0.07360740182718302,8640.250600704514,271.65293404000766,-0.0023977547455878343,-79.97723829855991,-1.9118951785988991,-8.235633893425258e-06,0.023900939126135622,-1.5707099804655371,-0.34155655820241637,8615.201730557048,245.95032318942373
14.902871851,14.563999999999993,-0.07391750532886528,8629.853594650589,271.4035811033123,-0.0023637633852079173,-79.97682545958494,-1.9290568913506714,-8.108987216299676e-06,0.024115522363310975,-1.5707095556051325,-0.34627959546563125,8605.589404923589,245.61487385882364
15.038067671999997,14.698999999999998,-0.07415306198222073,8621.85593370016,271.210267490858,-0.002337970058793461,-79.97651202161914,-1.9419859363582304,-8.014244940567864e-06,0.024277182736079095,-1.570709233209664,-0.7527817889164238,8596.76212085502,252.81917009487765
15.138675075000002,14.798999999999992,-0.07446700027116074,8611.059140423116,270.9472636722858,-0.0023036292390820716,-79.9760952305397,-1.959046558370766,-7.889929703235675e-06,0.02449050391219141,-1.5707088039734223,-0.771154466446792,8587.898171991023,252.76863154271373
15.273843096,14.933999999999997,-0.0746988532609714,8602.981575872118,270.74900243557346,-0.0022782880170211903,-79.97578853346444,-1.9715064435262755,-7.799466820697882e-06,0.02464629948673702,-1.570708487222685,-0.7910133124220045,8578.315566301062,252.71230659725092
15.381269715999998,15.030999999999992,-0.07499576582476168,8592.504780370718,270.48998721119716,-0.0022458595088093282,-79.97539787467659,-1.987263617731719,-7.685126107599571e-06,0.024843324480656407,-1.5707080818807562,-0.8092142707317509,8569.531569329582,252.65931064683807
15.483202945999999,15.132999999999996,-0.07522180556943207,8584.427285338954,270.2888957103557,-0.002221179575972269,-79.9751023369411,-1.9991022344498717,-7.599162050579909e-06,0.024991353138197885,-1.5707077733893056,-0.8290665267875732,8559.949331622374,252.5923377994004
15.618918690000001,15.268,-0.07544756682087304,8576.269844925639,270.08461071464336,-0.00219653757721923,-79.97480925845751,-2.0107737684234985,-7.5141185806233e-06,0.025137293149387164,-1.5707074653690563,-1.2346394640316563,8553.42567592398,252.40160525581638
15.720764478,15.36999999999999,-0.07574251511269721,8565.473432402685,269.80956004678933,-0.002164289703522773,-79.97210689287812,-2.115314257217141,-7.412261655416622e-06,0.02644448456188513,-1.5707070630580517,-1.2660169211289116,8544.694806414262,252.31401140179798
15.856073878000004,15.50399999999999,-0.07594529966693805,8557.956207963256,269.6080505473012,-0.0021420762643208618,-79.96965840292984,-2.2057945767262384,-7.342015159770603e-06,0.027575901584630427,-1.5707067861132629,-1.3002436018972443,8535.170584877273,252.20589942058936
15.961388901,15.597999999999999,-0.07622869191179982,8547.320520742625,269.30875024446016,-0.0021109976510085703,-79.96618507785212,-2.328137078448599,-7.2442758304091745e-06,0.029105797820626545,-1.5707063986297722,-1.3316151786545705,8526.440369475506,252.09615432375583
16.062357761999998,15.697999999999993,-0.07644115294085287,8539.244099908234,269.07077053352435,-0.0020876648823744816,-79.96355510341691,-2.416660985449955,-7.170608673899416e-06,0.030212834021839698,-1.5707061077054778,-1.2133659458403898,8518.89143868423,251.537537388341
16.197542695000003,15.832999999999998,-0.07665333722413373,8531.087979637787,268.82149706818956,-0.002064333918504515,-79.96091972125933,-2.5022299919249953,-7.096362364114878e-06,0.031282952970322304,-1.5707058167863508,-1.2446805350216221,8508.511187716713,251.3662763166966
16.298575778,15.932999999999993,-0.07692848092297518,8520.373478305486,268.48098477182623,-0.0020340456228862803,-79.95751261036285,-2.608699077912804,-6.99940462158818e-06,0.032614496923351055,-1.5707054390815616,-1.2709722087936692,8499.795274989265,251.21262050367122
16.406191589000002,16.03099999999999,-0.0771271373026548,8512.537783977352,268.2230484629357,-0.002012155085360988,-79.95507474717515,-2.6822857838421115,-6.928792792036001e-06,0.033534834778554415,-1.570705166071738,-1.2996509903879914,8490.287330792638,251.03557788643352
16.542180762999998,16.165999999999997,-0.07732964744685374,8504.462465349452,267.9498185691018,-0.0019898183106593272,-79.95261803259723,-2.754456529769761,-6.856268151827996e-06,0.034437491059734,-1.570704887469864,-1.3259371551134327,8481.571997443241,250.86530218114692
16.643696953000003,16.268,-0.07759682321311803,8493.669100188868,267.5734841015552,-0.0019603214972150887,-79.9494417093031,-2.845055139436502,-6.75970108106985e-06,0.03557066882805198,-1.5707045195152842,-0.5010407138416869,8474.740776351471,255.41523568152303
16.779390137,16.40299999999999,-0.07779411555357767,8485.594337250717,267.2840930197802,-0.0019385215493055734,-79.94715693615231,-2.9084791306709596,-6.6877153598385735e-06,0.0363639825294574,-1.5707042475365487,-0.4984044848546189,8465.27686559145,255.3880772826154
16.880504867,16.50399999999999,-0.07804289916950155,8475.281353123915,266.90533963689165,-0.0019110196433559776,-79.94437151311817,-2.9839739397620564,-6.5961452586631166e-06,0.037308309261065056,-1.570703904368341,-0.4959853861069829,8456.601851760606,255.35686046822528
16.985189755,16.59899999999999,-0.07823712590033734,8467.12714560633,266.59916446203675,-0.001889531887649857,-79.94227616833476,-3.039532647781124,-6.524051966874777e-06,0.03800328649848381,-1.5707036362039966,-0.49356376092897014,8447.927061448965,255.3198008229257
17.120310817000004,16.733999999999995,-0.07842729282877202,8459.053085627655,266.2905154227291,-0.001868485523443819,-79.9403054418596,-3.0908750279551658,-6.452956062863592e-06,0.03864553855804499,-1.5707033735106801,0.8972014577145274,8438.030825119367,250.8780003938625
17.256305046,16.86999999999999,-0.07868002125207042,8448.181385641783,265.8669728562599,-0.0018405041009316237,-79.9378232932118,-3.1543526125901207,-6.357657326168009e-06,0.039439614416499395,-1.57070302419661,0.9469755963308824,8429.371289739322,250.68000739137668
17.357680733000002,16.97099999999999,-0.07891258196363783,8438.0294292624,265.4638836569978,-0.001814749690146215,-79.93569542658138,-3.2077660216110733,-6.269223506997718e-06,0.040107811359903954,-1.5707027026203892,1.005802633201056,8419.137510596947,250.44057460439575
17.495917525000003,17.09899999999999,-0.07915804237027955,8427.158324569546,265.02506116143707,-0.0017875690055654484,-79.93362883543615,-3.2588064381141315,-6.175194134081878e-06,0.04074633908076186,-1.5707023631666641,1.060107422957329,8409.691133585518,250.2148881544667
17.598079882999997,17.200999999999993,-0.07933617257046295,8419.165036378314,264.69810052171266,-0.0017678405212505077,-79.93225059300073,-3.2924055381843216,-6.106533015605956e-06,0.04116668087949336,-1.570702116737186,1.0744526299293364,8398.635717731067,247.24758150023882
17.732554469,17.333,-0.07957179120400168,8408.454233051532,264.25493351132786,-0.0017417493068978007,-79.9305991171404,-3.33221940392227,-6.015229826655767e-06,0.041664781991660294,-1.5707017907707859,1.1270855475974413,8389.161905369374,246.9127984276989
17.867106139,17.46799999999999,-0.07974708497746276,8400.38130202252,263.91752474184767,-0.0017223412488074827,-79.92950323978269,-3.3583784282192104,-5.946974881930233e-06,0.041992056495804876,-1.5707015482548474,1.1753348079629795,8380.477680307966,246.6034044989644
17.973422188,17.564999999999998,-0.079969826405813,8389.99055177837,263.4795353960298,-0.0016976907292208967,-79.92828676911373,-3.3871783781038576,-5.859919830539159e-06,0.042352376750622846,-1.570701240174838,1.227972791559893,8371.00406561794,246.26380017139704
18.074701526,17.665999999999997,-0.08014237173862718,8381.83791060104,263.1334108678582,-0.0016785989328916902,-79.92748029794744,-3.4061382966899383,-5.792249610640463e-06,0.04258958996175628,-1.570701001525162,1.2762266531829183,8362.31998481591,245.95087658163868
18.21089389,17.801999999999992,-0.08031297695034496,8373.68534452326,262.7854554567772,-0.0016597290681371211,-79.92680647718677,-3.4218991712795,-5.725189892220098e-06,0.042786780801242805,-1.5707007656128962,0.8801340424070655,8353.72557412861,240.12196247507975
18.312474099,17.90299999999999,-0.08053418869889988,8362.975202321182,262.32609580052485,-0.001635274950609158,-79.9261224394049,-3.4378251090031253,-5.6380508776321575e-06,0.04298603850681603,-1.5707004598315946,0.9196820000371557,8343.438004324096,239.53003208696245
18.451418166000003,18.03099999999999,-0.080744056295263,8352.664764421812,261.88209235058025,-0.0016120946086683682,-79.92568001033872,-3.4480865885027328,-5.555270921406306e-06,0.043114426130991076,-1.5707001699211336,0.9531480090288986,8334.733150428605,239.02879252923523
18.553308149000003,18.132999999999996,-0.0809063031894689,8344.592282572805,261.5336621010399,-0.0015941812503534438,-79.92547355496491,-3.4528651531620342,-5.491261064675667e-06,0.043174213895244465,-1.5706999458474584,0.9866161145204699,8326.028291350603,238.5276042777285
18.689625721,18.268,-0.0810667475776487,8336.519815070693,261.1848401820402,-0.001576475988123815,-79.9253898088658,-3.4548021852491497,-5.427940818983314e-06,0.04319844940850255,-1.5706997243459737,1.3842105917889456,8315.962694603708,236.55424916653266
18.790370174000003,18.367999999999995,-0.08127842555446413,8325.729884341827,260.7184765351788,-0.0015531342137322,-79.92546624539857,-3.4530362843966036,-5.344455271857202e-06,0.04317635498570917,-1.5706994322828312,1.429914838910824,8307.241154096482,236.00609926850828
18.892671864,18.47,-0.08142548786010038,8318.136956674207,260.39054448758174,-0.0015369283556900513,-79.92564593863946,-3.4488797157055195,-5.286518018958341e-06,0.0431243493625817,-1.5706992294774569,1.479776299070613,8297.726688161512,235.40939629131168
19.030902804,18.59899999999999,-0.0816333776484328,8307.267040627685,259.92193999434426,-0.0015140384998410354,-79.92607693822762,-3.43888773445778,-5.204749422217882e-06,0.04299933349372302,-1.5706989429859206,1.529640134967421,8288.212143812414,234.81444837400682
19.166832818000003,18.735,-0.0818366745099893,8296.476978960754,259.45834535967606,-0.0014916688142666992,-79.92669680453339,-3.4244656904336748,-5.124978899679921e-06,0.04281889156024183,-1.5706986629614805,0.91638062087497,8278.168521336245,233.91427909850105
19.268368358000004,18.836,-0.08198680387267471,8288.40435235902,259.11289008783007,-0.0014751623898457613,-79.92728201183459,-3.4107937903616925,-5.0662189533671646e-06,0.04264783637660714,-1.5706984563068023,0.939387009859198,8269.4312804561,233.36282173651261
19.369644756,18.936999999999998,-0.08213673668664212,8280.25173350578,258.76549039935435,-0.0014586861349613813,-79.92797217498908,-3.394598732424709,-5.00766125677281e-06,0.04244521447531729,-1.5706982500086442,0.964487139141375,8259.89962044409,232.7641198912746
19.507802358,19.064999999999998,-0.08232106111502534,8270.100815697218,258.3354129114832,-0.0014384491786344261,-79.92896877109904,-3.371077030821733,-4.935925979181423e-06,0.042150929511651294,-1.5706979965943275,0.9895894335951505,8250.367825704965,232.1685753883807
19.609306099,19.165999999999997,-0.08246726328898842,8261.948013313084,257.9922315794075,-0.0014224044962886978,-79.92986784623872,-3.3497136456802976,-4.8791935055789244e-06,0.04188365090697473,-1.5706977956573844,1.0126018747710768,8241.630209205796,231.62592815525161
19.745818598,19.301999999999992,-0.08261183498654506,8253.795114509401,257.65129923732445,-0.0014065468437778675,-79.93085164709952,-3.3261796265686554,-4.823273483449971e-06,0.04158921884312479,-1.570697597046208,1.0538014256857555,8232.771506445879,227.71199657625294
19.84701809,19.40299999999999,-0.08279931142314753,8243.084282503436,257.2072022980363,-0.0013859960837835255,-79.93226540692014,-3.292065922432015,-4.751023328980244e-06,0.04116243166384726,-1.5706973396327752,1.0774915236938893,8224.005538434865,227.06106384702994
19.947843959000004,19.503,-0.0829305508122197,8235.490661791613,256.89522362292996,-0.0013716220165317292,-79.93334741705861,-3.265717844005,-4.7006463465490626e-06,0.040832803212917136,-1.5706971595723882,1.105491204595661,8213.645561751659,226.29659103931854
20.087370522,19.63199999999999,-0.08316068813713655,8221.981746776257,256.3465875535427,-0.0013464233060711342,-79.93541077423487,-3.214859306929429,-4.612664649431544e-06,0.04019654876031528,-1.5706968438910485,1.1399557607422728,8200.894506283521,225.3635232746299
20.256553349,19.800999999999988,-0.08329620055293453,8213.908199993077,256.02290085125924,-0.0013315743101181387,-79.9367161033689,-3.182272404956581,-4.56096881078371e-06,0.03978888598783979,-1.5706966578565904,0.5005474577414921,8190.629563482312,222.79643089008184
20.358014714,19.901999999999987,-0.08347368623613088,8203.196550980929,255.5986736155545,-0.0013121594895664644,-79.93854036301742,-3.1361630002063143,-4.493600738585889e-06,0.03921206775917576,-1.570696414604595,0.5022688886039277,8180.237966736549,221.97653767463223
20.494151819000002,20.03099999999999,-0.0836420949131323,8192.884352181518,255.1962653545282,-0.0012937494438329646,-79.94037611905189,-3.089069856489615,-4.429949528936412e-06,0.038622956645273716,-1.5706961839304285,0.5038599596557758,8170.645500801652,221.22552746048123
20.629630622999997,20.165999999999997,-0.08377359216566943,8184.730350780542,254.88241752481807,-0.0012793760865919667,-79.94187281747438,-3.050134105681196,-4.380438243874169e-06,0.03813590054150454,-1.5706960038298172,0.5055858813303522,8160.253408302821,220.41869041243626
20.732072637,20.268,-0.08394665240085439,8173.858106914814,254.47023073759337,-0.0012604652461492335,-79.94392352939585,-2.9959641197845506,-4.31549712014839e-06,0.037458291014039025,-1.5706957668679626,0.07237562922715453,8151.402152526464,219.57922861960984
20.867130586000002,20.401999999999987,-0.08411466151621662,8163.145470953514,254.07144086565074,-0.0012421125161111606,-79.94599564536453,-2.940215769313666,-4.2526946127925114e-06,0.03676095579510991,-1.5706955368952,0.059260751755475266,8142.619911272944,218.90300773226312
20.968305745000002,20.50399999999999,-0.08422981069114438,8155.710414871593,253.79915055972705,-0.0012295390740180928,-79.94745896804115,-2.9002044828124998,-4.209803384142433e-06,0.03626048061813711,-1.5706953793394982,0.04495551182745589,8133.039053141865,218.1717958025053
21.106072298999997,20.631,-0.08439613029801962,8144.83739986982,253.4076569402337,-0.0012113771215467699,-79.94962359487855,-2.839977183667796,-4.148040094438419e-06,0.035507153722794,-1.570695151755642,0.02946022992775417,8122.659534160362,217.38697117203404
21.24238939,20.766999999999996,-0.08451925577198735,8136.6824436522,253.11946101077677,-0.0011979325606275907,-79.95126206610513,-2.793525931784902,-4.10244107148681e-06,0.03492615232896092,-1.570694983285668,0.1785487885430545,8113.915242863712,219.15268122455504
21.344180617,20.867999999999995,-0.08468011524161825,8125.888859994201,252.74538693697417,-0.0011803691495808298,-79.95344261501484,-2.730481677790492,-4.043000506990961e-06,0.03413762841238693,-1.5706947632065473,0.17097161408259381,8105.173816448142,218.58667972830912
21.479921618,21.00399999999999,-0.0848304429617994,8115.654668551597,252.3986866968488,-0.001163958806093522,-79.95551529767009,-2.669180253705088,-3.987602887110076e-06,0.03337092324069876,-1.5706945575804139,0.16201874009774409,8094.842786030359,217.92552277254637
21.618811137,21.13199999999999,-0.08494874890274312,8107.499107929513,252.12802096633283,-0.0011510418402475426,-79.95716370899284,-2.619399265195129,-3.944087448745236e-06,0.03274832025998179,-1.5706943957317128,0.15375639882270645,8085.3062103967395,217.3227284162425
21.720301884999998,21.23299999999999,-0.0851021732672155,8096.784683312047,251.7802244493323,-0.001134289526885633,-79.95931917753612,-2.552842854182269,-3.887762136323659e-06,0.031915929543458336,-1.570694185833184,-703056.2883478763,166105.970910992,-5981200.460397323
21.854726100999997,21.366,-0.08521521125804883,8088.788655402748,251.52651976582132,-0.0011219468972805146,-79.9609159250365,-2.502398093993582,-3.846328725582149e-06,0.03128505470799303,-1.5706940311916204,-726905.4359886016,171457.95604214928,-6184103.140859017
21.956036485,21.46799999999999,-0.0853614283502984,8078.313616865147,251.20185152843942,-0.0011059778229884098,-79.96298612842742,-2.43544305953159,-3.7927577577038597e-06,0.030447717465372396,-1.5706938311225263,-752922.6879586274,177296.4850589458,-6405451.512216103
22.096898223000004,21.598,-0.08547274305354462,8070.2372577287115,250.95752610159346,-0.0010938217371915377,-79.96456199944781,-2.383213737589347,-3.752046486831747e-06,0.02979455437284819,-1.5706936788315389,-776771.835596324,182648.46979858694,-6608354.179296977
22.198810631,21.69999999999999,-0.08562070395738067,8059.361909986551,250.63688639727317,-0.0010776575525721242,-79.96664993662006,-2.312196465183572,-3.6979477023419157e-06,0.028906455630004744,-1.5706934763378042,-800620.9832326461,188000.45436238678,-6811256.840123854
22.299901292999998,21.800999999999988,-0.08572702793249388,8051.445117807046,250.40959655532896,-0.0010660407327760255,-79.9681424506305,-2.2600671811131323,-3.6590915989591065e-06,0.028254573134197422,-1.5706933308181847,-1319163.9289951397,304559.19590513996,-11220328.014894517
22.434900946,21.934999999999988,-0.08587123065629146,8040.569285994844,250.10575982803633,-0.0010502815515994175,-79.9701500616439,-2.1879870796969745,-3.6063932826879084e-06,0.02735322326496009,-1.5706931334202219,-1359326.8410906924,313578.54290303093,-11561939.022670045
22.540584657000004,22.03099999999999,-0.08597068248565368,8032.972035012101,249.89939971638935,-0.0010394132154053148,-79.97152098978265,-2.137376620121739,-3.570048445676395e-06,0.0267203610677306,-1.5706929972924937,-1399489.753184911,322597.8897369491,-11903550.024101602
22.642094844,22.13199999999999,-0.08607529710117014,8024.8948169400355,249.6852366464567,-0.0010279757446675175,-79.97294739287254,-2.0834093274593553,-3.531839956350327e-06,0.02604553497772993,-1.5706928540439247,-1443303.8391042901,332437.1770001229,-12276216.563456524
22.777381761,22.266999999999996,-0.08621435031674426,8014.01833772608,249.40546660313714,-0.00101276992294577,-79.97481487989131,-2.01056613593456,-3.4810110794334673e-06,0.02513469680724892,-1.5706926636111378,-1490769.098848628,343096.4046707917,-12679938.639604019
22.913306159999998,22.40299999999999,-0.0863503447026538,8003.221584229291,249.13756531884874,-0.0009978945267533831,-79.97660482072749,-1.9381834308450074,-3.4312846513209323e-06,0.024229637325022695,-1.570692477330867,-1538234.358591152,353755.63213158934,-13083660.7067709
23.052464927000003,22.53099999999999,-0.08647743121027071,7992.984440788478,248.89263322595835,-0.0009839920261126302,-79.97824038809688,-1.8696042175754035,-3.384787242084817e-06,0.023372154319255364,-1.57069230324716,-1582048.4445057558,363594.9188405328,-13456327.222411897
23.187309188999997,22.664999999999992,-0.08657646744221685,7984.906549678935,248.70551867787032,-0.0009731541468740975,-79.97948694603039,-1.8155946419756697,-3.3485310830437526e-06,0.02269685558449458,-1.570692167547163,-1618560.1827667698,371794.32430450263,-13766882.64628379
23.289399480999997,22.76599999999999,-0.08667441276352886,7976.828534056285,248.5238548461813,-0.000962433005963443,-79.98069376227036,-1.7617323306285233,-3.3126534023573736e-06,0.022023408489166754,-1.5706920333169547,-1662374.2686786193,381633.6107146944,-14139549.147945246
23.390990355,22.86699999999999,-0.08680364723047325,7966.030999166336,248.28951643593572,-0.0009482832560544882,-79.9822434709701,-1.690053796297791,-3.2652728539151407e-06,0.02112721847067066,-1.5706918561726582,-1706188.3545890877,391472.89698234585,-14512215.642552199
23.526961104,23.003,-0.08692535339027893,7955.713161931587,248.07465964162137,-0.0009349558466164536,-79.98365541776955,-1.622002528748901,-3.2206070620167197e-06,0.020276395574099198,-1.5706916893366962,-1753653.6143238042,402132.1236092005,-14915937.669974444
23.664821316,23.131,-0.08701945390136089,7947.634730855965,247.9125202012322,-0.0009246480193022317,-79.98471339174952,-1.5690770016681317,-3.186039133993926e-06,0.019614695145255243,-1.5706915603096094,-1790165.3525801187,410331.5285955213,-15226493.069711972
23.765977839,23.232,-0.0871426994581369,7936.916650641134,247.705637421562,-0.0009111441709615598,-79.98605228550224,-1.4994282914979782,-3.140746832624102e-06,0.018743926522328196,-1.5706913912885585,-1837630.6123119234,420990.75494746654,-15630215.082086748
23.900894137999998,23.36699999999999,-0.08723530771100917,7928.757994262172,247.55438456703098,-0.0009009941254617146,-79.98702189279693,-1.4469003403585534,-3.1066449228805692e-06,0.018087216142916168,-1.5706912642543154,-1877793.524391433,430010.1002110946,-15971826.009146335
24.002708126,23.46799999999999,-0.08735183522341923,7918.359565774305,247.36939444091948,-0.0008882199023475574,-79.98819575530416,-1.3806478942559948,-3.0636956349169365e-06,0.017258931690490347,-1.5706911043876497,-1921607.610295032,439849.385840951,-16344492.4681683
24.108924713999997,23.564999999999998,-0.08744211340890722,7910.200694918737,247.23022106898964,-0.0008783225687539266,-79.98906834320842,-1.329260372141354,-3.030393595936654e-06,0.016616495948250726,-1.5706909805329334,-1965421.6961972443,449688.6713584156,-16717158.919997003
24.244546636000003,23.69999999999999,-0.08756005242528378,7899.402055938989,247.05405267858907,-0.000865387925079275,-79.99015884523791,-1.2621098254883056,-2.9868493703183434e-06,0.015777004609231357,-1.570690818680296,-2009235.782098131,459527.9567741298,-17089825.36499171
24.380521146,23.836,-0.08767625440466677,7888.603274260267,246.88689847516943,-0.0008526402464846788,-79.99117692781667,-1.19602902125909,-2.9438765817779527e-06,0.014950897710658016,-1.5706906591790393,-2060352.215647595,471007.12297759694,-17524602.87602063
24.516089281,23.97,-0.08778484086061267,7878.3643058457865,246.73664732711472,-0.000840725880561186,-79.99207665121213,-1.134449373533159,-2.903679440982162e-06,0.014181071088126843,-1.5706905101148187,-2579462.1740123956,587844.5563580705,-21916969.027863376
24.654812819,24.098,-0.08786945686422769,7870.285041362752,246.62359070418597,-0.0008314419799165587,-79.99274231422724,-1.0866449560569047,-2.872330420736085e-06,0.01358345884046107,-1.5706903939680688,-2634251.742340719,600156.1745712836,-22382322.232097108
24.75639123,24.19999999999999,-0.08798110023401991,7859.485923059892,246.47996656312347,-0.000819187086729464,-79.99357327952349,-1.0238507605860647,-2.8309252793428355e-06,0.012798463869862648,-1.5706902406616212,-2665471.2044877936,607183.3220619671,-22641792.625143956
24.891886300000003,24.334999999999994,-0.0880910979055398,7848.686697021875,246.34475456754686,-0.0008071102041618902,-79.99433864009293,-0.9624079260652922,-2.790108837867147e-06,0.012030370051495353,-1.5706900895919227,-2723681.174056524,620263.9776562526,-23135982.579199683
25.026154958,24.468999999999994,-0.08819468332130731,7838.367343580342,246.22328033214677,-0.0007957351353142455,-79.99501087894977,-0.9050279240867292,-2.751606253969518e-06,0.011313071947727769,-1.5706899473099023,-2777413.453657112,632338.4289055453,-23592157.914843686
25.165902849,24.59899999999999,-0.08830153180986859,7827.567932015067,246.10397171239927,-0.0007840006659741589,-79.99565484361126,-0.846424982608576,-2.7118483218906855e-06,0.010580492142065105,-1.570689800540988,-2831145.7332564807,644412.8800966503,-24048333.244532924
25.267005276,24.69999999999999,-0.08838121642494871,7819.408321377397,246.01903205230383,-0.0007752465061456787,-79.99610284872584,-0.8031453282728301,-2.682188523237488e-06,0.010039468376589854,-1.5706896910537704,-2815265.3182477355,640855.2875432584,-23906601.20950278
25.402798165,24.836,-0.08848531338357712,7808.608769764113,245.91334745209002,-0.0007638083522221298,-79.99664684307275,-0.7472462809135505,-2.643392662748258e-06,0.009340698368813835,-1.5706895480049479,-2883092.6009004503,656097.6463902289,-24482094.54765238
25.57159385,25.00399999999999,-0.08860819669505862,7795.649216619001,245.79639995901783,-0.0007503058709731619,-79.99722956512626,-0.6823431121978367,-2.5975542284905666e-06,0.00852937744110295,-1.5706893791485332,-2929723.8577229646,666576.7680527235,-24877746.21187278
