Real_time_s,Simulation_time_s,x_ft,y_ft,alt_ft,vx_fps,vy_fps,vz_fps,roll_rad,pitch_rad,yaw_rad
0.0,0.0,9.472258500693338e-15,4000.0,280.0,1.9539925233402755e-14,24.380614038725582,0.40634356731350524,1.1849806804625242e-15,-0.016665123713998656,1.5709126535897924
0.04097797299999684,0.0309999999999917,1.1459578564856947e-14,4002.4796556273077,280.04132759378916,2.8930063731835366e-11,24.380614037880644,0.40634361801047025,1.1849806804625242e-15,-0.016665123713998715,1.5709126535897924
0.07560785599999775,0.06499999999999773,-1.4507699639805966e-06,4005.1993200586244,280.0865701451141,3.154944485345686e-06,24.380385437004517,0.41983561436463884,1.946066952097454e-05,-0.01721851664002132,1.5709125241850093
0.10942771799999917,0.09899999999998954,-1.3893061535324453e-06,4007.918958971977,280.1333178620503,3.8334655173725784e-06,24.380149737544627,0.4333067907257243,2.3353027675244923e-05,-0.017771060883847188,1.5709124963545502
0.1428585620000007,0.1319999999999908,-2.0775931285262936e-06,4010.5585826270985,280.18014997008373,1.268575418403742e-05,24.379916216199863,0.44625249681661855,3.760404610356212e-05,-0.018302057142299783,1.5709121332550815
0.21049027899999828,0.19999999999998863,3.088718478846187e-07,4015.997726554517,280.2810160425872,3.6224112367188814e-05,24.379421092665922,0.4725285019602587,5.4941415197290064e-05,-0.019379840600801362,1.5709111677444578
0.3460281309999971,0.333999999999989,2.531372333066e-05,4026.715704509456,280.4967881460122,0.00011739893976643377,24.378396561200006,0.5227208538887653,8.453454985495515e-05,-0.02143868320875116,1.5709078378983539
0.4477126649999974,0.43599999999999284,7.198127334715696e-05,4034.873855057234,280.6756182377021,0.00020484261811835495,24.377580018287123,0.5595072922216309,0.0001026518871051091,-0.02294768520041014,1.5709042506847897
0.5525129219999982,0.5309999999999917,0.00014397924243975203,4042.471878441069,280.8532476162631,0.00030279409423030336,24.37679682243533,0.5926487880888092,0.00011695286693006432,-0.024307214106822322,1.5709002321896046
0.688433431,0.6659999999999968,0.0003018456081578879,4053.2686432021083,281.12303893607213,0.0004626128452517053,24.375655400371997,0.6378711376961782,0.00013204927816365018,-0.02616239621675327,1.5708936751182212
0.8238717230000034,0.8009999999999877,0.0005338004089901396,4064.0648916069995,281.4125197540353,0.000639475730473456,24.374490468412887,0.6809331805111759,0.0001420339710051983,-0.027929038466121357,1.5708864181467257
0.9260166290000029,0.9029999999999916,0.0007621993836037949,4072.2217096465206,281.6436960792431,0.0007804732967805575,24.37360222886517,0.7120181036470027,0.00014657189496399047,-0.029204367151152235,1.5708806323435633
1.0643309250000001,1.0309999999999917,0.0011170759036149252,4082.4572870859038,281.9483837698879,0.0009621410775527422,24.372486593282787,0.7492344990298202,0.00014904610580280744,-0.030731315921997703,1.570873177072143
1.1656039410000005,1.1319999999999908,0.0014509736794524602,4090.5334650416594,282.19959405691577,0.0011064879482009916,24.371611261643228,0.777186777442263,0.00014878041587601616,-0.031878214849148795,1.5708672529079546
1.2677159750000015,1.2329999999999899,0.0018327423948192249,4098.609349910225,282.4599449162398,0.001249685824252116,24.370743438395742,0.803939486639395,0.00014687654581024,-0.03297593399685149,1.5708613754804093
1.3691373890000023,1.3349999999999937,0.0022662280116575685,4106.764900110833,282.73172632130235,0.0013915397184271535,24.369879338243077,0.82971989435693,0.0001434667082560432,-0.03403379519630016,1.5708555527922397
1.5047392040000034,1.4699999999999989,0.002912299875611782,4117.5585632757675,283.1044439743944,0.0015726929710725332,24.3687616876216,0.8619207263690802,0.00013706019899594195,-0.035355162745559894,1.5708481163421706
1.6091746009999994,1.5649999999999977,0.0034148298902591905,4125.153803474734,283.3751857370754,0.0016942008660622704,24.367998123766693,0.8832443431962943,0.00013145900533874296,-0.036230215454849654,1.570843127947987
1.710299980000002,1.6659999999999968,0.003989730502648918,4133.228483072827,283.67013618864524,0.0018173804239707983,24.367208036240058,0.904779097751572,0.00012477682827297045,-0.037113960751715636,1.5708380705570362
1.8114820629999997,1.766999999999996,0.004604777285636872,4141.30289991793,283.97209771520744,0.0019334980007545968,24.366444488340022,0.9251136461169357,0.0001174433883561729,-0.03794847848565941,1.5708333027488643
1.9471065359999997,1.9019999999999868,0.005485336168436548,4152.095043074465,284.3859655038843,0.0020768629615766517,24.365469751103866,0.9504396323202707,0.00010693024048262632,-0.03898787889701474,1.5708274156339872
2.0488122229999988,2.003,0.006184546382594806,4160.168882955963,284.7027672109667,0.002174736221512148,24.364778261805778,0.9680038861290862,9.869785034073974e-05,-0.03970875577244093,1.570823396216714
2.1546720340000007,2.0989999999999895,0.006878644558652642,4167.8428138218005,285.009207077024,0.0022599061152937085,24.364154236362435,0.9835848918971509,9.070351766191869e-05,-0.04034825291525599,1.5708198982253245
2.290507574000003,2.2339999999999947,0.007898109385651424,4178.633950844552,285.4481498931093,0.0023672420126327454,24.363330776220266,1.003774817698556,7.936612584525563e-05,-0.04117694031779768,1.5708154894566064
2.391733731000002,2.333999999999989,0.008682791366994349,4186.627151497085,285.7789061338384,0.0024371181222142884,24.36276526047109,1.017407943570687,7.100810365319956e-05,-0.0417365224709302,1.570812619048993
2.5268481800000018,2.469999999999999,0.00978481333519499,4197.497610929309,286.2356431038262,0.002519387851151247,24.362058475238207,1.034193648095637,5.984434219775869e-05,-0.042425522630846535,1.5708092391849915
2.6315346270000006,2.5649999999999977,0.010575518318013106,4205.090759444298,286.5590249291771,0.002568029214055413,24.361610643516027,1.0446895514723602,5.226972865204017e-05,-0.04285635654188184,1.5708072406437459
2.733279510999999,2.665999999999997,0.011431875586418528,4213.1633244414315,286.906281601672,0.0026125315110212704,24.361173910936564,1.0548245616149379,4.445897289246387e-05,-0.04327238413200633,1.5708054119821546
2.834787054000003,2.765999999999991,0.012293512259039973,4221.155821425018,287.2533026034671,0.0026492471211707774,24.360784088720905,1.0637892480259081,3.703114319101088e-05,-0.0436403778646259,1.5708039031052847
2.9698877370000005,2.9009999999999962,0.013474201080214073,4231.94549435368,287.72620548474526,0.0026879243307998137,24.36032499816905,1.0742507894560829,2.753053992102649e-05,-0.04406982387511618,1.5708023133421556
3.108784462999999,3.0309999999999917,0.014625613418046869,4242.335362962796,288.1857165578978,0.002714064778632343,24.359956588479058,1.0825726956060922,1.9016706809570456e-05,-0.044411443729856094,1.570801238582102
3.2102099969999998,3.1329999999999956,0.015535863120971754,4250.487307009795,288.54858038924084,0.0027274120405881854,24.359718784237938,1.0879105266852616,1.2799048620601085e-05,-0.04463056802353284,1.570800689570694
3.3120503359999987,3.2349999999999994,0.016449956563189608,4258.63917295428,288.9131275252369,0.0027351005758058803,24.35952441274593,1.0922540474010145,6.986780490794881e-06,-0.0448088762913337,1.5708003730495574
3.4134692760000007,3.3359999999999985,0.01735703127011626,4266.711056046595,289.2754315144911,0.002737413094240019,24.359375512374758,1.0955697849478385,1.6517390689231228e-06,-0.044944993434494276,1.5708002774295733
3.5486030590000013,3.469999999999999,0.018560549330412235,4277.420215700804,289.75760098737095,0.0027330776937116628,24.35924365686225,1.0984976085117928,-4.789287597093729e-06,-0.04506518670674887,1.5708004547986159
3.653573483999999,3.5649999999999977,0.019412026966044313,4285.012497288887,290.10010344305033,0.002725232077279425,24.359196086737217,1.0995519910400176,-8.907635113479343e-06,-0.04510847149189325,1.570800776659583
3.788000093000001,3.6979999999999933,0.020599173283905762,4295.641670981224,290.5799741147458,0.002708640032823472,24.35918860081874,1.0997178606423281,-1.4097402410110675e-05,-0.045115280875954775,1.5708014577660527
3.8894113699999977,3.7989999999999924,0.021495324386806403,4303.7134499121275,290.9443098235853,0.0026920306062117303,24.35922891257562,1.0988246164494258,-1.7592567988237895e-05,-0.045078611249246926,1.5708021398034497
4.024549448000002,3.9339999999999975,0.022683829599432805,4314.502486727702,291.4306411366037,0.00266511060197131,24.35934290144358,1.096294808470667,-2.1681699025363382e-05,-0.04497475736165182,1.5708032454406953
4.1302515300000024,4.030999999999992,0.02352999717737658,4322.25464303075,291.7792719798372,0.002642831979646662,24.359466114208207,1.093553677779435,-2.422723718451554e-05,-0.04486222876345273,1.5708041605715755
4.266309933000002,4.166999999999987,0.024703963975905796,4333.123715422656,292.2664361863723,0.002608095487321414,24.359694289609283,1.0884591469683464,-2.7283534663758745e-05,-0.04465309012361798,1.5708055875699531
4.368151167000001,4.266999999999996,0.025556957480612475,4341.115747637659,292.6230814246508,0.0025803496895678486,24.359901431743385,1.0838134422244847,-2.9169002283050296e-05,-0.04446237820654802,1.5708067274749486
4.503563839000002,4.402999999999992,0.026702063698973766,4351.98502388896,293.10551242789205,0.0025401751318419345,24.360233536127186,1.0763231916387328,-3.128017212230709e-05,-0.04415489756272472,1.570808378105003
4.642032700999998,4.530999999999992,0.02776294491014708,4362.215071621368,293.5563013614283,0.0025002629812050643,24.36059714503094,1.068062023573808,-3.282388611830625e-05,-0.04381577498844251,1.5708100180510125
4.743206991000001,4.631999999999991,0.028588131006338034,4370.287327345177,293.90947242777906,0.0024676693455714465,24.360916618828718,1.0607503952807857,-3.376636416784477e-05,-0.04351563540647241,1.5708113573447788
4.844495960000003,4.73299999999999,0.029402422774592266,4378.3596896578565,294.2601527932298,0.002434355878305612,24.361262433019157,1.0527785823649667,-3.4492170673155514e-05,-0.043188399960903165,1.5708127262597125
4.979715521999999,4.867999999999995,0.03047345408872988,4389.149662293012,294.72461755357836,0.00238902874740302,24.361763365516627,1.0411224784429745,-3.514826458841424e-05,-0.042709936138396,1.5708145888993765
5.1151381319999984,5.003,0.031524285930983754,4399.939860122056,295.18374267907905,0.0023431606319968008,24.362305064998903,1.0283688197979455,-3.548633959955835e-05,-0.04218643070465772,1.5708164738292396
5.223835686999998,5.0989999999999895,0.032259070404035965,4407.613037480586,295.506693911228,0.0023104144052264854,24.362713418848667,1.0186488762286272,-3.55551910306096e-05,-0.041787459374641615,1.5708178195538034
5.393627166999998,5.268000000000001,0.03352767568041719,4421.121340916523,296.0676174358527,0.002252909517535911,24.363471754366888,1.000347438928943,-3.538071642315283e-05,-0.04103626429710787,1.5708201827967823
5.494774053999997,5.369,0.03427062642024229,4429.194552582735,296.397896257402,0.002218807336718824,24.36394694050442,0.988706507102266,-3.5122194440756634e-05,-0.0405584663250274,1.5708215842988398
5.630304279000001,5.503999999999991,0.03524609553351586,4439.985725741844,296.8332265885289,0.0021737403745602708,24.36460413785023,0.9723767174875133,-3.46239641192635e-05,-0.03988823141058259,1.570823436445204
5.734215059999997,5.597999999999999,0.035913458573164636,4447.499753265859,297.13197384704534,0.0021428161912238,24.365075336342205,0.9604974038043486,-3.4189002877690166e-05,-0.03940067175492271,1.5708247073718162
5.835615273000002,5.698999999999998,0.03662004123235083,4455.573496032347,297.4488861926758,0.0021100522372564674,24.36559113556867,0.947322628244832,-3.365562295004003e-05,-0.038859953738855736,1.5708260539148489
5.970549075000001,5.831999999999994,0.037534014964174106,4466.205517496166,297.8594457398294,0.002067754774784212,24.366283820639882,0.9293355133755192,-3.286746155681676e-05,-0.03812174642253819,1.5708277922779808
6.071898640999997,5.9339999999999975,0.038222569632565706,4474.35960248976,298.16895179261525,0.002036023263083187,24.366823227946277,0.9150834020102866,-3.221043144204571e-05,-0.0375368417735364,1.5708290963990306
6.212030274,6.061999999999998,0.039071615817554264,4484.5924366816025,298.55047612532263,0.00199715309815554,24.36750792185875,0.8966658739676197,-3.133572757874216e-05,-0.03678100800709338,1.5708306939106422
6.3141434249999975,6.165999999999997,0.03974967219103051,4492.906823274349,298.85478208137334,0.001966355156055206,24.36806818428478,0.8813087424412805,-3.0596816368149815e-05,-0.036150785414531365,1.5708319596597962
6.415793219999998,6.268000000000001,0.040404521899788326,4501.061503375758,299.14809519517934,0.001936865708459319,24.36861973887327,0.8659239405139763,-2.9855012968283224e-05,-0.03551944169210828,1.570833171626486
6.550732709000002,6.401999999999987,0.041249939072309574,4511.774794420241,299.5255226381771,0.0018992278851028852,24.369345167408166,0.8452623880556042,-2.8866702403087494e-05,-0.03467157901505422,1.5708347184666873
6.652471394999999,6.503,0.04187632912510994,4519.8499472914755,299.80396390367287,0.0018716856503505743,24.369890783725086,0.8293827138974108,-2.8119177726737064e-05,-0.034019961363411615,1.5708358503863333
6.757949156999999,6.5989999999999895,0.0424632575414409,4527.525508077024,300.06368447219177,0.0018461827910459584,24.37040740491415,0.8140611218589735,-2.7411833762858114e-05,-0.03339125814297317,1.570836898482811
6.892796752999999,6.733999999999995,0.043275270347913807,4538.319537185584,300.4207596783821,0.0018113702347723327,24.371128085389852,0.7921922522140243,-2.6429799491204174e-05,-0.03249391801794583,1.5708383291573507
6.994307407000001,6.834999999999994,0.0438727911296377,4546.395277557425,300.6815398895674,0.0017861358541702746,24.37166161866285,0.7756047673415791,-2.5709432352498184e-05,-0.031813305190329044,1.5708393661829037
7.129553002999998,6.969999999999999,0.04465855615952889,4557.189857899614,301.0214889587656,0.0017534616286260633,24.37236521038199,0.753171280083273,-2.477181754230214e-05,-0.03089284429219985,1.5708407089245948
7.233822600000003,7.063999999999993,0.04519713607902275,4564.706268718068,301.2522498447082,0.0017314249406439708,24.372847683660012,0.737393240601472,-2.4139487371982013e-05,-0.030245476569326486,1.5708416144978905
7.335551948999999,7.165999999999997,0.045774026593873744,4572.862539118434,301.4972025732134,0.0017081155769021956,24.373363107776516,0.7201554685120518,-2.3473337845153353e-05,-0.029538230984154878,1.570842572345995
7.436970653000003,7.265999999999991,0.04633207468756765,4580.859049403727,301.7317234022227,0.001685874201880337,24.37385956748488,0.7031521473773892,-2.284307336682594e-05,-0.028840619126319973,1.5708434862828344
7.537869463,7.36699999999999,0.04688837255988909,4588.935688631659,301.9629264559984,0.0016640081125567053,24.37435134923861,0.6858932387438855,-2.223039158166875e-05,-0.02813253538508312,1.5708443847725964
7.673786098000001,7.503,0.04762614605081787,4599.811417707762,302.2652115497204,0.0016354558758736432,24.37499695661335,0.662553160419409,-2.1444417268126193e-05,-0.027174980988450153,1.5708455579547866
7.779576691999999,7.5989999999999895,0.04813927504561071,4607.488576110868,302.4722653222383,0.0016159108532641814,24.375440510219605,0.6460288860300004,-2.0917767650443605e-05,-0.02649706815143197,1.5708463610083208
7.915176201000001,7.733999999999995,0.04885062566871951,4618.284812335388,302.7546813222989,0.001589193229455626,24.376046118174273,0.6227592786251902,-2.0216417894124925e-05,-0.025542446777558736,1.5708474587159516
8.050594636,7.869,0.04955028680591848,4629.081313276092,303.02678931372645,0.001563343854424085,24.37662953267986,0.5994882671446825,-1.9560706228495662e-05,-0.02458779108421689,1.5708485206925997
8.152389683000003,7.969999999999999,0.0500663161597429,4637.158862729292,303.2236261365067,0.0015445372937521668,24.377050916712456,0.5821015533578664,-1.909971363186194e-05,-0.023874543883313237,1.5708492932875202
8.256452664000001,8.064999999999998,0.05054599679235947,4644.756685180415,303.4034701897729,0.0015272560646879658,24.377435094419944,0.5657843094681593,-1.868938944661423e-05,-0.023205180112252664,1.5708500031887473
8.391308768999998,8.198999999999998,0.05121358800377748,4655.47381338074,303.6485660657735,0.0015034733838850802,24.377956580179113,0.5428505452497147,-1.8145645257061622e-05,-0.022264411848166642,1.5708509801103594
8.492789916,8.299999999999997,0.05170992406317431,4663.551798527596,303.82665328031266,0.001485991007716654,24.378333549319205,0.5256492651725571,-1.7762566621555106e-05,-0.02155880937542366,1.5708516981916636
8.594624213000003,8.401999999999987,0.05220534475905359,4671.709889084029,304.0007374022142,0.0014686972485805974,24.37870003847645,0.508368249327824,-1.7398318421606948e-05,-0.020849946922347627,1.5708524084879043
8.696295822000003,8.503,0.05269023452022643,4679.788118236611,304.1674180689169,0.0014519142799472855,24.379048733348903,0.49136213626193836,-1.705897342294019e-05,-0.02015237113516691,1.570853097767306
8.803298822000002,8.59899999999999,0.053145960023455514,4687.466541956041,304.3205969607795,0.0014362648267591998,24.379366965437484,0.47531074223846453,-1.675529672665974e-05,-0.019493966084912398,1.5708537404585659
8.905146268000003,8.700999999999993,0.05362484660192901,4695.624974953644,304.4778717845411,0.0014199244606256346,24.37969111509479,0.4583831545681307,-1.6451532026335478e-05,-0.018799629983772447,1.5708544114868832
9.006690751,8.801999999999992,0.05409367311509493,4703.703529319771,304.6280290158604,0.0014040290728543317,24.379997852476052,0.44176774664374313,-1.6168634990738635e-05,-0.018118107693443616,1.5708550642044585
9.176585903000003,8.971999999999994,0.05487101553533103,4717.30132069326,304.8684132519917,0.001377838043589893,24.380482717328096,0.41414559231863873,-1.572996532246844e-05,-0.016985134787305515,1.5708561396119092
9.279006127000002,9.064999999999998,0.0552900711940685,4724.740226344621,304.993366333917,0.0013638290538636685,24.380730967844585,0.39926383953860334,-1.5507901187612465e-05,-0.01637474175616121,1.5708567147800443
9.413641202999997,9.197999999999993,0.055882040008639965,4735.37879004212,305.1642681255629,0.0013441153480388632,24.381065972515213,0.37825419657110765,-1.5211857637589433e-05,-0.015513016254340409,1.5708575241148741
9.514881914,9.297999999999988,0.056321497516245926,4743.377805169906,305.2867583668506,0.0013295344533439772,24.38130248516323,0.36268906699788295,-1.5003909120044115e-05,-0.014874608819208825,1.5708581226855916
9.650024813999998,9.433999999999997,0.05691155000765556,4754.256588003038,305.44522013067655,0.0013100141945633155,24.38160344448716,0.34185926876849004,-1.473912980734142e-05,-0.014020279204800163,1.57085892397295
9.757143571,9.530999999999992,0.05732706661532544,4762.015801483111,305.5525555660949,0.001296298979544412,24.38180382296719,0.3272562573279285,-1.4562025606643556e-05,-0.013421346025236636,1.5708594869329984
9.858898650999997,9.632999999999996,0.05775934821012616,4770.175042118988,305.6604732573894,0.0012820519756832737,24.38200204939063,0.3121384626461746,-1.4385152248767926e-05,-0.01280130441025753,1.5708600716898624
9.993453254000002,9.765999999999991,0.05831586353897438,4780.814150426982,305.793619927008,0.0012637278249840193,24.382241893401964,0.2928048063734161,-1.4167457490161871e-05,-0.01200836047879601,1.5708608237438548
10.093837157000003,9.86699999999999,0.058733170097560614,4788.893542300656,305.8891398716138,0.001249992339320916,24.382410422682025,0.2784177031284178,-1.4010659837562622e-05,-0.011418297699230947,1.5708613874379451
10.195430656,9.968999999999994,0.05915001328485501,4797.0529843318,305.9808032032259,0.0012362721289228505,24.382569083976225,0.264157787632714,-1.3859139092590062e-05,-0.010833455233936796,1.5708619504772396
10.335329377,10.096999999999994,0.059666592505235753,4807.292358892789,306.0890811309955,0.0012192652322595527,24.382752288741365,0.246668480512812,-1.3677411269797807e-05,-0.010116170642867527,1.5708626483552186
10.435868048000003,10.198999999999998,0.060073188336357074,4815.451914638486,306.17018693131655,0.0012058666008770264,24.382886263436948,0.23304937286134778,-1.3538408132566415e-05,-0.009557617200390651,1.5708631981396373
10.537039839000002,10.299999999999997,0.06047138702733161,4823.5315187945935,306.24602971536564,0.001192731325583317,24.383008812617184,0.21985409077989432,-1.3405081636973016e-05,-0.009016448742476642,1.5708637370942942
10.672377628,10.434999999999988,0.06099686706864571,4834.331052343683,306.34064336378685,0.0011753730799346244,24.38315761706807,0.2026801414077731,-1.3232710769517752e-05,-0.008312110041810317,1.5708644492877304
10.846025609000002,10.597999999999999,0.06162111374993368,4847.370575279179,306.4448493996751,0.0011547101991840438,24.383315692351296,0.18267598032350627,-1.3031862159815224e-05,-0.0074917037582800244,1.570865297019069
10.948138608999997,10.699999999999989,0.06200617413958264,4855.530319187141,306.5046981043382,0.0011419349012236205,24.383403440918983,0.1705618168657937,-1.2909410868526648e-05,-0.0069948828192588925,1.5708658211236544
11.049536822,10.799999999999997,0.06237953281017308,4863.530096833402,306.5594575746054,0.001129525953283497,24.383481577308746,0.15899966422525935,-1.2791289997611225e-05,-0.0065207023252753975,1.5708663301816959
11.150692288999998,10.900999999999996,0.06275251156886581,4871.60989840784,306.61095363352905,0.0011171069125548358,24.38355300361771,0.14764034626446013,-1.2673583723201398e-05,-0.006054841801082741,1.570866839637785
11.292149037999998,11.031999999999996,0.06323014860609202,4882.089676391116,306.6721856023842,0.0011011666535863712,24.383635137283427,0.1333877028710856,-1.2522797639340631e-05,-0.0054703240516998835,1.570867493519862
11.392939487,11.132999999999996,0.06359375766862352,4890.169529453823,306.71527333835564,0.0010890066624593873,24.383690860474896,0.12277961909606552,-1.2407678017217777e-05,-0.005035275224413331,1.5708679923166917
11.494556328999998,11.233999999999995,0.06395334859803606,4898.249401316795,306.75487907805575,0.001076955370286977,24.383740473410622,0.11249606896310244,-1.2293256349261802e-05,-0.004613536776909739,1.5708684866423295
11.629586349999997,11.369,0.06442778034008884,4909.049255996299,306.8025708793805,0.0010610185053716885,24.38379790914339,0.09926933213357698,-1.2141120048466688e-05,-0.004071096559679176,1.5708691403305648
11.731692529,11.47099999999999,0.06478157944646393,4917.209163461824,306.83477224853567,0.0010491064351934782,24.383835096753703,0.08967091895465218,-1.2026560288090656e-05,-0.0036774578742128374,1.5708696289201733
11.834641673,11.564999999999998,0.06510407015399712,4924.72908983777,306.86160242267164,0.001038231143871572,24.383864972846535,0.08114128463475309,-1.1921164397911428e-05,-0.0033276511533884665,1.5708700749764837
11.969954275,11.698999999999998,0.06555805837138008,4935.4490012514625,306.89540421912756,0.0010228860399990936,24.38390101441801,0.06947138098808181,-1.1771069279013461e-05,-0.002849060274840704,1.5708707043523418
12.070724028999997,11.799999999999997,0.06589580356659976,4943.528945549647,306.91754146858443,0.0010114468798792643,24.383923504577556,0.061069631515590576,-1.1657956037223431e-05,-0.002504499085633267,1.5708711735181706
12.173002992,11.900999999999996,0.0662297695045523,4951.608897927374,306.93692955035516,0.0010001158216736685,24.38394237162272,0.053003935316582054,-1.1544806915727141e-05,-0.0021737199380991077,1.5708716382437167
12.311933842999998,12.030999999999992,0.06665409924619412,4962.008846703526,306.9580031565442,0.0009856926437665301,24.383961847997163,0.04312335605329024,-1.1399052100010767e-05,-0.0017685116418094554,1.5708722297791275
12.413804421999998,12.13199999999999,0.0669795576867853,4970.088813382683,306.9715264492188,0.0009746130384028218,24.383973645369647,0.035837299788244625,-1.128573183254274e-05,-0.0014697064315267062,1.5708726841793221
12.548561720999999,12.265999999999991,0.0674057067867728,4980.8087761997895,306.98581040021884,0.000960080184831057,24.38398537958074,0.026684951692401912,-1.1135264813987546e-05,-0.0010943637383450126,1.5708732801984924
12.649533853999998,12.36699999999999,0.06772270427757879,4988.888752425434,306.9939666223678,0.0009492529504110251,24.38399163522774,0.020175035823373794,-1.1021792922202744e-05,-0.0008273887007626901,1.5708737242390338
12.784526311999997,12.501999999999995,0.06814083726895721,4999.688725020072,307.0015746870213,0.000934951618794143,24.383997032307406,0.011993927527910429,-1.0870096041466844e-05,-0.0004918772721464761,1.5708743107524699
12.890668820000002,12.597999999999999,0.06843431024966952,5007.368707888414,307.00480889027017,0.0009249035327382315,24.383999104154224,0.006544705376830087,-1.0762249562299558e-05,-0.00026840192140115766,1.5708747228327677
13.025579387,12.73299999999999,0.06884171222642249,5018.168686077934,307.00654144806094,0.0009109370146386971,24.383999974915913,-0.0006272984822256833,-1.0610751234464181e-05,2.5725559353880974e-05,1.5708752956080014
13.161445987999997,12.867999999999995,0.06924295960779493,5028.96866608285,307.00519064581204,0.000897166078045516,24.383998915396134,-0.007217275258449313,-1.0459523667026967e-05,0.0002959838200350738,1.570875860359387
13.262855066999997,12.968999999999994,0.06953917787273528,5037.048651822005,307.00231698425233,0.000886990902930888,24.38399714241688,-0.011771654996285824,-1.0346644792299408e-05,0.0004827612354885305,1.5708762776457716
13.369863727999999,13.064999999999998,0.0698175926337296,5044.728638575255,306.99820619829813,0.0008774239265566172,24.38399486822644,-0.015795456410241798,-1.023964014752212e-05,0.0006477793800964807,1.5708766699889383
13.503461129999998,13.196999999999989,0.07019553307413372,5055.288620469967,306.99055500641094,0.0008644270183226975,24.383991051757313,-0.02087200504925727,-1.00930650928663e-05,0.0008559712519698053,1.5708772029931966
13.604817981000004,13.298999999999992,0.07048375486882222,5063.44860639247,306.98318779033644,0.0008545099571818978,24.383987743369012,-0.024433604979797588,-9.980311127650544e-06,0.0010020343203981713,1.570877609692219
13.739171341000002,13.432999999999993,0.0708573685867823,5074.168587608076,306.97176107991527,0.0008416494442228354,24.383983169807617,-0.0286367975604333,-9.83298257439671e-06,0.001174409467539641,1.5708781371020668
13.847460558000002,13.530999999999992,0.07112703143456603,5082.008573608725,306.96227146978003,0.0008323647690167583,24.383979804669423,-0.03137184488667036,-9.725878751358224e-06,0.0012865752226306278,1.570878517866784
13.982504884999997,13.665999999999997,0.07149366226631182,5092.808553953731,306.94782970607713,0.0008197393057611407,24.3839753202651,-0.03468297477113587,-9.57935375991917e-06,0.0014223664549652872,1.5708790356375806
14.083970756,13.766999999999996,0.07176431350894492,5100.888538991825,306.93610714041967,0.0008104167840300056,24.383972183824078,-0.03682229932253488,-9.470578149015801e-06,0.0015101013310964634,1.570879417954963
14.185200907000002,13.86699999999999,0.07202924752525544,5108.888524036565,306.92383064724373,0.0008012914615212369,24.383969346172602,-0.03865595498631434,-9.363637520289543e-06,0.0015853005689105432,1.5708797921855975
14.320505228000002,14.003,0.07238479004906609,5119.768503601746,306.90623433589866,0.0007890448492127468,24.38396600252374,-0.040710750223427086,-9.219500221190205e-06,0.0016695688771214182,1.5708802944214761
14.459697386000002,14.13199999999999,0.07271698099560274,5130.088484340828,306.8887648230708,0.0007776053923230765,24.383963484224306,-0.04219236133412165,-9.084300671637071e-06,0.0017303305934748404,1.5708807635566746
14.560725380000001,14.23299999999999,0.07297372121010404,5138.168469483822,306.87468782587473,0.0007687644775560123,24.383961983265543,-0.04305122149073483,-8.979503219329562e-06,0.0017655529441724675,1.5708811261256053
14.661730900000002,14.332999999999998,0.07322503894806295,5146.168455105421,306.86049618787183,0.0007601113269222207,24.383960930354096,-0.04364366169347343,-8.876714297536043e-06,0.001789849264130955,1.57088148099484
14.796377005000004,14.46799999999999,0.07355984489801796,5156.968436446051,306.8410861750875,0.0007485863847018345,24.383960208074058,-0.04404555244543885,-8.739533478878862e-06,0.001806331048266186,1.570881953638322
14.902871851,14.563999999999993,0.07379481498932403,5164.648423872128,306.827207019319,0.0007405012775695119,24.383960190808466,-0.044055246416976855,-8.643142446200016e-06,0.0018067286157384533,1.5708822852131215
15.038067671999997,14.698999999999998,0.07412098422999265,5175.448407371711,306.8077355769803,0.0007292797112439584,24.383960822026204,-0.043704668554444305,-8.509221222547868e-06,0.0017923512358912238,1.5708827454166845
15.138675075000002,14.798999999999992,0.07435939491609918,5183.448396209503,306.7934460202226,0.0007210798014288412,24.38396176946361,-0.0431729706215731,-8.411285098063702e-06,0.001770546015913786,1.570883081700769
15.273843096,14.933999999999997,0.07467701072712322,5194.248382787942,306.7744816719432,0.0007101591916436517,24.383963645003295,-0.04210053257740914,-8.280824352382151e-06,0.0017265647452166318,1.5708835295633707
15.381269715999998,15.030999999999992,0.07490223296928816,5202.008374452637,306.76118017369294,0.0007024183500530389,24.38396538083067,-0.04108300221189928,-8.188351030205536e-06,0.001684835267930653,1.570883847021673
15.483202945999999,15.132999999999996,0.07513643830904003,5210.168366955576,306.7475619561896,0.000694371764891458,24.383967509834843,-0.039799462028192734,-8.092245037788645e-06,0.0016321965831109842,1.5708841770191024
15.618918690000001,15.268,0.0754422916462519,5220.96835916319,306.7302446441431,0.000683865983145956,24.383970726929213,-0.03777724973477745,-7.966844753935619e-06,0.00154926455765734,1.570884607870731
15.720764478,15.36999999999999,0.07567031149863905,5229.128354966867,306.7177834184425,0.00067603626045326,24.383973397928607,-0.03601211040731022,-7.873469108266996e-06,0.0014768752409662254,1.57088492897499
15.856073878000004,15.50399999999999,0.07596589648860967,5239.848351756789,306.7023550786897,0.0006658906215103695,24.383977126727473,-0.033392212153628746,-7.752586062048385e-06,0.001369431811170896,1.5708853450573383
15.961388901,15.597999999999999,0.07617057483458205,5247.3683511092695,306.692249019335,0.0006588694940658734,24.383979833319053,-0.031353695040143195,-7.669017608124018e-06,0.0012858311427874755,1.5708856330005494
16.062357761999998,15.697999999999993,0.076385969939183,5255.36835182641,306.6821983750026,0.0006514809343375439,24.383982721888675,-0.02902058268917427,-7.581225716813918e-06,0.0011901489773897393,1.5708859360124883
16.197542695000003,15.832999999999998,0.07667293371764031,5266.168355089167,306.66988005391005,0.0006416400408559326,24.383986547624335,-0.025605342930876605,-7.4644469063629695e-06,0.0010500882153631197,1.5708863395968578
16.298575778,15.932999999999993,0.07688269674690378,5274.168359160935,306.6617555978179,0.0006344491425210226,24.38398925253227,-0.02288514537120072,-7.379239965181203e-06,0.0009385315098936803,1.5708866345022374
16.406191589000002,16.03099999999999,0.07708597710784136,5282.008364447701,306.65467745303147,0.0006274816406614747,24.38399173195079,-0.020070436877491653,-7.2968050449426946e-06,0.0008230988740681586,1.5708869202457099
16.542180762999998,16.165999999999997,0.07736237133989037,5292.808373681661,306.6464358636,0.0006180117896174136,24.383994768542813,-0.01596075665060532,-7.1849477187490805e-06,0.0006545588021572025,1.570887308612317
16.643696953000003,16.268,0.07756843558556159,5300.968382012603,306.6414356433378,0.0006109528524198345,24.38399669145282,-0.012687709364602447,-7.101721568150694e-06,0.0005203294846082589,1.570887598104893
16.779390137,16.40299999999999,0.07783754969448037,5311.768394584486,306.636533892421,0.0006017361701762343,24.383998632449757,-0.008144361024807088,-6.9932395949421756e-06,0.00033400449522748066,1.5708879760876493
16.880504867,16.50399999999999,0.07803622797580857,5319.848404939945,306.63420157771276,0.0005949333283338983,24.383999559570846,-0.004596185148649817,-6.913300502217065e-06,0.00018849203437134823,1.5708882550765326
16.985189755,16.59899999999999,0.07822103625542919,5327.448415259231,306.63310144210493,0.0005886080141287172,24.383999965982138,-0.0011456606257101492,-6.839068813686122e-06,4.698430751466796e-05,1.570888514481233
17.120310817000004,16.733999999999995,0.07848030867176191,5338.248430526894,306.6333973326977,0.000579733324376173,24.383999677178018,0.00392521412011208,-6.735131930828892e-06,-0.00016097478775867568,1.5708888784364097
17.256305046,16.86999999999999,0.07873755287093669,5349.128446173962,306.63599548458836,0.0005709293843164891,24.383998248699275,0.009223962551406655,-6.632205511043187e-06,-0.00037827910466520627,1.57088923948902
17.357680733000002,16.97099999999999,0.07892606000656746,5357.208457630218,306.6394714174431,0.0005644787850476459,24.383996380439843,0.013274037631236609,-6.556902056163618e-06,-0.0005443747164095731,1.5708895040295618
17.495917525000003,17.09899999999999,0.07916188656118249,5367.448471513506,306.64583398495813,0.0005564120470534065,24.383992945488508,0.01853981626219375,-6.462851440821576e-06,-0.0007603269648216348,1.5708898348473488
17.598079882999997,17.200999999999993,0.07934741252016175,5375.60848172546,306.6524876335852,0.0005500648079699205,24.383989307071314,0.022829149681193293,-6.388989513034176e-06,-0.0009362347267578981,1.5708900951475018
17.732554469,17.333,0.07958435377728341,5386.168493303752,306.6632546664162,0.0005419598675124735,24.38398334258767,0.028496573498799884,-6.294769493963671e-06,-0.0011686587281354488,1.5708904275298654
17.867106139,17.46799999999999,0.07982307952023422,5396.96850260531,306.67681757557483,0.0005337942411017417,24.38397570971853,0.03441370271517079,-6.199969756721995e-06,-0.0014113233462059083,1.5708907623996573
17.973422188,17.564999999999998,0.07999237271679072,5404.728507279791,306.68819793514615,0.0005280046363807296,24.38396922938337,0.03873424466597915,-6.132826408230731e-06,-0.001588511122912105,1.570890999828719
18.074701526,17.665999999999997,0.08016670749306083,5412.808510035757,306.7015058053278,0.0005220418460752934,24.383961574351957,0.04328588699832145,-6.0637295022099224e-06,-0.001775176506414962,1.570891244359314
18.21089389,17.801999999999992,0.08039835323018835,5423.688509764664,306.7218160532416,0.0005141187026979851,24.38394976847652,0.04949165696817093,-5.9720156539517615e-06,-0.002029678685732691,1.5708915692816832
18.312474099,17.90299999999999,0.08056810319978037,5431.768506161989,306.738700027382,0.0005083128892945802,24.38393986768144,0.054150447157709204,-5.904860302950993e-06,-0.002220738424460485,1.5708918073730156
18.451418166000003,18.03099999999999,0.0807804638445482,5442.008496817584,306.76233642161543,0.0005010496237812564,24.38392591401267,0.060106313349462794,-5.82089210306405e-06,-0.002464992135865112,1.5708921052321363
18.553308149000003,18.132999999999996,0.0809475306836336,5450.168485177309,306.78295327337594,0.0004953367963152055,24.38391366109612,0.06488700074109484,-5.754892913296145e-06,-0.0026610511528973634,1.5708923395085468
18.689625721,18.268,0.08116571973082155,5460.968463349463,306.8127080531397,0.00048787395295144816,24.38389589779407,0.07125031602925158,-5.668722101741883e-06,-0.0029220149023526164,1.5708926455499872
18.790370174000003,18.367999999999995,0.08132521537106081,5468.968442021731,306.8365716030257,0.0004824185327692134,24.38388160591135,0.07598418378178683,-5.605754796478859e-06,-0.0031161540639816562,1.5708928692688517
18.892671864,18.47,0.08148606966264983,5477.12841538574,306.86250858728556,0.0004769164717171677,24.38386604167606,0.08082471257336582,-5.542272256011182e-06,-0.0033146675897198032,1.5708930948997333
19.030902804,18.59899999999999,0.08168686098120524,5487.448374025181,306.89764823197265,0.0004700492090248337,24.383844947376954,0.08695608861966188,-5.463037903698086e-06,-0.003566119867619429,1.5708933765144757
19.166832818000003,18.735,0.08189543583497615,5498.328320546976,306.93748869096015,0.00046291396234389047,24.38382103539481,0.09342108735699928,-5.380754241988905e-06,-0.0038312545044150133,1.570893669117748
19.268368358000004,18.836,0.0820482790706839,5506.408273765314,306.96894473534064,0.00045768519964154645,24.383802192288403,0.09821628118701949,-5.320460629694252e-06,-0.004027909313789057,1.5708938835389856
19.369644756,18.936999999999998,0.08219939588631767,5514.4882206147395,307.00198878295737,0.00045251526987866267,24.38378244939911,0.10300124086784603,-5.2608423486321665e-06,-0.004224144567862203,1.5708940955470803
19.507802358,19.064999999999998,0.08238844646221381,5524.72814356416,307.04615458264044,0.00044604851235282244,24.383756179254657,0.10904307275400763,-5.186263063504439e-06,-0.004471925450526528,1.570894360734693
19.609306099,19.165999999999997,0.08253572103493038,5532.8080748433085,307.0827823815829,0.000441009513630085,24.383734496437587,0.1137884562030769,-5.1281510493963785e-06,-0.004666538025280492,1.57089456737253
19.745818598,19.301999999999992,0.08273140980751756,5543.6879706735535,307.1345784732643,0.0004343133830339905,24.3837040331035,0.12013924171214367,-5.05093437529572e-06,-0.004926989905096783,1.5708948419649262
19.84701809,19.40299999999999,0.0828748096497972,5551.767884288629,307.1748767772097,0.00042940638361514954,24.38368051616596,0.12482107664000527,-4.994337256615465e-06,-0.005118996714442903,1.5708950431888806
19.947843959000004,19.503,0.08301519079156941,5559.767790894163,307.2163037067204,0.0004246024460425806,24.383656522887456,0.1294233115641818,-4.93891446796156e-06,-0.005307739230850091,1.5708952401862055
20.087370522,19.63199999999999,0.08319395651530098,5570.087658441953,307.271975923632,0.0004184856412381972,24.38362459742095,0.1353045340452114,-4.868324579001974e-06,-0.005548934654577038,1.570895491020487
20.256553349,19.800999999999988,0.08342427938779372,5583.60746394834,307.3486406456946,0.0004106027736816381,24.38358123261585,0.14290592655786236,-4.777334534324618e-06,-0.005860676630237287,1.5708958142758505
20.358014714,19.901999999999987,0.08355985045507157,5591.687335929394,307.39646241028413,0.00040596259717840135,24.383554565885976,0.14738577838840214,-4.72376232451599e-06,-0.0060444008456233475,1.5708960045568656
20.494151819000002,20.03099999999999,0.08373076805659115,5602.007159171622,307.45970193492195,0.00040011244848931306,24.383519781992664,0.15303228776504685,-4.6561807661383445e-06,-0.00627597140901308,1.570896244455359
20.629630622999997,20.165999999999997,0.08390701155469667,5612.806958092822,307.5284140792999,0.0003940805063355871,24.38348261028608,0.15884469960901396,-4.5864841605706564e-06,-0.006514346196212852,1.5708964918085517
20.732072637,20.268,0.0840384105409043,5620.966794992453,307.58202732403146,0.000389582288493911,24.383454064691694,0.16316777657662213,-4.534499682261217e-06,-0.006691641606928159,1.5708966762679208
20.867130586000002,20.401999999999987,0.08420875139793563,5631.68656581161,307.6546500930298,0.00038375070992058025,24.38341606696743,0.16875057898408985,-4.467071054079406e-06,-0.0069206004257542225,1.570896915404699
20.968305745000002,20.50399999999999,0.08433670611734986,5639.846379913595,307.71156255972704,0.0003793703650372313,24.383386833483268,0.1729230603786549,-4.4164017097063195e-06,-0.007091720171965676,1.5708970950304781
21.106072298999997,20.631,0.08449396541694931,5650.006134322576,307.7843793109331,0.00037398761543931257,24.38335016287386,0.17801880471166173,-4.354122299087905e-06,-0.007300704604337766,1.5708973157622108
21.24238939,20.766999999999996,0.08465991395965276,5660.885854099981,307.86467403590586,0.0003683057615149339,24.383310625579607,0.18335430419349005,-4.288371806010349e-06,-0.007519522111939794,1.5708975487595949
21.344180617,20.867999999999995,0.08478151933699556,5668.965634287283,307.92583673090195,0.0003641421658296991,24.383281174194078,0.18722993246716577,-4.24016669811113e-06,-0.007678468153369644,1.570897719497522
21.479921618,21.00399999999999,0.08494309910180164,5679.845322537222,308.01020360838197,0.0003586095255491671,24.383241489129745,0.19232876591904424,-4.17608761492112e-06,-0.007887580195254245,1.5708979463766142
21.618811137,21.13199999999999,0.08509291656211532,5690.085012456377,308.09167909743695,0.00035348067910936,24.383204238425648,0.19699477731968093,-4.116656536455629e-06,-0.008078941753162393,1.5708981566975633
21.720301884999998,21.23299999999999,0.08520962700949324,5698.164756548941,308.1573324306556,0.0003494843521149226,24.38317495097188,0.20058710869993313,-4.07034129598369e-06,-0.00822626995495343,1.5708983205770615
21.854726100999997,21.366,0.08536130107040263,5708.804404383421,308.24558834137565,0.00034429079325981615,24.383136640216016,0.20519129132938269,-4.010132913439559e-06,-0.008415096323214914,1.5708985335525245
21.956036485,21.46799999999999,0.08547609840708524,5716.964122744068,308.3146181519883,0.00034035980367766363,24.383107512442404,0.20862387410896446,-3.964546073901724e-06,-0.008555873327515343,1.570898694753403
22.096898223000004,21.598,0.08562049986466902,5727.363749247507,308.4042545238903,0.0003354155425410749,24.38307081203367,0.21287006099159156,-3.907182090292951e-06,-0.008730018079455393,1.5708988975067375
22.198810631,21.69999999999999,0.08573233788889073,5735.523445044959,308.4758329626333,0.00033158577019124543,24.38304238156438,0.21610207982317245,-3.862752829419795e-06,-0.008862569916220071,1.5708990545577424
22.299901292999998,21.800999999999988,0.0858418191200516,5743.603134205532,308.54776787975067,0.00032783651850167375,24.38301460458676,0.21921378845848108,-3.819237267374493e-06,-0.00899018772814944,1.570899208307148
22.434900946,21.934999999999988,0.08598516186405944,5754.322707260226,308.6447793609264,0.00032292801245135244,24.382978411479215,0.22320322818955712,-3.7622509902861305e-06,-0.009153803380165254,1.5708994095959081
22.540584657000004,22.03099999999999,0.08608652654545292,5762.00239131569,308.71535282140246,0.00031945664194691866,24.382952985871192,0.2259636846057829,-3.721941578496253e-06,-0.009267015881191219,1.5708995519508484
22.642094844,22.13199999999999,0.08619200320430465,5770.082050114548,308.79052437891505,0.00031584536682072645,24.382926745897038,0.2287776310725651,-3.679995523098184e-06,-0.00938242225088076,1.5708997000434635
22.777381761,22.266999999999996,0.08633112755658315,5780.881580168404,308.8924373060848,0.0003110809402017338,24.38289250746781,0.23239809060536107,-3.624651804563098e-06,-0.009530905747602915,1.5708998954256634
22.913306159999998,22.40299999999999,0.08646916237340464,5791.761091088107,308.99669840326743,0.0003063536545658504,24.382859082033498,0.23587897715246506,-3.5697235462707668e-06,-0.009673665228809658,1.5709000892855893
23.052464927000003,22.53099999999999,0.08659714767670627,5802.000616753111,309.09623107251014,0.0003019707481891177,24.38282869250495,0.23899970876391963,-3.518782468129916e-06,-0.009801654062988824,1.5709002690237435
23.187309188999997,22.664999999999992,0.08672918101477185,5812.720106277734,309.201800979701,0.000297449870139399,24.382798049504387,0.24210573852512743,-3.4662209380011163e-06,-0.009929040097572756,1.5709004544207843
23.289399480999997,22.76599999999999,0.08682739139661226,5820.799712392711,309.28226126228276,0.000294086547053884,24.382775764414927,0.2443397957585458,-3.4271242740803876e-06,-0.010020664461850098,1.570900592348119
23.390990355,22.86699999999999,0.08692449128815606,5828.87931091733,309.3634521212937,0.0002907613718291186,24.382754220549362,0.2464802948685099,-3.3884596882101397e-06,-0.010108451848793578,1.5709007287115255
23.526961104,23.003,0.08705350972789941,5839.758758781907,309.47387671896837,0.0002863428050580416,24.382726407644768,0.24921646809196038,-3.3370706114211588e-06,-0.010220669480755014,1.5709009099150173
23.664821316,23.131,0.08717313520360018,5849.99822744318,309.5789042787602,0.00028224687668554685,24.382701574064512,0.2516343984177665,-3.289426322385676e-06,-0.010319835245197886,1.570901077888069
23.765977839,23.232,0.08726632589457238,5858.077800667241,309.66247741619384,0.00027905544223958453,24.382682875588223,0.25343975742280755,-3.25229685579098e-06,-0.010393877894142336,1.570901208768582
23.900894137999998,23.36699999999999,0.08738924486079151,5868.877220301902,309.7750976142518,0.0002748458803340922,24.38265917927607,0.2557093501264471,-3.2033202853009462e-06,-0.010486960102167996,1.5709013814031882
24.002708126,23.46799999999999,0.08747999192218933,5876.956779034908,309.85999869638533,0.00027173812491334106,24.382642441479728,0.25730040250150976,-3.1671565371383198e-06,-0.010552213568736249,1.5709015088531477
24.108924713999997,23.564999999999998,0.08756617329899218,5884.716349811332,309.9420278630443,0.0002687871964027397,24.38262719413992,0.25874125948444365,-3.1328102191543584e-06,-0.010611307145084809,1.5709016298720437
24.244546636000003,23.69999999999999,0.08768456924356173,5895.515744179606,310.0569321961257,0.00026473253754722966,24.38260728216858,0.26061092354975934,-3.0856171392115763e-06,-0.010687987355307724,1.5709017961561234
24.380521146,23.836,0.08780203796464185,5906.395124922149,310.1734983537897,0.00026070952109196935,24.38258880554933,0.2623338932505579,-3.038783496066187e-06,-0.010758651270921016,1.570901961143358
24.516089281,23.97,0.08791603000506075,5917.114506471383,310.28907852867076,0.0002568057945676359,24.382572180099096,0.26387462236054404,-2.9933299077626244e-06,-0.010821841024615027,1.570902121239216
24.654812819,24.098,0.08802331625215964,5927.353908645905,310.40009670376605,0.00025313228403250074,24.382557782814768,0.2652016282769956,-2.9505467286892274e-06,-0.01087626540760471,1.570902271894409
24.75639123,24.19999999999999,0.08810771834877046,5935.513427788533,310.48894857898347,0.00025024184187257367,24.382547309193836,0.2661628304655437,-2.916896647565619e-06,-0.010915687133190372,1.570902390435488
24.891886300000003,24.334999999999994,0.08821794539665649,5946.312785763233,310.6070229923745,0.0002464669607287762,24.382534837826846,0.2673028646159975,-2.8729342864897486e-06,-0.01096244330547671,1.5709025452493015
25.026154958,24.468999999999994,0.08832571004677901,5957.032142832002,310.72469918786555,0.00024277651340017903,24.38252402107985,0.26828772342692075,-2.8299505049218544e-06,-0.011002835298066773,1.5709026966010662
25.165902849,24.59899999999999,0.08842871053875513,5967.431514348063,310.83925626868904,0.00023924962670630398,24.38251501360906,0.2691050982539655,-2.7888616360391675e-06,-0.011036358288043203,1.5709028412455812
25.267005276,24.69999999999999,0.08850770460686376,5975.511023271916,310.92848697469987,0.00023654439247670076,24.38250898863901,0.26965044595291365,-2.7573520412747208e-06,-0.011058724638087552,1.570902952192947
25.402798165,24.836,0.08861266547899033,5986.39035869181,311.0489068201984,0.00023294975793378446,24.382502217491062,0.2702620206327413,-2.71547501494875e-06,-0.011083807163277191,1.5709030996170659
25.57159385,25.00399999999999,0.08874012074943222,5999.829533401764,311.1980001438894,0.00022858494244626306,24.382495958564398,0.2708261035417613,-2.6646151004025605e-06,-0.011106941915151594,1.5709032786289177
25.676962972,25.098,0.08881038249316689,6007.349069977551,311.2815455566383,0.00022617935067296478,24.382493470535596,0.2710500104255499,-2.636576255909477e-06,-0.011116125018566627,1.570903377288576
25.812891467,25.233999999999995,0.08891074414810884,6018.228397988466,311.4025258636846,0.00022274232629416617,24.382491061725933,0.2712666128754958,-2.596529733886159e-06,-0.01112500854728509,1.5709035182504687
25.914399090000003,25.334999999999994,0.08898428790481241,6026.307898104743,311.4924239256552,0.00022022373595161076,24.382490195071266,0.27134450201881855,-2.5671807827675433e-06,-0.011128203021230236,1.570903621545187
26.015510411999998,25.435999999999993,0.0890570000855762,6034.3873978065185,311.5823405908739,0.00021773362215598573,24.382490093924577,0.2713535927221248,-2.538156995085415e-06,-0.011128575862105859,1.5709037236722836
26.154718445,25.563999999999993,0.08914796250410124,6044.626763568656,311.6962854509439,0.00021461902092109422,24.382491057746645,0.2712669771015488,-2.501853354934492e-06,-0.011125023496775504,1.570903851411893
26.290188211,25.69999999999999,0.08924319452674163,6055.506089992586,311.81729431579134,0.00021135765589355387,24.38249332973262,0.2710626881276102,-2.463838723877015e-06,-0.01111664499039972,1.5709039851711861
26.391577607000002,25.800999999999988,0.08931297936026428,6063.585590298533,311.90709295716084,0.00020896778523119187,24.38249583903439,0.2708368804752049,-2.43597836094772e-06,-0.011107383937410457,1.5709040831879135
26.492288959,25.900999999999996,0.08938129462089855,6071.585096259251,311.99592240908436,0.00020662832670304666,24.382498992930593,0.2705527990353476,-2.4087070357678363e-06,-0.011095732901018559,1.5709041791372906
26.63203127,26.03099999999999,0.08946895853434336,6081.984455430563,312.1112488912335,0.00020362619514019309,24.382504050973402,0.27009658054997765,-2.3737056963445977e-06,-0.011077022007566682,1.5709043022655165
26.734212327999998,26.132999999999996,0.089536853792921,6090.1439540173515,312.20159219076635,0.0002013012886092569,24.38250874990718,0.26967206047359316,-2.346598217699232e-06,-0.011059611163875781,1.570904397618535
26.835580935000003,26.235,0.08960397377882288,6098.303454072199,312.29178760173187,0.00019900257774887458,24.382514056676122,0.26919182084845666,-2.3197963973770455e-06,-0.011039915097792799,1.5709044918973571
26.971302827000002,26.370999999999995,0.08969227633407166,6109.182790117725,312.4117859875903,0.0001959784027903718,24.38252205060447,0.2684667826772814,-2.2845322999317403e-06,-0.011010179117252559,1.5709046159304756
27.072026270000002,26.47099999999999,0.08975634506375635,6117.18230409676,312.49980572888114,0.00019378434751405588,24.38252857346302,0.2678737141434665,-2.258943869083123e-06,-0.01098585561246496,1.570904705917358
27.176385256000003,26.564999999999998,0.08981590982753246,6124.701849115748,312.5823608706159,0.00019174502462957898,24.382535190572405,0.26727073119655315,-2.2351586851896657e-06,-0.01096112549448571,1.570904789558189
27.311547394,26.69999999999999,0.08990037009609642,6135.501199116158,312.7005920201823,0.00018885251960105702,24.382545427840075,0.2663351716759869,-2.201427255634838e-06,-0.010922755438270686,1.5709049081916426
27.412955570999998,26.800999999999988,0.08996272429199828,6143.580715694824,312.78876878451365,0.00018671709238631253,24.382553642995614,0.2655820242412626,-2.1765240384354317e-06,-0.010891866651281397,1.5709049957743835
27.54838255,26.936999999999998,0.09004557545131062,6154.460068941771,312.9070983368986,0.00018387959542090487,24.38256540703143,0.2644997883640391,-2.1434305328609305e-06,-0.010847480999134795,1.5709051121520923
27.652948371,27.03099999999999,0.09010209572438942,6161.9796249411065,312.98859450394997,0.00018194395697045975,24.382573989627684,0.2637074273695457,-2.1208525761567513e-06,-0.010814983975490449,1.5709051915408885
27.788749926999998,27.166999999999987,0.09018282909744137,6172.858987099085,313.1060672049881,0.00017917953230753625,24.38258700795574,0.26250098549346673,-2.0886070578533076e-06,-0.010765504314597236,1.5709053049218784
27.924278045999998,27.301999999999992,0.09026175440465638,6183.658359602926,313.22213276198795,0.0001764765477059287,24.382600573667972,0.2612378874607111,-2.0570809693360405e-06,-0.010713701049392996,1.5709054157830769
28.025380298,27.40299999999999,0.0903200223693684,6191.737893999533,313.3085959836813,0.00017448103607233667,24.382611113753388,0.2602522719366489,-2.0338036649509737e-06,-0.010673278155793033,1.5709054976277956
28.164423127,27.53099999999999,0.09039291552176028,6201.9773088959655,313.417694538074,0.00017198461313883525,24.382624914004126,0.25895612259386575,-2.0046818373174405e-06,-0.010620119414232755,1.5709056000171708
28.265855056,27.63199999999999,0.09044970047631455,6210.05685121232,313.5033939424585,0.0001700403309360244,24.382636126757156,0.25789819942188386,-1.9820005044654556e-06,-0.010576731021986741,1.5709056797608585
28.400750963,27.76599999999999,0.09052404848040421,6220.776249650606,313.6165465955428,0.00016749423211806725,24.38265138909848,0.2564511837792671,-1.9523010669981303e-06,-0.010517384889915445,1.5709057841877825
28.502622215000002,27.867999999999995,0.09057989623450918,6228.935803303097,313.70223376552235,0.00016558143070176043,24.382638943014324,0.25763180549988507,-1.9305336855224903e-06,-0.01056580511237917,1.5709058626335959
28.603650862000002,27.968999999999994,0.09063456705920472,6237.01536291572,313.78819461073385,0.00016370846944235078,24.38257910183307,0.26323433680677916,-1.909365777922424e-06,-0.01079558083691813,1.5709059394324816
28.742383787999998,28.098,0.0907034906248711,6247.334770525617,313.9006421313254,0.00016134670535874557,24.382505596730528,0.26995703249401803,-1.8827334392393525e-06,-0.011071298438995736,1.5709060362753013
28.843587990000003,28.198999999999998,0.0907567630703819,6255.414284431873,313.9906182467457,0.00015952020377826633,24.38245037945907,0.2748990138055854,-1.8620349456622228e-06,-0.01127398422280295,1.570906111170818
28.944699733,28.299999999999997,0.09080943240022105,6263.493779406952,314.08220180589916,0.0001577140428026633,24.382397475946252,0.27955196318044817,-1.8414470421560328e-06,-0.011464816345654322,1.5709061852330541
29.114721422000002,28.47,0.09089674196377351,6277.09288887389,314.23971535926466,0.00015471890225365789,24.382313937784385,0.2867455586571255,-1.8071447840973875e-06,-0.011759849201057824,1.5709063080515955
29.219303183,28.563999999999993,0.09094429838610796,6284.612375641568,314.32850238225944,0.0001530875626923795,24.382271024369377,0.2903716080877474,-1.7883658317646788e-06,-0.011908565723857092,1.5709063749472214
29.355427421,28.69999999999999,0.09101222665832383,6295.491609239177,314.4588601891057,0.00015075654037009908,24.38221298450261,0.29520493838436695,-1.7614436278184258e-06,-0.01210679731984768,1.5709064705356712
29.490161000999997,28.83399999999999,0.09107814239211487,6306.2108280584325,314.5893363650148,0.0001484943949656067,24.382160854604688,0.29947961225102,-1.7352131084956719e-06,-0.012282116881007301,1.5709065633011619
29.592193621,28.935999999999993,0.09112765461681328,6314.370217564356,314.6898719178413,0.00014679501334971282,24.38212459841475,0.30241700655027104,-1.7154433885944547e-06,-0.012402590076082163,1.5709066329899546
29.731309404,29.064999999999998,0.09118945697681809,6324.689427382243,314.81838310034533,0.00014467421171030523,24.382083217200684,0.30573512816102805,-1.690707307687279e-06,-0.012538678497454292,1.570906719961708
29.866742025,29.19999999999999,0.09125318261319582,6335.488581255703,314.95429659836947,0.0001424870667375075,24.382045108643222,0.3087592910444105,-1.6651364036295367e-06,-0.012662710790016797,1.5709068096555328
29.968434863,29.300999999999988,0.09130022781111165,6343.567936719352,315.0568193395191,0.00014087250067425165,24.382020176145193,0.3107219178385195,-1.646217401277408e-06,-0.012743205601183659,1.5709068758690938
30.104679288,29.436999999999998,0.09136273586454828,6354.447055288448,315.19583932074914,0.00013872732422028582,24.38199143382468,0.3129691704881678,-1.6210393781700964e-06,-0.012835374108111596,1.5709069638442876
30.208409736,29.53099999999999,0.0914053771250164,6361.966438083022,315.2924872020954,0.0001372641319677448,24.381974862515474,0.3142575135834396,-1.603840218721073e-06,-0.01288821408403413,1.5709070238516494
30.343794831000004,29.665999999999997,0.09146583898347838,6372.765542357468,315.43192690902816,0.00013519004965163484,24.381955704681268,0.31574039447985375,-1.5794308990578634e-06,-0.012949032859712087,1.5709071089135092
30.445955954000006,29.766999999999996,0.09151047495133037,6380.844866270858,315.5366451251082,0.00013365874302930303,24.3819448469001,0.3165777390765064,-1.5613984504648297e-06,-0.012983375678122232,1.5709071717159824
30.546844502999996,29.867999999999995,0.09155460533043436,6388.924186202057,315.64161670635775,0.00013214488743422482,24.38193695666181,0.3171848418965556,-1.5435551291482866e-06,-0.013008275382106024,1.5709072338034353
30.648148311000007,29.968999999999994,0.09159823590224508,6397.00350314072,315.74676562249294,0.00013064846414830283,24.38193201760375,0.3175642799526388,-1.5259087594918068e-06,-0.013023837655695534,1.5709072951766083
30.787734953000005,30.09899999999999,0.09165366442490712,6407.4026211315595,315.88224636911133,0.0001287478492086551,24.38192993587616,0.31772407128178065,-1.503483140002462e-06,-0.013030391348368671,1.5709073731279362
30.889866786000006,30.19999999999999,0.09169617341140415,6415.481934922677,315.9875219343707,0.0001272901881267132,24.381931464512828,0.3176067436601902,-1.486285874221091e-06,-0.013025579286794993,1.5709074329127477
31.024359331000007,30.334999999999994,0.09175224204922339,6426.281018124098,316.1281295479669,0.00012536789080880713,24.38193775888012,0.3171231722870126,-1.463599942851786e-06,-0.013005746117923796,1.570907511755136
31.125832572,30.436999999999998,0.09179404336150201,6434.440326941369,316.234194646654,0.000123934965997792,24.38194563014136,0.31651741420286156,-1.4466907471465503e-06,-0.012980901589940728,1.5709075705267093
31.229122366000006,30.53099999999999,0.09183213824758693,6441.9596920183285,316.3317414444077,0.00012262920250643384,24.381955194104528,0.31577982466255994,-1.4312814907254178e-06,-0.012950650142423043,1.5709076240832072
31.364684394,30.665999999999997,0.09188615404919026,6452.758784922719,316.47139937265933,0.00012077845889996951,24.38197266752619,0.31442777460143273,-1.4094464548477863e-06,-0.012895197277049238,1.5709076999930414
31.466632802,30.766999999999996,0.09192603184586862,6460.83811102826,316.57546668287006,0.00011941200705753616,24.381988423775912,0.31320358973107154,-1.3933332151693496e-06,-0.012844988696205178,1.5709077560397384
31.567682397000006,30.867999999999995,0.0919654584967959,6468.917442050531,316.6791094961553,0.00011806116575350056,24.382006407628143,0.31180045616403496,-1.377409368711237e-06,-0.01278744077176396,1.5709078114465567
31.669189854000003,30.96799999999999,0.09200405465014536,6476.916785280824,316.78124946834834,0.00011673891857009311,24.38202631106427,0.3102401536942953,-1.3618262967059098e-06,-0.012723446792280253,1.5709078656809161
31.809302921999993,31.09899999999999,0.09205396114226659,6487.395934476133,316.9142419524148,0.00011502963446483493,24.382055404092828,0.30794522002857194,-1.3416906652922468e-06,-0.012629322866724383,1.5709079357908142
31.910976268000006,31.19999999999999,0.09209194088624278,6495.475286734788,317.01608480260364,0.00011372874798807448,24.38207996701131,0.3059942309157144,-1.3263769050599222e-06,-0.012549305497527589,1.5709079891497721
32.046118940999996,31.334999999999994,0.09214203627815888,6506.274433316302,317.1511676786622,0.00011201314955248461,24.382115558570558,0.3031449751959566,-1.3061935268109293e-06,-0.012432446993689636,1.5709080595195672
32.146546089999994,31.434999999999988,0.09217865528387642,6514.273811055408,317.25039304864674,0.00011075921184860185,24.38214381365949,0.30086381932760736,-1.29144426346995e-06,-0.012338888485197319,1.5709081109534173
32.285724287,31.564999999999998,0.0922256459734163,6524.67301569614,317.37823517485765,0.0001091504113474828,24.382182770268408,0.29769001551035973,-1.2725391661713083e-06,-0.012208719412328548,1.5709081769433044
32.421006236000004,31.69999999999999,0.09227372474973562,6535.47220694407,317.50953041756196,0.00010750426158007606,24.38222557954753,0.2941628401462998,-1.253204307555156e-06,-0.012064057546884981,1.5709082444655011
32.522053096,31.799999999999997,0.09230886975139906,6543.471619850329,317.60575906935304,0.00010630103930745087,24.382258713085196,0.29140356364147657,-1.2390818257094872e-06,-0.011950890089585947,1.5709082938197632
