Real_time_s,Simulation_time_s,x_ft,y_ft,alt_ft,vx_fps,vy_fps,vz_fps,roll_rad,pitch_rad,yaw_rad,adsb_x_ft,adsb_y_ft,adsb_alt_ft
0.0,0.0,-600.0,9000.0,300.0,17.428202093982456,-67.79570614553184,8.538309384748846e-12,4.0635751714916613e-13,-1.2197584835355498e-13,-1.3190589224888214,-2833278.40615551,645957.5651089867,-21604692.58795585
0.036361268000007385,0.027000000000015234,-599.4074411288055,8997.694945991077,300.0,17.4282020262412,-67.79570616294606,8.368560871845464e-12,4.063029420393316e-13,-1.1955087000376887e-13,-1.3190589224888223,-2833278.40615551,645957.5651089867,-21604692.58795585
0.06979654700000992,0.060000000000002274,-598.9368808610914,8995.86446161952,300.0000000000105,17.42819031156635,-67.79570917442948,1.9619019513029665e-10,-1.7271290982427574e-05,-2.794713475939327e-12,-1.3190590958183677,-2833278.40615551,645957.5651089867,-21604692.58795585
0.10368226200000663,0.09399999999999409,-597.7691945989203,8991.322148465086,300.0000000001048,17.428186211096556,-67.79571022853405,1.0553899319525366e-09,-4.9603288269968415e-05,-1.503748444463119e-11,-1.319059155967894,-2833278.40615551,645957.5651089867,-21604692.58795585
0.17167391700000678,0.16200000000000614,-595.4163906942615,8982.169727267019,300.0000000010965,17.428364547512537,-67.79566438349342,6.789185604784309e-09,-0.0001429802221957518,-9.680518459596627e-11,-1.3190565249854052,-2833278.40615551,645957.5651089867,-21604692.58795585
0.273221429000003,0.26300000000000523,-593.6386935485675,8975.254570518267,300.0000000032989,17.42874804796421,-67.79556579512845,1.646539715342767e-08,-0.00023385238654057117,-2.348520180682923e-10,-1.3190508679785102,-600.8277412050593,8996.564912877591,275.6220197316844
0.4091473590000021,0.39699999999999136,-591.8958080659037,8968.475016683591,300.0000000075289,17.429393683712224,-67.79539981312065,3.1590141103876086e-08,-0.0003374861908942641,-4.507065266248951e-10,-1.3190413445441487,-599.8689965381245,8992.83619880321,275.62201973743015
0.5106223970000059,0.4970000000000141,-590.2225689247732,8961.966662760975,300.00000001419295,17.43030468828304,-67.79516559814242,5.1221935063331366e-08,-0.00044626532402553085,-7.309080975550532e-10,-1.319027906817393,-598.8228604962184,8988.768570575347,275.62201974948414
0.6178201849999994,0.5939999999999941,-587.8868395201276,8952.882128201329,300.0000000288942,17.43210518941866,-67.79470265941703,8.588190560586787e-08,-0.0006096738055668664,-1.2256737851219779e-09,-1.3190013486521375,-597.9508398026613,8985.378942275493,275.6220197643015
0.7524782300000084,0.7280000000000086,-586.1261523680997,8946.0348746811,300.00000004478204,17.433898580095107,-67.79424149824357,1.1541530568663851e-07,-0.0007385665480163733,-1.6472902934837157e-09,-1.3189748952606024,-596.5473920835178,8980.266401474004,275.48708370937925
0.8543934719999982,0.8300000000000125,-584.3478367929939,8939.119876941337,300.00000006526,17.436107452545265,-67.79367342857329,1.4563404193913667e-07,-0.0008711193028035845,-2.078697937792171e-09,-1.3189423130951763,-595.6679517446296,8976.856729350879,275.4845583601428
0.9561659370000086,0.9310000000000116,-582.5867205399559,8932.272733772284,300.0000000898362,17.438702726038493,-67.79300588768687,1.7371877464993372e-07,-0.0010029269966184819,-2.479647724076741e-09,-1.3189040309747924,-594.7001660269362,8973.106193285123,275.48178047859693
1.0602281399999924,1.0270000000000152,-580.3195243882371,8923.459685396287,300.0000001270945,17.442650542277313,-67.79199025067757,2.026128640436176e-07,-0.0011704776536795337,-2.892135618449629e-09,-1.3188457972031973,-593.7319259528141,8969.355774157239,275.47900259809114
1.1621036669999967,1.1289999999999907,-578.5402728995443,8916.544928408455,300.0000001596892,17.446206175417966,-67.79107529907328,2.153528205753986e-07,-0.0012983954869901177,-3.0739561009476835e-09,-1.318793347745855,-592.7631707290652,8965.605487648829,275.4762247164736
1.2641201529999933,1.2309999999999945,-576.7606455690552,8909.630268139243,300.00000019395526,17.4501629083803,-67.79005690091628,2.16247947931956e-07,-0.001421848370286078,-3.086618039719463e-09,-1.3187349808119722,-591.2592509211499,8959.924205600957,275.0483456232889
1.4007039630000122,1.3669999999999902,-574.9806017980037,8902.715715061773,300.0000002283241,17.45450745731417,-67.78893840168084,2.0215100679614955e-07,-0.0015396888910794604,-2.8851578132886926e-09,-1.318670892085966,-590.2635033952531,8956.080690955692,275.0253371610008
1.5027258530000154,1.4679999999999893,-573.2175598732173,8895.869067468067,300.0000002606724,17.459176796670167,-67.78773595452263,1.716601482959909e-07,-0.0016499704024366911,-2.4495534333562885e-09,-1.3186020110318188,-589.3577137228845,8952.586732231373,275.0044203693276
1.606043948000007,1.561000000000007,-571.0174339910984,8887.327882171638,300.0000002956556,17.46549541215308,-67.78610824016326,1.087299933491395e-07,-0.001777273554162579,-1.5505840797545162e-09,-1.3185087982728172,-588.3607066924227,8948.743542191603,274.9814118876144
1.7073224720000155,1.6620000000000061,-569.2357884538237,8880.413741638316,300.0000003170644,17.470961688397892,-67.78469958693647,3.4517640628162204e-08,-0.0018719082279099269,-4.905084225077794e-10,-1.3184281575014625,-587.453705365575,8945.249895853538,274.9604950733516
1.8092983040000092,1.76400000000001,-567.4535750428045,8873.499747459353,300.0000003296837,17.476727607839873,-67.78321320656592,-6.076875706126598e-08,-0.00195818174379511,8.706029215686112e-10,-1.3183430944392796,-585.1751076380249,8937.000388947197,275.06147836336953
1.9450462899999934,1.9000000000000057,-565.6707639933929,8866.585907359602,300.0000003312208,17.482767747372293,-67.78165557479609,-1.7680276496752539e-07,-0.0020360594162183183,2.5280633795133484e-09,-1.3182539838820557,-583.9119892920143,8932.178543142209,275.04291687631695
2.0470792370000197,2.0020000000000095,-563.4675945817794,8858.045506620701,300.0000003142129,17.490577577610434,-67.77964072412233,-3.4783868209084704e-07,-0.0021200659874960814,4.971205423221284e-09,-1.31813876191406,-582.5504569884866,8926.986109141088,275.02292754741995
2.2166438830000175,2.1610000000000014,-560.528481997284,8846.658706475222,300.0000002531352,17.50148155215427,-67.77682601253206,-6.216432495042545e-07,-0.0022123700403863583,8.882302267396863e-09,-1.3179778849075672,-581.2849862497739,8922.16487090886,275.0043659916858
2.317533674999993,2.2609999999999957,-558.7606229246276,8839.813301118103,300.0000001917877,17.508267196393586,-67.77507344693676,-8.087325363551598e-07,-0.0022568956858568657,1.1554766914546183e-08,-1.3178777662686532,-577.9095819148505,8910.075458780499,274.5253089808548
2.4533743350000066,2.3969999999999914,-556.39656252422,8830.663780980827,300.00000007747667,17.51755506363268,-67.7726734436225,-1.0808768881748237e-06,-0.0023041644609139516,1.5442213606138913e-08,-1.3177407244278516,-576.6019776505925,8905.149322575591,274.47950659693123
2.593379338999995,2.5270000000000152,-554.6971576322358,8824.089883870301,299.99999997072905,17.52435504547778,-67.77091545387157,-1.2892265436822132e-06,-0.0023297120825398433,1.841840729845806e-08,-1.3176403880763585,-575.1842091423779,8899.812984805292,274.4298873073657
2.6952095830000076,2.6289999999999907,-552.3309081001715,8814.94092964088,299.9999997863346,17.53394601136677,-67.76843467750763,-1.593141729539345e-06,-0.002354628766375844,2.2759728428300988e-08,-1.317498865249509,-573.7652498573775,8894.47695532475,274.3802679773073
2.8304199380000057,2.76400000000001,-549.9458162806621,8805.724545460305,299.99999955654494,17.54371291139266,-67.76590690611113,-1.9100301952039603e-06,-0.0023678738191283315,2.7286400665436226e-08,-1.3173547410257518,-569.059929259401,8877.454495962736,275.17573109445203
2.9662481960000093,2.899000000000001,-548.1912203385829,8798.948012916964,299.9999993586527,17.550933030268116,-67.76403730157972,-2.146413269259181e-06,-0.0023705940416977,3.066309354950864e-08,-1.3172481946423549,-567.5529426973948,8871.833972541599,275.17810923439197
3.0681130549999978,3.0,-545.9442775752036,8790.274325780183,299.99999906928815,17.560189639444232,-67.76163915982708,-2.449047336020453e-06,-0.002366100763207806,3.498620787523166e-08,-1.3171115917114196,-566.1706239806182,8866.682063169674,275.1802891659563
3.1725877500000195,3.093999999999994,-544.1529029529138,8783.36269954581,299.9999988103165,17.56755654173465,-67.75972962659992,-2.6874186103541257e-06,-0.0023570174046620125,3.8391331614630326e-08,-1.317002872371595,-564.9132251719498,8861.99870257932,275.18227089811035
3.3074667829999953,3.2299999999999898,-542.3607772783464,8776.451268014873,299.9999985263808,17.574897954133004,-67.75782585011727,-2.9211446291174283e-06,-0.0023433132504397693,4.173012977250029e-08,-1.316894526144356,-559.3408868051948,8841.793332358498,273.77386362204663
3.4086093870000127,3.3310000000000173,-539.9876957315398,8767.304083512206,299.9999981133099,17.58455067052007,-67.75532141390289,-3.219711021233164e-06,-0.002319040343290327,4.599519601604028e-08,-1.3167520645274249,-557.7569772792937,8835.927249668854,273.7071244750031
3.510877222000005,3.4320000000000164,-537.7364561864072,8758.63151060503,299.9999976839833,17.593610863943987,-67.75296937479898,-3.488458197166269e-06,-0.0022904351581722465,4.983430685993886e-08,-1.3166183429836824,-555.595756024757,8827.928395338318,273.61611650987595
3.6824317509999958,3.593999999999994,-535.9592764787999,8751.788519116299,299.99999732101975,17.600681363509814,-67.75113296457661,-3.6881261986660714e-06,-0.00226461658805792,5.2686636368374394e-08,-1.3165139845641445,-554.0098761791111,8822.062824674873,273.54937731005697
3.7834183280000104,3.694000000000017,-534.1989899861992,8745.013462534585,299.99999694177495,17.607606308443657,-67.74933359552047,-3.87411593420459e-06,-0.0022367736143524587,5.534356566343909e-08,-1.3164117717444133,-552.5674555179003,8816.730672800182,273.48870529334823
3.885002557000007,3.7959999999999923,-532.4204013391285,8738.17083711413,299.99999654002306,17.614516163668707,-67.74753739416782,-4.049266500826045e-06,-0.002206650967687929,5.7845670204791816e-08,-1.316309778935798,-546.5083041088928,8793.24701907127,277.6090714977958
3.98574062900002,3.8969999999999914,-530.0419963544696,8729.02503534205,299.9999959760484,17.623607594588748,-67.74517295085029,-4.261792558585971e-06,-0.002163938595777027,6.088171519919379e-08,-1.3161755808857523,-544.7197758040126,8786.594108221529,277.72326368388616
4.087156355000019,3.9979999999999905,-528.3323102903656,8722.453804577643,299.999995553451,17.630029551782496,-67.7435019827686,-4.398564049610703e-06,-0.002131907566065771,6.283558001479385e-08,-1.3160807839428088,-542.76775757625,8779.336620722375,277.84783696211
4.226375995000012,4.128999999999991,-526.5338322398728,8715.544023328446,299.9999950952923,17.636683708702538,-67.74176991147935,-4.527540857265443e-06,-0.002097434016401489,6.467809894757617e-08,-1.3159825569417327,-540.9776064918876,8772.684132526538,277.96202912172987
4.32776958300002,4.22999999999999,-524.7523197588698,8708.702158562035,299.9999946291181,17.643166671509952,-67.74008173063777,-4.64008096804633e-06,-0.0020627271337651126,6.628582021098698e-08,-1.3158868546441571,-534.8306676798878,8748.67035921113,278.4464762658166
4.42905298300002,4.331000000000017,-522.405373961107,8699.692833075871,299.99999399892755,17.651539999825182,-67.73790031307594,-4.765257973034126e-06,-0.002016639680567693,6.80740817199117e-08,-1.3157632430018475,-532.8603993576243,8741.306203000146,278.57584321772396
4.530401365000017,4.431000000000012,-520.6047131819965,8692.783620316584,299.99999350515066,17.657835425280368,-67.736259502338,-4.843316899157726e-06,-0.0019813024594182334,6.918923146340047e-08,-1.315670303869422,-530.889406053585,8733.942235879842,278.70521016391336
4.6695930319999945,4.560000000000002,-518.344151343567,8684.113472656738,299.9999928751961,17.665576502407774,-67.73424104705587,-4.920096166982584e-06,-0.001937334795070855,7.028611407027945e-08,-1.3155560195438443,-528.9177022554774,8726.578454144486,278.83457710627425
4.770522446000001,4.661000000000001,-516.5420667881667,8677.204631115666,299.9999923670219,17.671624458125024,-67.73266340896721,-4.964388290049938e-06,-0.0019028104377595441,7.091889212234968e-08,-1.3154667290094713,-526.7659628992611,8718.545443853951,278.97570467751825
4.871704854000001,4.763000000000005,-514.7570443028386,8670.36368126172,299.9999918599911,17.677506626974782,-67.73112846387833,-4.994044920279224e-06,-0.0018692465881131174,7.134259405157737e-08,-1.315379884114261,-520.9734266918601,8696.906390004577,281.6823092171116
4.9725823779999985,4.8629999999999995,-512.9891123227488,8663.590615730951,299.99999135562365,17.68322793985938,-67.72963497050048,-5.010059837931892e-06,-0.0018367455461185355,7.157141713066025e-08,-1.315295412220772,-518.8480785140272,8688.976392877266,281.9094614675633
5.107617161999997,4.9979999999999905,-510.6722605206785,8654.718124650299,299.9999906935752,17.69057045935828,-67.72771752042522,-5.011578858674088e-06,-0.0017954674384638408,7.159316776114532e-08,-1.3151870014132099,-516.5287494399048,8680.325687453938,282.1572639259007
5.213416013,5.094999999999999,-508.86764101074533,8647.80994481825,299.99999017872,17.696174731267526,-67.72625342990816,-4.9981838995524755e-06,-0.0017644137275247408,7.140185353680859e-08,-1.315104253409177,-513.6285256457292,8669.51258341567,282.46701700633605
5.348714010999998,5.22999999999999,-506.51370374066056,8638.802443523657,299.9999895105329,17.703335470142402,-67.72438199858384,-4.9626157313697165e-06,-0.001725520156686545,7.08937902135169e-08,-1.3149985213081203,-508.7471617229501,8650.441285642062,282.17419487601035
5.48382503800002,5.364000000000004,-504.1234047764773,8629.659743096263,299.99998883843557,17.710442380192546,-67.722523835424,-4.906844721815357e-06,-0.0016879546460009656,7.009711430771599e-08,-1.3148935811274791,-506.3083280586586,8641.319586963164,282.4023487345897
5.584857069999998,5.465000000000003,-502.42305266297006,8623.158419936408,299.9999883657349,17.715401151353635,-67.72122684984724,-4.856038485263909e-06,-0.0016624517417137396,6.937134957099583e-08,-1.3148203585212173,-504.2754227958248,8633.718313730613,282.59247695783114
5.690045537999993,5.561000000000007,-500.615914295061,8616.2508985957,299.99998786927347,17.720586276947625,-67.71987024545706,-4.792294690170782e-06,-0.0016364767270684432,6.846075931230948e-08,-1.3147437920040401,-502.0386643621162,8625.357060468867,282.80161801261704
5.791722735000008,5.662000000000006,-498.843697412467,8609.478952976693,299.99998738933084,17.725591281825796,-67.71856036439848,-4.720950022624155e-06,-0.001612099336734835,6.74415865679554e-08,-1.3146698837946058,-499.80131134698354,8616.995962910736,283.0107590782953
5.9265581760000146,5.795999999999992,-497.0532536599634,8602.639420001771,299.9999869122613,17.73057047211926,-67.71725684716837,-4.640398607903856e-06,-0.0015885842779616945,6.629088617209246e-08,-1.3145963553676134,-495.85478900391996,8602.396668378069,280.8734048570302
6.028079762999994,5.897999999999996,-494.6415707992639,8593.429958236471,299.99998628350045,17.737160509762628,-67.71553101980552,-4.5196191311904985e-06,-0.0015586164854664868,6.456550848273853e-08,-1.3144990371469554,-493.1387187153594,8592.257998337729,281.02487402399913
6.1670527360000165,6.027000000000015,-492.3709331763267,8584.762443887466,299.9999857076421,17.743246607673434,-67.71393655763458,-4.394249987028768e-06,-0.0015321496909943037,6.277455989961784e-08,-1.3144091586402515,-490.8398951620004,8583.679283642756,281.153040256731
6.268544095999999,6.1270000000000095,-490.5964607482472,8577.991088946384,299.9999852692933,17.74792975892057,-67.71270924748617,-4.289018271963256e-06,-0.001512595090880218,6.127127522568332e-08,-1.314339997183601,-488.33146056539493,8574.320850219608,281.29285798118616
6.369556942000003,6.228000000000009,-488.78602001170543,8571.084432412412,299.99998483330273,17.75264521228754,-67.71147312219483,-4.175744170047831e-06,-0.0014935744887851258,5.965310067733349e-08,-1.3142703574164978,-486.13519187315416,8562.32782822598,283.6264442392154
6.5051791980000075,6.364000000000004,-486.9928559593741,8564.245612132867,299.9999844132895,17.757255392189474,-67.71026425436081,-4.058192844773671e-06,-0.0014756513304501864,5.797381976173011e-08,-1.3142022711435182,-483.411322170521,8552.016725933347,283.8678046215838
6.606496305999997,6.465000000000003,-484.6841383564183,8555.443349740335,299.99998389069776,17.763106948588543,-67.70872939329033,-3.899817848275968e-06,-0.0014538180498033064,5.571134885612019e-08,-1.3141158496271936,-481.3155428248103,8544.085238682788,284.0534664688949
6.7116301080000085,6.561000000000007,-482.88992181256947,8548.604805514751,299.9999834991389,17.767592069735965,-67.7075525817442,-3.771744183843217e-06,-0.001437760532845524,5.388174324685166e-08,-1.3140496076409334,-478.59037479336945,8533.774477178016,284.29482689071233
6.846590402000004,6.694999999999993,-480.49100775555905,8539.464361786206,299.99998299635604,17.773510769368272,-67.70599914007923,-3.594693324047277e-06,-0.0014173917695588024,5.135246942207432e-08,-1.3139621909771408,-476.1241669437851,8525.15218671871,287.2238313859471
6.948150421999998,6.796999999999997,-478.6957440809401,8532.626092380344,299.99998263608467,17.777883505092483,-67.70485110202875,-3.4582956819158687e-06,-0.0014029158756297645,4.940394789543659e-08,-1.3138976062518406,-473.6225474225641,8515.717950347442,287.54570905957144
7.083455724000004,6.932000000000016,-476.90004023512427,8525.787938548687,299.9999822897582,17.78221135479499,-67.70371455130328,-3.3190499489021047e-06,-0.0013890346764375903,4.741473765533263e-08,-1.3138336834094773,-471.30957633025514,8506.997372080259,287.84324306230894
7.185756630000014,7.027000000000015,-474.5880947338916,8516.98652342433,299.99998186504047,17.787717321077317,-67.70226818409989,-3.13616937506209e-06,-0.0013719622153328783,4.4802174771420476e-08,-1.3137523580982164,-468.9961106425228,8498.2769238049,288.14077708230974
7.2870745529999965,7.128999999999991,-472.7736103254309,8510.080928123498,299.99998154851113,17.79199068990088,-67.70114527906813,-2.990201678963262e-06,-0.0013591220281656457,4.2716932872563e-08,-1.3136892375450797,-466.4717545735021,8488.763858754439,288.46535967008913
7.422476880999994,7.265000000000015,-470.9586913570065,8503.17544702045,299.999981246984,17.79622376282703,-67.7000326782074,-2.842437553903814e-06,-0.0013467082276618374,4.0606027141535015e-08,-1.313626711157518,-463.7845358373496,8481.72315780298,284.65986534688597
7.524093213000015,7.36699999999999,-468.55593075541714,8494.036013685203,299.9999808712774,17.801766547105927,-67.69857541116723,-2.6446459809545278e-06,-0.0013308663701419084,3.7780444820138474e-08,-1.3135448375738186,-460.82140934697435,8470.692974885038,284.8641717767538
7.659028217000014,7.5020000000000095,-466.2948717624259,8485.438356306126,299.9999805425066,17.806919852759332,-67.6972201076796,-2.4568852272051823e-06,-0.001316494981372578,3.509815730802849e-08,-1.3134687154773843,-458.4926910959984,8462.026546632846,285.0246982778427
7.794451777999996,7.628000000000014,-464.49624396058687,8478.600970976066,299.9999802980297,17.810979175819174,-67.69615222290213,-2.3066683527975047e-06,-0.001305361433316726,3.295220900377365e-08,-1.3134087520804076,-456.3752485408949,8454.14808760473,285.17063147677953
7.895181527000005,7.728000000000009,-462.7328343881163,8471.899084167406,299.99998007321466,17.81492443548361,-67.69511409535255,-2.1589577150180143e-06,-0.0012946824453575988,3.0842062343394885e-08,-1.31335047269656,-454.95489975323125,8447.650133455954,285.7632273416799
7.99656609500002,7.829000000000008,-460.91558276214505,8464.994216561881,299.9999798568432,17.818955625442772,-67.69405310276291,-2.006475223166242e-06,-0.0012838747566256518,2.8663746013345672e-08,-1.3132909230272043,-452.66192011837194,8439.081232875944,285.9379002789976
8.098498366000001,7.931000000000012,-458.49194325770117,8455.787894182813,299.9999795925848,17.824278260307086,-67.69265181397418,-1.8031397727096787e-06,-0.0012697246096088713,2.5758959414914562e-08,-1.3132122944060995,-450.3684842266535,8430.51245247052,286.1125732339806
8.203795194999998,8.027000000000015,-456.7985277232514,8449.357120984032,299.9999794245584,17.8279603845553,-67.69168216014874,-1.6614358235777488e-06,-0.0012599852668408113,2.373462074155373e-08,-1.3131578992750406,-448.07458268161844,8421.943794745208,286.2872462070737
8.339238402999996,8.162000000000006,-454.97994992364767,8442.452602542719,299.9999792589886,17.83188322668205,-67.69064887980001,-1.5095964020138176e-06,-0.0012496353024840734,2.156548901575354e-08,-1.313099947220155,-445.5716212020083,8412.596306074198,286.477798561781
8.441411654999996,8.26400000000001,-452.5723949671695,8433.314430990333,299.99997906367463,17.83702570812592,-67.689293977048,-1.3096108407387077e-06,-0.0012360641508102814,1.870855588254495e-08,-1.3130239761222735,-444.3301846035214,8405.96943374616,288.98299797911505
8.576934294000012,8.399000000000001,-450.75289489613607,8426.410155531636,299.99997893397205,17.84087394609193,-67.68827979862156,-1.1594678347078573e-06,-0.0012258847105688013,1.6563657987507183e-08,-1.312967124195613,-442.6859443355097,8399.783055130258,289.1664980702701
8.678467119999993,8.498999999999995,-449.0757496118893,8420.04748441047,299.9999788281576,17.84439182333083,-67.68735247995002,-1.0220864267363776e-06,-0.001216545498588444,1.460106823641949e-08,-1.31291515210658,-439.80795896199226,8388.957041524935,289.4876232518803
8.784143911000001,8.594999999999999,-446.66651268984407,8410.909756156701,299.9999786985074,17.849397306980777,-67.68603268850924,-8.263962414765132e-07,-0.0012031827048195043,1.1805496393283398e-08,-1.312841201328352,-437.5461759711618,8380.45102217946,289.73993591444037
8.884943246000006,8.694999999999993,-444.8814576046629,8404.141183304555,299.9999786194895,17.85306965620628,-67.6850641516618,-6.829485480621138e-07,-0.0011933089806906582,9.756245019547707e-09,-1.3127869452979999,-436.1688648153286,8377.548902444023,287.8704941677169
8.985680937000012,8.795999999999992,-443.0781807740584,8397.305022628776,299.9999785541854,17.85674848567442,-67.6840936920508,-5.394515841580285e-07,-0.0011833474155973401,7.706289722997882e-09,-1.3127325927487536,-433.94981855620307,8369.283615837587,288.0496037154476
9.121059540000005,8.930000000000007,-441.2745333558793,8390.468959719226,299.9999785033323,17.860396402207524,-67.6831311759545,-3.9752129084929733e-07,-0.0011733912484976935,5.678715314172758e-09,-1.3126786961504964,-431.709983321117,8360.94261461766,288.2303564866839
9.226587358000018,9.027000000000015,-438.95246411119956,8381.670210115139,299.999978458979,17.86504603206432,-67.68190404929207,-2.1738822507373349e-07,-0.0011605770185561925,3.1053873567662288e-09,-1.3126099985024964,-429.26604539337075,8351.843467638584,288.42754134652427
9.327505269,9.128000000000014,-437.1301134563409,8374.76668650731,299.9999784404135,17.868659292606566,-67.68095020446628,-7.802972607413332e-08,-0.0011505221187673128,1.1145527722316098e-09,-1.312556612209891,-427.0253208893129,8343.502701239548,288.6082941518032
9.428890007000007,9.229000000000013,-434.7533577986199,8365.765179260185,299.9999784375082,17.87332334423437,-67.67971866198542,1.0064456967537963e-07,-0.0011374048229083496,-1.4379356771043392e-09,-1.3124876992593753,-425.71169557250295,8336.255558310007,281.2564305166041
9.597027499000006,9.396000000000015,-432.94804078202066,8358.929557080799,299.9999784510698,17.876829673236912,-67.6787925896681,2.339803891408345e-07,-0.0011274400186150578,-3.3427319119086127e-09,-1.3124358912288798,-423.5207552947439,8328.024944559866,281.184124301006
9.698077906999998,9.49600000000001,-431.2138867682632,8352.364741016541,299.9999784768011,17.880168041094453,-67.67791069773921,3.599684188852778e-07,-0.0011178685826503082,-5.142559761492013e-09,-1.312386564262206,-421.3294015391646,8319.794440085041,281.1118181007466
9.804940361000007,9.593999999999994,-428.7998397363367,8343.228282342294,299.9999785326969,17.884767227530777,-67.67669544859719,5.319399813808822e-07,-0.0011045504123694198,-7.599294654268493e-09,-1.3123186066729944,-419.1376497016256,8311.564040839761,281.0395119150961
9.906498147000008,9.695999999999998,-426.97548306967894,8336.325288581453,299.999978590221,17.88820612644682,-67.67578656528099,6.591738187131976e-07,-0.0010944932626034108,-9.416919565094148e-09,-1.3122677926973276,-418.27837577756,8308.910184859555,280.9364644369955
10.04244321600001,9.831999999999994,-425.1507766324495,8329.422387269206,299.9999786606547,17.891613724681136,-67.67488577016297,7.839531912542744e-07,-0.0010844445241036094,-1.1199480614058031e-08,-1.3122174405545692,-415.9485423945591,8300.185722108776,280.8568580166808
10.144274066999998,9.933999999999997,-422.71729614577373,8320.218661235767,299.99997877420765,17.896108543444978,-67.67369728862958,9.463717044506987e-07,-0.0010710673709096897,-1.3519743082761153e-08,-1.3121510221465043,-413.79449845035197,8292.121202828193,280.78327226471424
10.246823556999999,10.027000000000015,-421.0886664101778,8314.060376955886,299.9999788626036,17.89908375532268,-67.67291043288144,1.0522133206422008e-06,-0.0010621359572671062,-1.5031764628165023e-08,-1.3121070578107652,-411.2483039265186,8282.590541246342,280.69630730270353
10.381786965000003,10.159999999999997,-418.68997917593816,8304.992262503383,299.9999790099656,17.90342127962172,-67.67176303491645,1.2044590800010957e-06,-0.0010490255796626715,-1.7206701873983925e-08,-1.3120429618378564,-408.8975098043744,8273.793129396881,280.61603196887364
10.482712077000002,10.260999999999996,-416.8816308541432,8298.157441624155,299.9999791344064,17.906655220022767,-67.67090737255324,1.3160750826801488e-06,-0.001039179204598126,-1.880121449477322e-08,-1.3119951729126043,-407.7488293883546,8269.0217510444,279.36786018307697
10.617722659000009,10.39500000000001,-415.07295685718,8291.322706919991,299.99997927004273,17.909858903586837,-67.67005955273397,1.4249004201451204e-06,-0.0010293678692352467,-2.0355860335221146e-08,-1.3119478305058525,-405.63269555626783,8261.08979219249,279.2552116004553
10.718682486000006,10.49600000000001,-412.70865813367976,8282.3903112889,299.99997946375976,17.913999919966614,-67.66896343756886,1.5628073639893313e-06,-0.001016608780436873,-2.2325957084803897e-08,-1.311886635792335,-403.5161881291468,8253.157932267635,279.14256302982915
10.827677487000017,10.594999999999999,-410.9171605454661,8275.62344077946,299.9999796225114,17.917103077324576,-67.66814186296678,1.6640233348191285e-06,-0.0010069960016070999,-2.377189753784105e-08,-1.3118407776020704,-401.591766214929,8245.947236396098,279.04015524853446
10.928790386999992,10.694999999999993,-409.0895153247303,8268.721316972225,299.9999797947489,17.92023815879135,-67.66731168167026,1.7643322870463375e-06,-0.0009972443582687205,-2.52048805613153e-08,-1.3117944470746155,-401.33057517873095,8242.133202034156,278.9642114321601
11.063668175999993,10.829000000000008,-406.68800618111857,8259.653949438076,299.99998003642116,17.924310501256194,-67.66623307806775,1.891450838246347e-06,-0.0009845217548232722,-2.702085711355374e-08,-1.3117342647674115,-398.91439365249755,8232.968637238164,278.8331730226286
11.164964408999992,10.931000000000012,-404.85962803800163,8252.752019746502,299.9999802316566,17.927375678023843,-67.66542106010186,1.9846730069672527e-06,-0.0009749103324613119,-2.83526002555325e-08,-1.3116889660262272,-396.8536872389845,8225.153997157846,278.72143485553556
11.30398991200002,11.061000000000007,-403.1385142932256,8246.256162022644,299.999980424089,17.930232370669504,-67.66466413938906,2.06941346343685e-06,-0.0009659267260073511,-2.956317608250603e-08,-1.3116467478798515,-394.79261715278227,8217.33945347075,278.6096966987282
11.405730363999993,11.162000000000006,-401.3274661592781,8239.422056027304,299.9999806351879,17.93321013633792,-67.66387500127905,2.155698216788899e-06,-0.0009565457373201888,-3.079581334717143e-08,-1.3116027399313568,-392.7312009203623,8209.525001549187,278.4979585514012
11.507541168000017,11.26400000000001,-398.9242268036724,8230.355146919906,299.9999809285334,17.937116199828,-67.66283964217736,2.2653482803759377e-06,-0.0009442112349921434,-3.236223990573046e-08,-1.3115450120312122,-390.9234573566025,8205.234813857855,276.9584340585601
11.608259034000014,11.363,-397.1304245329218,8223.588886984817,299.999981156906,17.9399981454881,-67.66207558572489,2.3435528884811512e-06,-0.0009350946041640339,-3.3479446370494714e-08,-1.3115024190512692,-388.6825829439675,8196.83747974501,276.78385387506825
11.742424977000013,11.497000000000014,-395.3902152161261,8217.0256734696,299.9999814605171,17.94222564612833,-67.66148494465655,3.2347562273506607e-06,-0.001722619082560023,-4.619696832280225e-08,-1.3114694897869166,-386.81434963634524,8189.839923594515,276.63837067645034
11.848778325000012,11.59299999999999,-393.5959794524995,8210.259528462446,299.9999820091231,17.94610556438729,-67.66045596381734,4.839230928374188e-06,-0.002817061699237652,-6.906184020060579e-08,-1.3114121294412264,-384.7578812122462,8182.142986577546,276.4783393211821
11.949503273000005,11.694000000000017,-391.7832848948675,8203.42585895294,299.99998288557435,17.954203891416373,-67.65830746507422,7.109209394509357e-06,-0.004068898750492592,-1.0150638213995994e-07,-1.3112924485012498,-382.51242848686553,8173.746868045509,276.3037597520224
12.050519578000007,11.795000000000016,-389.35881845900235,8194.292159595827,299.9999843612521,17.970619350609375,-67.65394923565692,9.20500391083763e-06,-0.0052809641666607164,-1.3144116375743804e-07,-1.3110498197977645,-381.0609152135161,8169.530104462493,276.3277890471813
12.185886543999999,11.931000000000012,-386.9318519735946,8185.159124187997,299.9999860342801,17.992147134627743,-67.64822724532199,1.0075176710663611e-05,-0.006186186628079983,-1.4388028248078133e-07,-1.310731604910775,-378.460094285196,8159.880752056049,276.1318516768591
12.325730192000009,12.060000000000002,-385.22212483436215,8178.732668350379,299.99998720297407,18.009702575063105,-67.64355565733808,9.810899206027356e-06,-0.006646584813720119,-1.4011364165298194e-07,-1.3104720871364295,-376.41368915041556,8152.299892298669,275.9779005639557
12.426896932000005,12.161000000000001,-382.7895492972243,8169.601125262375,299.9999886845405,18.036968687721018,-67.63629033802611,8.231085041092655e-06,-0.007086843292906198,-1.1756256146182335e-07,-1.3100689832713628,-374.36460900457195,8144.719747110411,275.82394908508235
12.528106491000017,12.260999999999996,-380.9671513514479,8162.770036927374,299.9999895479071,18.05862995309915,-67.63051009290638,6.221486989214404e-06,-0.007261050158169519,-8.886710351147324e-08,-1.3097487105115357,-373.21202243342185,8139.891238295301,272.3100504455016
12.629234592000017,12.361999999999995,-379.14253534003444,8155.939540707938,299.99999012883904,18.08090243008287,-67.62455899772398,3.6476882088068046e-06,-0.007317785144220626,-5.211072637376776e-08,-1.309419371854812,-371.0031644209444,8131.722194355463,272.0184884478513
12.764882733999997,12.49799999999999,-376.7725625972178,8147.081090937119,299.99999038451006,18.11010334023123,-67.61674475165793,-2.9229984136439786e-07,-0.007236180187305899,4.161638917591498e-09,-1.3089875395238613,-368.42219663251956,8122.1927074195755,271.6783321260565
12.904889338000004,12.62899999999999,-374.3080997836152,8137.885612361849,299.9999900070219,18.14010438950957,-67.60870230939591,-4.7451521379305676e-06,-0.00699830821958258,6.776268732548376e-08,-1.3085438222377324,-366.2067058357929,8114.025444511027,271.38676903452154
13.007497805000014,12.730999999999995,-372.4933974856424,8131.124927667811,299.9999892995493,18.161575017356792,-67.60293787329525,-8.068072915409462e-06,-0.006738568107351082,1.1522699858417693e-07,-1.3082262377993938,-364.2560095002555,8107.546424754076,271.5420755263818
13.143068851999999,12.865000000000009,-370.0220096859825,8121.931307864604,299.9999877763863,18.189532330763992,-67.59542093210993,-1.2400032366128935e-05,-0.006291912814866428,1.7710753126044902e-07,-1.3078126641525474,-361.86544146540587,8098.7922663082545,271.24488752964635
13.27822876800002,12.998999999999995,-367.6925701685001,8113.27941132239,299.9999857963677,18.214133403087136,-67.58879613367381,-1.6110435274791505e-05,-0.005793272848543995,2.3011192006516658e-07,-1.3074487012337332,-359.8404940326252,8091.3854841342045,270.99342048793665
13.383392446000016,13.093999999999994,-365.214207307505,8104.087669397838,299.9999832007565,18.238201155331314,-67.5823056568266,-1.945795574126273e-05,-0.005205757264422409,2.779344259831244e-07,-1.3070925938799824,-357.62929161674964,8083.305944086542,270.7190925716397
13.518882293000019,13.230999999999995,-363.3715924502367,8097.262006670802,299.99998100105546,18.25451243012603,-67.57790168194936,-2.1504590665782615e-05,-0.004742121636242272,3.0717393907686015e-07,-1.306851232097956,-356.3044957679584,8077.620450442187,274.1833177216464
13.654180830000001,13.366000000000014,-361.5273735397841,8090.43677717886,299.9999786182543,18.269403814399368,-67.57387738240304,-2.3149192128758878e-05,-0.004263639551370018,3.30671093515175e-07,-1.3066308669132187,-353.57616155098356,8067.630196665493,274.01372005043874
13.789192138999994,13.501000000000005,-358.56632639098416,8079.490188614664,299.99997452322583,18.290169857294295,-67.56825961461631,-2.4960775603382187e-05,-0.003483536507400931,3.565564846931535e-07,-1.3063235454659394,-351.3919472126558,8059.638412718446,273.8780418818979
13.892016659000006,13.59299999999999,-356.7369247481432,8072.733466757078,299.9999718919992,18.30109023316399,-67.56530261355155,-2.5586790946280732e-05,-0.0030035540159368723,3.655034134780131e-07,-1.3061619219396166,-349.5708547033387,8052.978840499033,273.7649767603167
14.026887361000007,13.728000000000009,-354.8881693243142,8065.909464711852,299.9999692005768,18.310640675180785,-67.56271500771577,-2.5871696473437266e-05,-0.0025263092758694874,3.695774020953926e-07,-1.3060205678043992,-347.685457189691,8045.864597535467,277.34284828209263
14.128776232000007,13.829000000000008,-353.0384966049466,8059.085711252885,299.9999665088143,18.318717211758145,-67.56052561208658,-2.5844847260406316e-05,-0.0020610016610381828,3.69197652737565e-07,-1.3059010243271985,-345.69055369364287,8038.567175519288,277.3455288927498
14.230231349999997,13.931000000000012,-350.5466609891514,8049.897612654832,299.9999629349473,18.3273354053934,-67.55818824020794,-2.5386622083430074e-05,-0.001459883852048274,3.6265634558331323e-07,-1.305773459184608,-343.6952000905864,8031.269875653445,277.34820960791075
14.335381014999996,14.027000000000015,-348.7870653060697,8043.412073101166,299.99996047629554,18.331872125366655,-67.55695734549185,-2.482697879899146e-05,-0.0010572436585100718,3.5466445791517346e-07,-1.3057063054696814,-340.79241526123104,8020.655744077527,277.35210904301744
14.505625167999995,14.197000000000003,-345.6702086710831,8031.927509313763,299.99995630496255,18.337088195297294,-67.55554172641618,-2.346750358074842e-05,-0.00039470759078561065,3.352478007471753e-07,-1.305629094095817,-338.7966474769964,8013.358556637225,277.35479006651644
14.60773779600001,14.299000000000007,-343.83642119685663,8025.171976490231,299.9999539816292,18.33853299068235,-67.55514953864802,-2.251468269170938e-05,-3.811101776901568e-05,3.216381212320817e-07,-1.3056077068625696,-337.55732106869084,8008.5484597025315,282.51407496119515
14.709371812,14.399000000000001,-341.96584774542896,8018.281362932546,299.9999517211881,18.338882677472263,-67.55505461169071,-2.1468372570476374e-05,0.0002991551139919686,3.066924964932794e-07,-1.305602530118815,-335.5803802340037,8001.309883997255,282.6889344766307
14.847663307999994,14.527000000000015,-340.2603240119736,8011.998744927395,299.99994976197326,18.33823434711303,-67.55523060790911,-2.047644136620986e-05,0.0005813917375791409,2.9252321504620664e-07,-1.3056121268059155,-333.60374816258036,7994.071224488202,282.86379413058893
14.948201923,14.628000000000014,-337.7663955772941,8002.811214169716,299.99994706980686,18.33588246380181,-67.55586899564473,-1.900259405062025e-05,0.000953643077453776,2.714693799105238e-07,-1.3056469402907362,-331.44787469500307,7986.174382251149,283.05455026056296
15.049891429000013,14.72999999999999,-335.8962008266829,7995.920497815223,299.99994518580667,18.33309453380129,-67.55662562864372,-1.7906521125544092e-05,0.0012000918441797657,2.5581164829545474e-07,-1.305688208139351,-328.9919882442422,7978.015041602239,279.21626110602074
15.185900486000008,14.866000000000014,-333.4214363023312,7986.800298197085,299.99994286485617,18.328214039509156,-67.5579498778291,-1.6498299025960538e-05,0.0014836703552183299,2.3569437058665278e-07,-1.3057604498998048,-326.8322772494548,7970.1300145533305,279.2579503138865
15.320879657999996,15.0,-331.6986880028749,7980.449822735949,299.9999413607442,18.324101974423034,-67.55906533147483,-1.5558714131026807e-05,0.001653027169727886,2.2227158664556166e-07,-1.3058213162370613,-324.6733598947044,7962.2447723412715,279.29963965058437
15.424341924999993,15.09299999999999,-329.2435579491565,7971.396826711779,299.99993936354946,18.31738558697996,-67.56088666517077,-1.429292908513951e-05,0.0018568452707154281,2.041885714598402e-07,-1.3059207294615116,-322.33549335439363,7953.702166294199,279.3448032303651
15.560587950000013,15.229000000000013,-326.75274763466984,7962.208450107228,299.9999375020125,18.3097300997727,-67.56296178760343,-1.310034316556059e-05,0.0020210028192520495,1.871510290020397e-07,-1.3060340396724794,-321.2290611998793,7947.688611173598,275.34055323362327
15.663042888999996,15.331000000000017,-324.885343158903,7955.31697704741,299.9999362071575,18.303529063981443,-67.56464197891927,-1.2267461784941135e-05,0.002117556161723768,1.7525218942238567e-07,-1.3061258197938663,-319.10453581268484,7939.845412593862,275.23184616931604
15.798567698,15.467000000000013,-323.0185831947349,7948.425329373456,299.99993499294374,18.29701363195447,-67.56640669882503,-1.1484699752319965e-05,0.002192994721140072,1.6406929219392537e-07,-1.30622225079665,-317.1579104627969,7932.655582155512,275.1321981096059
15.902147525000004,15.560000000000002,-320.6952378361867,7939.844294063235,299.99993358694906,18.288554507369547,-67.5686968663466,-1.057470320156021e-05,0.0022589435979155515,1.510686344309223e-07,-1.3063474455319612,-315.21211043033657,7925.465528449541,275.0325501235516
16.003877673999995,15.662000000000006,-318.83002415342474,7932.952227728151,299.99993253595943,18.281570880428408,-67.5705867108135,-9.889535931328833e-06,0.0022924944562994955,1.4127993910374253e-07,-1.306450799773553,-313.26716368702716,7918.275244013117,274.9329022092132
16.10588346900002,15.76400000000001,-316.96552801285225,7926.059967242861,299.9999315510142,18.27447229635866,-67.57250687007337,-9.239644112456801e-06,0.002309643470871311,1.3199525367309786e-07,-1.3065558524076453,-310.2076158153066,7909.781139798462,273.7775443157309
16.241224254000002,15.899000000000001,-314.4989332300774,7916.937554682642,299.9999303437658,18.26498688142523,-67.57507141538778,-8.42356933265237e-06,0.002310159299791336,1.203364185197161e-07,-1.3066962233573127,-308.0594500909901,7901.934413713554,273.631020455852
16.379646006,16.027000000000015,-312.8004777742132,7910.653022126366,299.999929573733,18.258444209766047,-67.57683950681016,-7.8852891934873e-06,0.0022971275944216546,1.126463480968182e-07,-1.3067930427268823,-306.09119155536257,7894.741340244428,273.4967069870632
16.480968866000012,16.12700000000001,-310.3360486997337,7901.5300242597805,299.9999285405257,18.249003912162717,-67.57938945460423,-7.126813368372223e-06,0.002262593967782778,1.0181051841471837e-07,-1.3069327371219641,-304.3025830068623,7888.201988926654,273.37460388970175
16.582604547000017,16.229000000000013,-308.4748778506099,7894.636865076863,299.9999278254643,18.24195929209325,-67.58129137668178,-6.566816466506498e-06,0.002225578284259001,9.381028380061481e-08,-1.307036977663092,-302.51716027736967,7879.612517937785,273.74661570580656
16.684094885000007,16.329000000000008,-306.65089768871456,7887.878677686825,299.99992717865126,18.235159977812835,-67.58312632340458,-6.024669381976294e-06,0.002181483524955823,8.606512271304792e-08,-1.3071375856109815,-300.5572389544285,7872.36885968403,273.62952864240157
16.785563015999998,16.430000000000007,-304.8093633318186,7881.052723420752,299.9999265793471,18.228423446849966,-67.58494360289845,-5.480253063794844e-06,0.0021305187160061806,7.82875954742722e-08,-1.3072372618907524,-298.598093630436,7865.124992250052,273.512441644529
16.92529126400001,16.560000000000002,-303.05962569505255,7874.564517305897,299.999926060428,18.22216551164064,-67.58663112871736,-4.963949705783426e-06,0.002077090549016371,7.091173348950519e-08,-1.3073298542976954,-296.63969751140274,7857.880922941173,273.3953547125871
17.026879479,16.662000000000006,-300.6000564465764,7865.440208028235,299.99992541361195,18.21362041228035,-67.58893441136196,-4.234336880909848e-06,0.00199578011413512,6.048862412398694e-08,-1.3074562838750374,-294.5040737763556,7849.978084139548,273.26762358859355
17.128231303999996,16.763000000000005,-298.74247168616296,7858.54608159577,299.99992499010455,18.207383944762064,-67.59061468399413,-3.679175626873659e-06,0.00193079277702936,5.2557743762259224e-08,-1.3075485532362023,-292.4955105181945,7842.934411923648,274.57648440337204
17.26307677700001,16.89699999999999,-296.9219237949273,7851.786968801818,299.9999246302046,18.20146524716782,-67.59220877001347,-3.1309402103683076e-06,0.0018651495463853545,4.472583193225207e-08,-1.3076361190387251,-290.53685511637667,7835.6943161697955,274.50724984290696
17.364596704000007,16.99799999999999,-294.57428295429446,7843.067480108444,299.9999242477749,18.194127894846947,-67.59418417141069,-2.417887109940641e-06,0.0017789492251127131,3.453942696684653e-08,-1.3077446706704023,-287.68904777324644,7825.162959489733,274.40654515115074
17.538469367999994,17.162000000000006,-291.50008700079934,7831.643898352495,299.99992388681875,18.185020963334903,-67.59663480032025,-1.471387418537411e-06,0.0016658461476791783,2.101813590229054e-08,-1.3078793977544838,-285.3761286507153,7816.605983600306,274.32472269481895
17.639742987000005,17.263000000000005,-289.66356877746847,7824.816592795147,299.99992374828224,18.17985558210548,-67.59802419331089,-9.008405805453264e-07,0.0015992335660444828,1.2867563491396512e-08,-1.3079558117580863,-283.58754316202186,7808.880277952039,273.54372530872337
17.775003034000008,17.397999999999996,-287.209617131736,7815.6907710835285,299.9999236539915,18.173272865319067,-67.59979421020837,-1.3451745640907086e-07,0.0015124547664337057,1.9202291515760597e-09,-1.3080531908334496,-281.45930456666986,7800.961010145094,273.4420977119175
17.876059873000003,17.498999999999995,-285.4651209466167,7809.201153731958,299.99992365088394,18.168814112296115,-67.60099272720483,4.110664935923521e-07,0.001452880296662956,-5.873726384940901e-09,-1.3081191483660195,-279.33169402179624,7793.041573602198,273.34047019879034
18.01451087800001,17.628000000000014,-283.0126300409917,7800.074939350951,299.9999237353534,18.162832890393933,-67.60259999000401,1.1784682902084533e-06,0.0013726148443744055,-1.6836462686910594e-08,-1.308207625682929,-276.6729936134695,7783.142059628609,273.2134359209654
18.150502555000003,17.76400000000001,-280.5427715218334,7790.88090870817,299.9999239259087,18.15714048613687,-67.60412911528017,1.948200633376099e-06,0.001296577051673133,-2.7832496200656292e-08,-1.3082918287158671,-275.0755158025605,7775.785372553833,272.91972464041595
18.252662719,17.866000000000014,-278.70903198320923,7784.052856304793,299.99992413569777,18.15311860194659,-67.6052091863544,2.5155151813872857e-06,0.0012435422943498239,-3.5936887894313936e-08,-1.3083513199831467,-273.13802280840355,7768.51998112639,272.81978193754395
18.38776623000001,17.998999999999995,-277.00274748698155,7777.69793746261,299.99992438327985,18.149526974941192,-67.60617349568396,3.0380781129257354e-06,0.0011970062956828704,-4.3401981054589345e-08,-1.3084044461349245,-271.20096816973404,7761.2544720570195,272.71983930261104
18.492413948000006,18.095,-275.169766385559,7770.869681419414,299.99992470367926,18.145818188887066,-67.60716904612738,3.5937146857268527e-06,0.0011500579645638495,-5.133955987049988e-08,-1.3084593044667168,-269.26431563673697,7753.988855098554,272.61989673155693
18.593586762,18.194999999999993,-272.7203169501042,7761.742650248633,299.9999252197075,18.14108475070404,-67.60843932738163,4.324718008244769e-06,0.0010922632710147814,-6.17823526234251e-08,-1.3085293177264692,-267.32805934640214,7746.723131846765,272.51995422467854
18.694882078999996,18.296999999999997,-270.870038883703,7754.8465592266175,299.99992567505024,18.13766681871962,-67.60935635411518,4.86638040225569e-06,0.0010524078406918254,-6.952031076138369e-08,-1.308579872246166,-266.01522417233025,7739.676903779089,274.622507488746
18.83088411700001,18.432999999999993,-269.0201051361654,7747.950375830435,299.99992618566716,18.13437476578159,-67.61023943253821,5.397501472017795e-06,0.0010157885509662888,-7.71076848254862e-08,-1.3086285642459061,-264.0998311622456,7732.416098531981,274.59583095907755
18.935268444000002,18.527000000000015,-266.71722248549634,7739.3638263513785,299.9999268975634,18.130440832815264,-67.61129446706008,6.041418387932016e-06,0.0009746807732159661,-8.630641844649628e-08,-1.308686749313921,-262.01071189825075,7724.495112739625,274.56672935712396
19.036851979000005,18.628000000000014,-264.88614574721134,7732.5350593857465,299.9999275215125,18.12742453173782,-67.61210323731142,6.540106399593421e-06,0.0009453605165843685,-9.343047973708984e-08,-1.308731361474556,-259.74796688828854,7715.913919481949,274.53520269961297
19.171240119000004,18.762,-262.4391359614493,7723.407373829388,299.999928433633,18.123535028507654,-67.61314592907156,7.185792229375231e-06,0.0009105674277954854,-1.0265449650693838e-07,-1.3087888878193987,-258.0610882909288,7709.338188172522,275.89308607662645
19.272481577000008,18.863,-260.01076450348876,7714.347163425757,299.9999294244659,18.119816527905368,-67.6141425544791,7.801493922298144e-06,0.0008807873586220798,-1.114501784396239e-07,-1.3088438841773478,-255.46083235843122,7699.465005970578,275.92029952042736
19.442420413000008,19.027000000000015,-258.25322267230155,7707.788570057074,299.99993019303093,18.11720347506917,-67.61484276876234,8.23027714643962e-06,0.0008620210545019932,-1.1757561875833257e-07,-1.3088825305535128,-253.55434684932828,7692.224573548205,275.940256104973
19.544160766999994,19.12899999999999,-255.78946009740523,7698.592903986561,299.9999313394584,18.113632033231735,-67.61579962546121,8.808016043451753e-06,0.0008391823024033243,-1.258289867880862e-07,-1.3089353506086634,-251.47488524041327,7684.325828727523,275.9620269775944
19.64602271800001,19.230999999999995,-253.9600662100238,7691.763686001484,299.9999322412345,18.111042177671003,-67.61649337019708,9.218153926283854e-06,0.0008247014923245589,-1.3168807033991138e-07,-1.3089736529645997,-249.49845410690125,7678.592985067115,277.54964738362304
19.781578351999997,19.366000000000014,-251.51524175350607,7682.6354148687815,299.99993351033413,18.107651066426282,-67.61740158659,9.740433683746562e-06,0.0008083243926030959,-1.391491772312439e-07,-1.3090238047958698,-247.22889543776947,7670.040879602293,277.6364032581376
19.884196800000012,19.467000000000013,-249.81319057037288,7676.279360903171,299.9999344354826,18.105330954131066,-67.61802286020493,1.008612541291606e-05,0.0007987423848257861,-1.440876100185147e-07,-1.3090581170175706,-245.3088015599656,7662.804401845033,277.70981211728343
20.018621550000006,19.593999999999994,-247.98463046234346,7669.449919622108,299.99993546495654,18.10287015728863,-67.61868171271841,1.0440798383828833e-05,0.0007899249705254772,-1.4915435018033047e-07,-1.3090945094776982,-243.38900489359594,7655.567844535561,277.78322101603817
20.119987889000015,19.694999999999993,-246.15631793964926,7662.620412055777,299.9999365298207,18.10043660763589,-67.61933317569682,1.0778663245410904e-05,0.000782430135537155,-1.5398097435981887e-07,-1.3091304986343415,-241.46949398139887,7648.331210752602,277.85662995088194
20.22136332400001,19.795999999999992,-243.73101388366393,7653.559380065954,299.9999379942845,18.097244036330128,-67.62018768698007,1.1200046921424123e-05,0.0007743321567464671,-1.600007236438816e-07,-1.3091777122415111,-238.36009991321487,7639.047993275812,281.3500148210752
20.35565019500001,19.930000000000007,-241.2880409142666,7644.43061325106,299.99993952531963,18.094061319834417,-67.62103939977858,1.1593369183500955e-05,0.0007679404163403331,-1.656195988828309e-07,-1.3092247795125105,-236.23564024482846,7631.124451087387,281.5535346736333
20.458847131,20.027000000000015,-239.5329855894517,7637.87135406547,299.99994065769533,18.09179139560832,-67.62164674617445,1.1856295616558882e-05,0.0007642610513104602,-1.6937568240934061e-07,-1.3092583476859954,-234.11152304890211,7623.200817290952,281.7570545613661
20.594518890000018,20.162000000000006,-237.0907464439629,7628.742390901739,299.999942274852,18.08865026595179,-67.62248705971533,1.2195834459840293e-05,0.0007601416570757651,-1.7422622833617027e-07,-1.3093047989498632,-231.63363453020494,7613.956511471832,281.99449479767526
20.729985994999993,20.296999999999997,-234.66701677486645,7619.680937653336,299.9999439239577,18.085549294206494,-67.62331647686632,1.2501942148064295e-05,0.0007569563283269406,-1.7859918893266755e-07,-1.3093506557861998,-229.12445152827692,7606.249991000759,281.1199543111743
20.864840777000012,20.430000000000007,-232.84044979876828,7612.85096302974,299.99994519330596,18.083226782496023,-67.6239375794544,1.2717162202253184e-05,0.0007549875071729401,-1.8160684415660886e-07,-1.3093850890979324,-226.98771764300983,7598.3313074582875,281.2843615457047
20.967092460999993,20.52799999999999,-230.48936462842985,7604.059922158424,299.99994817144864,18.078830656782664,-67.62511299078822,2.166981998681414e-05,0.004969780419288315,-3.0930772823264403e-07,-1.3094500608976465,-224.8539219822118,7590.4118392656965,281.44876983776027
21.101889045000007,20.66300000000001,-228.6635965527345,7597.229733821312,299.99995186742456,18.064779252056656,-67.62886792163754,3.068841948471012e-05,0.00762308252600907,-4.381930334674372e-07,-1.3096578143705924,-222.72426966772866,7582.491266605913,281.6131786299524
21.20341214200002,20.76400000000001,-226.20798538767653,7588.031887379691,299.999958139413,18.033843377969013,-67.63712383768137,3.944013659191509e-05,0.010193458454870732,-5.631930451097409e-07,-1.310115217794432,-220.43905542092978,7574.143921979381,281.4140156704066
21.339655804000017,20.900000000000006,-224.36936050476885,7581.132679925094,299.99996345074806,18.003317318879933,-67.64525553233884,4.273629587886124e-05,0.011660635799383708,-6.102847779216149e-07,-1.3105665085437748,-218.3128734923242,7566.2026690565335,281.56514136432514
21.44116269700001,21.00200000000001,-222.03089740659274,7572.338272644856,299.9999702841599,17.957346532086937,-67.6574736473197,4.2233870878917944e-05,0.013040393274549417,-6.031691743152799e-07,-1.3112460266673183,-215.83967261124494,7556.93593128083,281.74145299285595
21.577304489,21.131,-219.64497453312404,7563.3391902977555,299.9999765166567,17.904616036503928,-67.67144718778496,3.601371200901249e-05,0.013910889725614509,-5.143854333728109e-07,-1.3120253143178213,-213.90235234525395,7549.65336485233,281.8799818800914
21.713157573000018,21.265000000000015,-217.82003528346021,7556.436349940793,299.9999802948595,17.861640833886113,-67.68280306531945,2.781744243405015e-05,0.014248997000402509,-3.9735536505430484e-07,-1.3126603134405572,-212.14314248730392,7541.532109480784,279.82793074346023
21.81499983400002,21.366000000000014,-214.8240107647179,7545.064390925176,299.9999838434978,17.788573255424772,-67.70204363767704,9.431990684085993e-06,0.014254466477785426,-1.3478639337722488e-07,-1.3137397134553987,-209.5410898789331,7531.616363892782,279.91502727633326
21.986047971000005,21.527000000000015,-212.54965369267288,7536.397851156837,299.9999839200383,17.732873072147335,-67.71665429806646,-7.029001041806889e-06,0.013872486604222092,1.0032118278116581e-07,-1.3145623464296694,-207.29349892890156,7523.02075406617,279.9905083778583
22.121421567,21.66300000000001,-210.7423276191512,7529.490378359984,299.9999822759355,17.68942164999262,-67.72801800063787,-2.0648288448933846e-05,0.013372051992088286,2.9485595401651256e-07,-1.3152039556692579,-205.05264653709176,7514.423390870458,280.06598726258244
22.223434935,21.765000000000015,-208.35702510569737,7520.346372535373,299.9999777986262,17.634211683896503,-67.74241391901093,-3.8299436871015235e-05,0.012491184962344382,5.469904793293646e-07,-1.3160190382499155,-202.7174738032832,7504.205609297555,281.4275942041211
22.357969131999994,21.899,-205.99662076495457,7511.268217405686,299.9999709435792,17.582973808548697,-67.75573113279034,-5.4400045179300006e-05,0.011418507980577534,7.769893375313229e-07,-1.3167753253299574,-200.64834400836745,7496.181258987444,281.5444985897582
22.459433092000012,22.0,-203.7657222471986,7502.662684349551,299.99996250362915,17.538510106651028,-67.76725415589965,-6.766095462498117e-05,0.010265433854928912,9.664327992582022e-07,-1.3174315035553414,-198.2398557280413,7486.818097896891,281.6808857604465
22.630064196000006,22.161,-201.99544008179998,7495.817904910506,299.99995468579044,17.506220306965567,-67.7756027281684,-7.641846997473419e-05,0.009282087070351868,1.091548648548624e-06,-1.3179079544564338,-196.35098614832503,7479.460423129719,281.7880464723307
22.731322069000015,22.262,-200.2108427563964,7488.904525399132,299.9999459949099,17.476645725683444,-67.783234877105,-8.355883989826357e-05,0.008249658844271514,1.1935659107326485e-06,-1.318344289722467,-761971.3694189524,179065.45089764646,-6008093.898023583
22.833337645,22.363,-197.85331210052485,7479.753320351733,299.999933585544,17.442430759371884,-67.79204737317134,-9.037473364162077e-05,0.006848307697497535,1.2909565068551278e-06,-1.3188490270322895,-787730.2294019596,184860.7810459573,-6211276.991300951
22.934636737000005,22.465000000000003,-196.17954809393308,7473.245101221285,299.9999243475917,17.421621066336204,-67.79739816629586,-9.347959314030364e-05,0.005845219324043376,1.335328236913185e-06,-1.3191559786247113,-815830.8060620921,191182.9588422986,-6432931.274876252
23.075411459999998,22.595,-193.81155816543657,7464.0243080520795,299.9999109850734,17.397200169687352,-67.80366882198217,-9.548735498950825e-05,0.0044385399324221525,1.3640347668137754e-06,-1.3195161663546768,-841589.6695322808,196978.28809635923,-6636114.368153418
23.177343228000012,22.697000000000003,-192.03760296968264,7457.1081903218665,299.999900945351,17.382678505635663,-67.8073931646028,-9.541316780333644e-05,0.0034085245744072856,1.362992698581506e-06,-1.3197303331485077,-1386734.7095326395,319775.2735081853,-10933527.479866834
23.313142505000002,22.831999999999994,-189.7091537637302,7448.021786952025,299.9998879679433,17.368511449877676,-67.81102336691859,-9.360580348123629e-05,0.0021051506819071523,1.3371948995360544e-06,-1.319939259163065,-1430082.5403598298,329532.89613189746,-11275360.530792866
23.448514232999997,22.967000000000013,-187.48650263842825,7439.341843204212,299.99987599035154,17.359994191693747,-67.81320433228532,-9.04459792736983e-05,0.0009277380948804427,1.2920726839242489e-06,-1.3200648609427228,-1489193.219019222,342838.74509802816,-11741496.509327663
23.585882474000016,23.093999999999994,-185.14322402351263,7430.186978547662,299.9998639561232,17.356060111308135,-67.81421132474635,-8.601177832853383e-05,-0.0002294437906306639,1.2287425905314042e-06,-1.3201228750301484,-1536481.761643765,353483.42434846907,-12114405.292154811
23.68796089,23.195999999999998,-183.39033322594446,7423.337724958201,299.9998554229522,17.356204853353976,-67.81417428020244,-8.221718384796218e-05,-0.0010323679437111535,1.1745434287089316e-06,-1.3201207414662712,-1893684.240912608,433954.29497278173,-14927821.06217376
23.823396884000005,23.330000000000013,-181.04716063494206,7414.182833156033,299.99984469184193,17.360311669469557,-67.81312305928954,-7.681226098875759e-05,-0.0020167965854456836,1.0973394812611733e-06,-1.3200601823591338,-1962786.1283450813,449511.9909405378,-15472596.263857765
23.95821570800001,23.465000000000003,-178.80741765567026,7405.435007532396,299.99983517411425,17.368057582537396,-67.81113961824768,-7.155731452966171e-05,-0.0028575653232487323,1.022274270492175e-06,-1.3199459575224193,-2022016.3160829323,462847.15929474024,-15939546.436729139
24.063160307999993,23.561000000000007,-177.0356598491455,7398.518326568769,299.99982814099934,17.376581209473862,-67.8089559440213,-6.751148972812342e-05,-0.0034522435552000125,9.644794101729505e-07,-1.3198202598050148,-2071374.80458955,473959.79991688847,-16328671.58078818
24.165195791000002,23.66300000000001,-175.29773464419438,7391.7374993803505,299.99982165092064,17.386750017107303,-67.80634929637876,-6.371074481919282e-05,-0.003976461503653102,9.101837831711157e-07,-1.319670295272482,-2125669.1404256946,486183.7049917003,-16756709.239252716
24.299746362000008,23.795000000000016,-173.5587354656541,7384.956947530343,299.99981553488016,17.398568156894054,-67.80331782105657,-6.0143165169666765e-05,-0.004441594628848809,8.592180229003761e-07,-1.3194959997363358,-2342696.4742492996,535084.5911500833,-18463332.897055116
24.400691706000003,23.896000000000015,-171.80109746428639,7378.108910558167,299.9998097063218,17.41197221895791,-67.79987688317925,-5.681614344928984e-05,-0.004853889930733026,8.116876497053633e-07,-1.319298305256864,-2402656.85210078,548585.4741297812,-18935893.30880243
24.502100014000007,23.99799999999999,-170.11174384212214,7371.532423193442,299.9998044094726,17.42608210673418,-67.79625170235734,-5.3898792976933864e-05,-0.0051965066650581605,7.700087586191039e-07,-1.3190901897504128,-2457166.2847921303,560859.004553868,-19365493.68311787
24.612967037000004,24.095,-167.74079213289218,7362.312391125901,299.9997974156868,17.447607608542103,-67.79071523491278,-5.030140472562523e-05,-0.005593130362857061,7.186135951580645e-07,-1.318772675032819,-2533479.487529337,578041.9479287587,-19966934.207159266
24.749100147000007,24.230999999999995,-165.36682315033295,7353.093135470423,299.9997908562317,17.47077360073689,-67.7847486833562,-4.72474948952841e-05,-0.005897824348042519,6.74981658141098e-07,-1.3184309329170598,-2644946.8991011884,603166.6729377127,-20840278.37907474
24.885138197000003,24.36699999999999,-163.00711989739787,7343.94249045078,299.99978470071693,17.495034773136133,-67.77849101003534,-4.470855862725004e-05,-0.006116082904173635,6.387062643455153e-07,-1.318073002416852,-2723278.443993834,620805.2168395572,-21457402.701884992
25.02066961600002,24.5,-160.7841936145376,7335.334894837269,299.99977917724135,17.518707892106136,-67.77237608493692,-4.270702083945215e-05,-0.0062504610091869,6.101084865434179e-07,-1.3177237155878085,-2784824.6576108644,634664.0728195101,-21942286.098314565
25.12488064300001,24.595,-158.99667454012706,7328.422270294438,299.9997748963994,17.53810922727296,-67.76735801244497,-4.1321911718644286e-05,-0.0063158900171754,5.903174291380961e-07,-1.3174374336038408,-2846370.86472161,648522.9304809527,-22427169.49467324
25.227123051999996,24.697000000000003,-157.22619712408905,7321.5775411428285,299.99979407887304,17.54608671403512,-67.76529298049621,0.00017145686939968354,-0.02314431037571209,-2.4378644727034023e-06,-1.317319216274777,-2859609.9096481553,651523.3729686689,-22525564.91201021
25.361747439,24.831000000000017,-155.4541510780739,7314.733214930099,299.9998842090404,17.609989885591556,-67.74871492387786,0.0006566539379532153,-0.04605001201040872,-9.371553361297228e-06,-1.3163763919030949,-2925165.8911032253,666285.8886739321,-23041816.935109217
