Real_time_s,Simulation_time_s,x_ft,y_ft,alt_ft,vx_fps,vy_fps,vz_fps,roll_rad,pitch_rad,yaw_rad
0.0,0.0,-1.4014445757456648e-06,4005.4400000000123,280.0000000000127,-4.7704912233825755e-06,24.38399999999954,1.866229618350169e-10,1.946803004339271e-05,-7.653500263291122e-12,1.5709128492300173
0.036361268000007385,0.027000000000015234,-2.046609829428083e-06,4007.6000000000167,280.00000000003405,-5.528134638979352e-06,24.38399999999939,2.265401013341066e-10,2.2560011286075296e-05,-9.290525752956701e-12,1.5709128803023151
0.06979654700000992,0.060000000000002274,-3.7141151657710448e-06,4010.240000000023,280.0000000000886,-2.8645572024379677e-06,24.383999999999844,4.144764308583119e-10,3.6868624347636064e-05,-1.6997886378191914e-11,1.5709127710678292
0.10368226200000663,0.09399999999999409,-4.497911976909778e-06,4012.960000000029,280.0000000001513,3.0797952761365188e-06,24.38399999999982,4.995536524271026e-10,4.267178519653839e-05,-2.0486947123428195e-11,1.570912527287678
0.17167391700000678,0.16200000000000614,-4.261317678755424e-06,4018.400000000041,280.0000000003516,2.459630530071586e-05,24.38399999998761,8.200778642602296e-10,6.085337244342161e-05,-3.363180237029987e-11,1.5709116448857394
0.273221429000003,0.26300000000000523,7.152323133382132e-06,4026.480000000059,280.0000000008059,7.878670254546011e-05,24.383999999872728,1.3105387316266338e-09,8.480207061147377e-05,-5.374584973713613e-11,1.57090942251163
0.4091473590000021,0.39699999999999136,5.568375510929976e-05,4037.199999999984,280.0000000016368,0.00018543975986940684,24.383999999294883,1.8275663149939595e-09,0.00010886009256734857,-7.494940869242359e-11,1.570905048617872
0.5106223970000059,0.4970000000000141,0.00012549433710261145,4045.1999999997042,280.0000000023839,0.00028627814581975986,24.383999998319503,2.081277679496163e-09,0.0001228860560790472,-8.535423812237961e-11,1.5709009131861436
0.6178201849999994,0.5939999999999941,0.00022665645933385924,4052.959999999066,280.00000000316595,0.00039805239381638134,24.383999996751047,2.224369922925366e-09,0.00013376110904613105,-9.122252341800963e-11,1.5708963292690679
0.7524782300000084,0.7280000000000086,0.0004274420116818458,4063.67999999722,280.00000000425933,0.0005693383496036749,24.383999993353324,2.2258002398410297e-09,0.0001443635970194562,-9.1281181452494e-11,1.5708893047471877
0.8543934719999982,0.8300000000000125,0.0006321758601809824,4071.8399999947205,280.0000000050471,0.0007094264770113693,24.38399998968003,2.0891473104273577e-09,0.00014938990358267934,-8.567697670303163e-11,1.5708835596635102
0.9561659370000086,0.9310000000000116,0.0008819634625946098,4079.9199999909256,280.00000000574744,0.0008535830352310842,24.383999985059816,1.8538281564954023e-09,0.0001520916980699901,-7.602642048353501e-11,1.570877647731336
1.0602281399999924,1.0270000000000152,0.0011644741134805992,4087.5999999857763,280.00000000630945,0.0009935519205425006,24.383999979758357,1.5507639331321738e-09,0.0001527145193918617,-6.359760525013244e-11,1.5708719075376079
1.1621036669999967,1.1289999999999907,0.0015128093348626968,4095.7599999783884,280.0000000067755,0.0011433630464653738,24.383999973193937,1.1634745390206912e-09,0.00015156910558172378,-4.7714673805467935e-11,1.5708657637085905
1.2641201529999933,1.2309999999999945,0.001911361867562713,4103.919999968718,280.00000000708934,0.001292459797146131,24.38399996574697,7.309219980162197e-10,0.00014881948297914004,-2.997547782906951e-11,1.5708596491763733
1.4007039630000122,1.3669999999999902,0.0025200663571493644,4114.799999951749,280.00000000725265,0.0014873472775466501,24.38399995463826,1.1518390798937393e-10,0.00014296399418329788,-4.7237509178755036e-12,1.5708516567433402
1.5027258530000154,1.4679999999999893,0.003028038909935287,4122.87999993582,280.0000000071836,0.0016273703400977119,24.383999945695262,-3.4800964624723243e-10,0.0001372671353426931,1.4272048468174856e-11,1.5708459143274418
1.606043948000007,1.561000000000007,0.003536871235816085,4130.319999918454,280.0000000069775,0.001751431464270854,24.38399993709992,-7.727886192504389e-10,0.000131165962201354,3.169244623408684e-11,1.5708408265185718
1.7073224720000155,1.6620000000000061,0.004131367145232654,4138.399999896612,280.0000000066065,0.0018804359856578307,24.383999927492646,-1.215377251241231e-09,0.0001238484837578194,4.9843227784593207e-11,1.57083553597845
1.8092983040000092,1.76400000000001,0.004774392986273241,4146.559999871318,280.0000000060849,0.002003692964105111,24.383999917675844,-1.627526776200621e-09,0.000115816280549412,6.674568524560245e-11,1.570830481147894
1.9450462899999934,1.9000000000000057,0.00569427779931732,4157.439999832461,280.00000000518565,0.002155906035965912,24.38399990469305,-2.1081304215314852e-09,0.00010440358283421982,8.645548162875818e-11,1.570824238813331
2.0470792370000197,2.0020000000000095,0.006427601520607154,4165.599999799532,280.0000000043815,0.002260351734779961,24.38399989523482,-2.416784694830741e-09,9.54869972989935e-05,9.911354773879796e-11,1.570819955442682
2.2166438830000175,2.1610000000000014,0.007637882731552872,4178.319999741932,280.00000000294193,0.0024053506449624347,24.383999881362573,-2.8197593740890694e-09,8.129167736033687e-05,1.1563974087927097e-10,1.5708140089643345
2.317533674999993,2.2609999999999957,0.008436174359823993,4186.319999702115,280.00000000194535,0.002485613045258485,24.383999873313027,-3.0157268712998376e-09,7.233965941423766e-05,1.2367646688807863e-10,1.5708107173628125
2.4533743350000066,2.3969999999999914,0.009562038524160599,4197.19999964388,280.0000000005092,0.0025810427161518327,24.383999863398557,-3.213765291938666e-09,6.031384387201263e-05,1.3179812153286887e-10,1.570806803743805
2.593379338999995,2.5270000000000152,0.010675896153808612,4207.599999584232,279.99999999907465,0.0026574711411465808,24.383999855188854,-3.3260629341408616e-09,4.913324231496821e-05,1.364035033504156e-10,1.5708036693753844
2.6952095830000076,2.6289999999999907,0.011571295013676344,4215.759999535122,279.99999999792567,0.002707546831192172,24.383999849679967,-3.3845188125918684e-09,4.066526464520783e-05,1.3880080862205572e-10,1.5708016157459483
2.8304199380000057,2.76400000000001,0.012780348050594175,4226.5599994674385,279.99999999639147,0.0027611421068675854,24.38399984366998,-3.418208825853284e-09,2.995962247938633e-05,1.4018245366118347e-10,1.5707994177764142
2.9662481960000093,2.899000000000001,0.014010841962195996,4237.359999397351,279.9999999948615,0.002800826961845518,24.383999839143943,-3.400542452892736e-09,1.9916788195652847e-05,1.394579467368668e-10,1.5707977902802015
3.0681130549999978,3.0,0.014941817330745706,4245.439999343722,279.9999999937292,0.0028218608045367066,24.38399983671886,-3.3692414674912356e-09,1.2882579122552662e-05,1.3817427809785081e-10,1.5707969276714662
3.1725877500000195,3.093999999999994,0.01581392364151715,4252.959999293144,279.9999999926908,0.0028350105576427282,24.383999835193556,-3.32379641362406e-09,6.7319365963625005e-06,1.3631055343693636e-10,1.570796388393219
3.3074667829999953,3.2299999999999898,0.01708141052947136,4263.839999219312,279.99999999121854,0.0028444621125767395,24.383999834092847,-3.2407148858649664e-09,-1.487322461304301e-06,1.3290333892174217e-10,1.570796000779818
3.4086093870000127,3.3310000000000173,0.018024510988179906,4271.919999164254,279.99999999015427,0.002844401233868031,24.383999834099946,-3.1667120971645845e-09,-7.05202080421401e-06,1.2986844771507942e-10,1.5707960032762007
3.510877222000005,3.4320000000000164,0.018966972467107036,4279.99999910927,279.99999998911824,0.002838845407455622,24.3839998347474,-3.0881235478182935e-09,-1.2160174406048675e-05,1.2664549224662724e-10,1.5707962311231514
3.6824317509999958,3.593999999999994,0.020472852462980397,4292.959999021777,279.99999998751184,0.002819381937411253,24.383999837005625,-2.9595914638839108e-09,-1.9388492049256342e-05,1.2137432766033413e-10,1.5707970293294002
3.7834183280000104,3.694000000000017,0.021396411935191987,4300.959998968455,279.99999998655596,0.002801733665021021,24.383999839039813,-2.873658592586976e-09,-2.327092120002836e-05,1.1785017774008336e-10,1.5707977530936568
3.885002557000007,3.7959999999999923,0.022332044241306873,4309.1199989148045,279.99999998560963,0.0027798044794526446,24.383999841549628,-2.789159236699351e-09,-2.6803429831338464e-05,1.1438481678358774e-10,1.5707986524203188
3.98574062900002,3.8969999999999914,0.023250852913173393,4317.199998862562,279.9999999847009,0.0027545747317223707,24.383999844412802,-2.7090052515227134e-09,-2.9874998014567566e-05,1.1109766207073135e-10,1.5707996871047025
4.087156355000019,3.9979999999999905,0.02416094221923548,4325.279998811321,279.9999999838177,0.0027262660214166985,24.383999847594307,-2.630115935393634e-09,-3.254314779037743e-05,1.0786237200516324e-10,1.5708008480588977
4.226375995000012,4.128999999999991,0.02532671769049247,4335.759998746483,279.9999999827104,0.0026855660804750415,24.38399985211081,-2.5301594305479054e-09,-3.5429763342709865e-05,1.0376310592273997e-10,1.570802517183632
4.32776958300002,4.22999999999999,0.026213272933879542,4343.83999869785,279.9999999818847,0.0026516635164461743,24.38399985582115,-2.4542306839669442e-09,-3.724971645567962e-05,1.0064923002231128e-10,1.5708039075446012
4.42905298300002,4.331000000000017,0.027088366924930767,4351.919998650452,279.99999998108257,0.002615902759478665,24.383999859683772,-2.3835103848717003e-09,-3.8727741214467655e-05,9.77489554718962e-11,1.5708053741110086
4.530401365000017,4.431000000000012,0.027942918607695554,4359.91999860482,279.99999998031177,0.002579003549865074,24.38399986361438,-2.3140365411209496e-09,-3.988480249830286e-05,9.489979841117101e-11,1.5708068873659424
4.6695930319999945,4.560000000000002,0.02902706164449314,4370.23999854789,279.99999997934907,0.002529685820224579,24.383999868780666,-2.2260222033785543e-09,-4.095129041825767e-05,9.129028659250293e-11,1.5708089099105809
4.770522446000001,4.661000000000001,0.02986124585888385,4378.319998504811,279.9999999786208,0.002490101788277072,24.38399987285513,-2.161035769320923e-09,-4.149324028928996e-05,8.862516058552009e-11,1.570810533271449
4.871704854000001,4.763000000000005,0.030690312970494325,4386.479998462676,279.9999999779059,0.0024495397852871575,24.383999876963603,-2.0956994060978654e-09,-4.179547071763139e-05,8.59456837770385e-11,1.570812196739409
4.9725823779999985,4.8629999999999995,0.03148984635594936,4394.47999842271,279.9999999772252,0.0024094289994380015,24.383999880960012,-2.032170207726468e-09,-4.187663176739832e-05,8.334031969514633e-11,1.5708138417027402
5.107617161999997,4.9979999999999905,0.03254832268140389,4405.279998370846,279.99999997633773,0.002355115101619053,24.383999886266384,-1.944721199694469e-09,-4.168617314987237e-05,7.975399231004501e-11,1.5708160691427917
5.213416013,5.094999999999999,0.0332939187634527,4413.039998335018,279.9999999757245,0.0023162083043177417,24.383999889993138,-1.8825344944899943e-09,-4.136051038210571e-05,7.720368450575077e-11,1.570817664729972
5.348714010999998,5.22999999999999,0.03431114778203348,4423.839998287124,279.999999974903,0.002262524222566094,24.383999895033444,-1.7931275195020357e-09,-4.0686559887417546e-05,7.353705992868532e-11,1.5708198663409765
5.48382503800002,5.364000000000004,0.0352974151923644,4434.559998241749,279.9999999741253,0.002210089450576505,24.38399989984236,-1.7030079749596084e-09,-3.9800824982297915e-05,6.984121248115849e-11,1.5708220167171747
5.584857069999998,5.465000000000003,0.03602564679940973,4442.639998208921,279.99999997356656,0.00217129562596056,24.38399990332765,-1.6333762676974488e-09,-3.9016413216779337e-05,6.698558137143459e-11,1.5708236076713118
5.690045537999993,5.561000000000007,0.036705886609924826,4450.319998178788,279.99999997305474,0.002135125812570562,24.3839999065216,-1.5675312868047159e-09,-3.819265680896397e-05,6.428524591922907e-11,1.5708250910134416
5.791722735000008,5.662000000000006,0.037409421453548974,4458.399998148156,279.9999999725401,0.0020978513325926825,24.383999909756966,-1.4951743823238924e-09,-3.726354006389699e-05,6.131785314553552e-11,1.570826619658505
5.9265581760000146,5.795999999999992,0.03832393297734739,4469.119998109149,279.9999999718941,0.0020497890297338094,24.383999913844587,-1.3971191292300693e-09,-3.5949162406319815e-05,5.7296558373754e-11,1.5708285907175839
6.028079762999994,5.897999999999996,0.03900605185785884,4477.279998080633,279.9999999714328,0.0020143198855947,24.383999916800423,-1.3197374948062432e-09,-3.490504458101793e-05,5.4123098814788705e-11,1.5708300453249293
6.1670527360000165,6.027000000000015,0.03985182278823113,4487.599998045981,279.9999999708846,0.001970930416369921,24.38399992034616,-1.2230157138417726e-09,-3.355047420856432e-05,5.015649029256803e-11,1.5708318247487763
6.268544095999999,6.1270000000000095,0.04049500826143731,4495.599998020111,279.99999997048815,0.0019384704210467564,24.383999922948266,-1.1453637502586327e-09,-3.2487269383015754e-05,4.697194453599611e-11,1.5708331559494255
6.369556942000003,6.228000000000009,0.04113393650293379,4503.679997994841,279.9999999701162,0.0019066988782164872,24.383999925453335,-1.064273675335455e-09,-3.14122313440488e-05,4.36464000724379e-11,1.5708344589162977
6.5051791980000075,6.364000000000004,0.04197789850177996,4514.5599979620965,279.99999996965335,0.0018655548518382158,24.38399992863587,-9.54761866108169e-10,-2.997632311280429e-05,3.9155266119803196e-11,1.570836146253414
6.606496305999997,6.465000000000003,0.042592920884033734,4522.639997938685,279.99999996934264,0.0018362214139523122,24.383999930862448,-8.735322211293557e-10,-2.8927946146792027e-05,3.582399783279798e-11,1.5708373492323855
6.7116301080000085,6.561000000000007,0.04316851901832852,4530.31999791712,279.9999999690741,0.0018093115533675949,24.383999932874037,-7.944323546588539e-10,-2.7952635993162637e-05,3.258007284400908e-11,1.5708384528192396
6.846590402000004,6.694999999999993,0.0439580739221935,4541.039997888009,279.9999999687384,0.0017732301073285614,24.383999935524628,-6.84290403758386e-10,-2.663222852441984e-05,2.8063096343058252e-11,1.570839932537405
6.948150421999998,6.796999999999997,0.04454861200851282,4549.199997866645,279.9999999685149,0.001746903970232085,24.383999937424893,-5.987437938412414e-10,-2.5664770305779246e-05,2.4554787150178246e-11,1.570841012185467
7.083455724000004,6.932000000000016,0.04531686062921975,4559.999997839315,279.99999996826324,0.0017135297565898013,24.38399993979304,-4.84882040174894e-10,-2.4441627903419294e-05,1.9885259810444944e-11,1.5708423808786767
7.185756630000014,7.027000000000015,0.045848662106749566,4567.59999782071,279.9999999681167,0.0016910147842162312,24.383999941364834,-4.051333097624026e-10,-2.362307730709702e-05,1.6614724492183342e-11,1.5708433042289671
7.2870745529999965,7.128999999999991,0.04641201617813703,4575.759997801275,279.9999999679883,0.001667681258170287,24.383999942971837,-3.1973355956852484e-10,-2.2784648899908708e-05,1.3112438072864678e-11,1.5708442611485487
7.422476880999994,7.265000000000015,0.04715119374925529,4586.639997776164,279.99999996786147,0.0016378382913337694,24.383999944994624,-2.0969512096029621e-10,-2.1733064712870245e-05,8.599706740109229e-12,1.570845485023557
7.524093213000015,7.36699999999999,0.047696956773125056,4594.799997757921,279.9999999677996,0.00161636704108744,24.383999946427366,-1.2792720264520669e-10,-2.099556516878496e-05,5.246363478538158e-12,1.570846365570276
7.659028217000014,7.5020000000000095,0.048408397226035724,4605.599997734483,279.9999999677573,0.0015890727147119903,24.383999948221373,-2.2077739144577477e-11,-2.008745302408771e-05,9.054241070679788e-13,1.5708474849242604
7.794451777999996,7.628000000000014,0.04906160223326795,4615.6799977133,279.99999996776114,0.0015646918269373955,24.38399994979806,7.471465611469992e-11,-1.931013575836356e-05,-3.064080380141775e-12,1.5708484847966682
7.895181527000005,7.728000000000009,0.04957297113410848,4623.679997696954,279.9999999677937,0.0015460059442438867,24.383999950989946,1.5104127674110153e-10,-1.8738236400399435e-05,-6.194273303037809e-12,1.5708492511140664
7.99656609500002,7.829000000000008,0.05008330407626288,4631.759997680851,279.9999999678503,0.0015276992277938248,24.383999952143757,2.2764587230027326e-10,-1.8201438502206054e-05,-9.335866047653586e-12,1.5708500018816658
8.098498366000001,7.931000000000012,0.0505926027298901,4639.919997664966,279.9999999679343,0.00150974510189471,24.383999953262,3.0376564105605926e-10,-1.7698921588123793e-05,-1.2457575822080453e-11,1.5708507381893493
8.203795194999998,8.027000000000015,0.051066455931721266,4647.5999976503435,279.99999996803666,0.0014933098961186,24.383999954274046,3.7333810327457084e-10,-1.7261470055295394e-05,-1.5310777326215373e-11,1.5708514122053592
8.339238402999996,8.162000000000006,0.051724214986873754,4658.3999976303285,279.9999999682161,0.0014708939990257337,24.38399995563652,4.692558371199306e-10,-1.67011283153425e-05,-1.924441158085964e-11,1.5708523314925065
8.441411654999996,8.26400000000001,0.052214673520330684,4666.55999761561,279.9999999683806,0.0014544387200434768,24.383999956623583,5.403037133676829e-10,-1.6317939231037803e-05,-2.2158120493946513e-11,1.5708530063317243
8.576934294000012,8.399000000000001,0.052855422236146685,4677.359997596602,279.99999996863403,0.0014332458546777258,24.383999957878473,6.302455548672282e-10,-1.5859885597746705e-05,-2.5846680451159986e-11,1.5708538754617267
8.678467119999993,8.498999999999995,0.05332403976270252,4685.359997582867,279.99999996884685,0.0014179377017245855,24.383999958773444,6.938383089735131e-10,-1.555453519400959e-05,-2.8454651112622934e-11,1.5708545032567298
8.784143911000001,8.594999999999999,0.05376919303382791,4693.039997569953,279.9999999690709,0.001403531603073558,24.383999959606903,7.528385721779029e-10,-1.5286530654607643e-05,-3.0874281436836255e-11,1.5708550940580341
8.884943246000006,8.694999999999993,0.054228124770162214,4701.039997556791,279.9999999693242,0.0013887865171479039,24.383999960451167,8.134194565421783e-10,-1.5031576941435363e-05,-3.3358733829626935e-11,1.5708556987613753
8.985680937000012,8.795999999999992,0.05468677238530141,4709.119997543775,279.9999999695996,0.001374148948337145,24.383999961280463,8.722630592374951e-10,-1.4796638562775985e-05,-3.5771939435193354e-11,1.5708562990553845
9.121059540000005,8.930000000000007,0.0552878366594246,4719.839997526929,279.99999996999475,0.001355083757620741,24.383999962347417,9.473931204592238e-10,-1.4517462252873212e-05,-3.885306085276666e-11,1.570857080928379
9.226587358000018,9.027000000000015,0.05571771284646783,4727.599997515003,279.99999997030204,0.0013415123693003407,24.383999963097843,9.98327808649546e-10,-1.4336200584897683e-05,-4.094191794248701e-11,1.5708576374977925
9.327505269,9.128000000000014,0.05616077399049064,4735.679997502867,279.999999970638,0.0013275668522044844,24.38399996386108,1.0508921260313502e-09,-1.4163917474985887e-05,-4.3097606927009434e-11,1.5708582094104122
9.428890007000007,9.229000000000013,0.056599232645113434,4743.759997490981,279.99999997099115,0.0013137887413376295,24.38399996460733,1.1017754628936671e-09,-1.400644748126496e-05,-4.518435807174731e-11,1.5708587744576188
9.597027499000006,9.396000000000015,0.057314246648303355,4757.119997471826,279.99999997161245,0.0012913451845664066,24.38399996580624,1.1785493526028986e-09,-1.3774811032897378e-05,-4.833289375400228e-11,1.5708596948790874
9.698077906999998,9.49600000000001,0.05773653779190696,4765.1199974606525,279.99999997200405,0.0012780851538939746,24.383999966504867,1.2211345672447005e-09,-1.3650501767237646e-05,-5.007933476613405e-11,1.5708602386795647
9.804940361000007,9.593999999999994,0.058146162157540975,4772.959997449926,279.99999997240167,0.001265210320253533,24.3839999671763,1.2606281098953216e-09,-1.3537592638763431e-05,-5.1698984747927115e-11,1.5708607666829195
9.906498147000008,9.695999999999998,0.058568150061623324,4781.119997438987,279.99999997282833,0.0012519221399041962,24.383999967862163,1.2999786807686528e-09,-1.3427907880927902e-05,-5.331277140502896e-11,1.5708613116378285
10.04244321600001,9.831999999999994,0.05912390848111508,4791.999997424758,279.99999997341484,0.0012343731542674517,24.383999968756846,1.3493499601459222e-09,-1.3292001251461988e-05,-5.533751234597129e-11,1.5708620313304889
10.144274066999998,9.933999999999997,0.05953560397178702,4800.159997414352,279.9999999738714,0.0012213290990610176,24.383999969413672,1.3840554764433124e-09,-1.3196307180125488e-05,-5.6760802984760436e-11,1.5708625662737032
10.246823556999999,10.027000000000015,0.05990713045796292,4807.599997405066,279.9999999742959,0.001209519705956828,24.383999970002318,1.4144855586694095e-09,-1.3112736889984774e-05,-5.8008755956089086e-11,1.570863050582809
10.381786965000003,10.159999999999997,0.06043225779741359,4818.239997392127,279.9999999749191,0.0011927639175847973,24.383999970827702,1.4570703934528726e-09,-1.2997774263499981e-05,-5.975518139806122e-11,1.5708637377460521
10.482712077000002,10.260999999999996,0.06082617450592603,4826.319997382501,279.99999997540414,0.0011801356596575622,24.383999971442165,1.4847108728611585e-09,-1.291300539373766e-05,-6.088873136022915e-11,1.5708642556372119
10.617722659000009,10.39500000000001,0.061342351511459996,4837.03999737008,279.9999999760617,0.0011635085861297105,24.383999972241213,1.5207624931673883e-09,-1.2802470378257372e-05,-6.236722642691386e-11,1.5708649375217956
10.718682486000006,10.49600000000001,0.061726594116494164,4845.119997360956,279.9999999765687,0.0011510706516511808,24.383999972831532,1.546427697783085e-09,-1.2719831248515851e-05,-6.341976938520192e-11,1.5708654476076955
10.827677487000017,10.594999999999999,0.06209922388752262,4853.039997352188,279.9999999770734,0.0011389573279240038,24.383999973400357,1.5686003767929775e-09,-1.2638815961063929e-05,-6.432908211211053e-11,1.570865944381147
10.928790386999992,10.694999999999993,0.062471636841947314,4861.039997343528,279.99999997758937,0.0011267993548135598,24.383999973965217,1.58983056653744e-09,-1.2556515777347191e-05,-6.519974288757442e-11,1.5708664429856918
11.063668175999993,10.829000000000008,0.0629644380721044,4871.759997332205,279.9999999782922,0.0011106308608620859,24.383999974707013,1.6150266098692742e-09,-1.2444845076672406e-05,-6.623304533407044e-11,1.570867106063698
11.164964408999992,10.931000000000012,0.06333481240509099,4879.919997323777,279.99999997883435,0.0010984194175102462,24.383999975260156,1.6305979306052224e-09,-1.2358367562843012e-05,-6.687163306395952e-11,1.5708676068610843
11.30398991200002,11.061000000000007,0.06380091861253127,4890.319997313345,279.99999997953296,0.0010829802768917867,24.38399997595075,1.6501665001665621e-09,-1.2245809588663633e-05,-6.767414998884187e-11,1.5708682400279468
11.405730363999993,11.162000000000006,0.06415853234998352,4898.399997305447,279.9999999800807,0.0010710801337559096,24.38399997647636,1.6637074966508196e-09,-1.2156430426400675e-05,-6.822947310946643e-11,1.570868728058756
11.507541168000017,11.26400000000001,0.06451570024338506,4906.559997297628,279.9999999806387,0.0010591498563119017,24.383999976997494,1.6741949386273282e-09,-1.2064221539828839e-05,-6.865956843124369e-11,1.5708692173253884
11.608259034000014,11.363,0.06485853490518749,4914.479997290212,279.99999998118335,0.001047657085827815,24.38399997749398,1.682895268510838e-09,-1.1972804426984837e-05,-6.901637339632046e-11,1.5708696886496423
11.742424977000013,11.497000000000014,0.06531665988100871,4925.199997280414,279.9999999819252,0.0010322387421852091,24.383999978151557,1.6913840741110315e-09,-1.1846013913827936e-05,-6.936450368014396e-11,1.5708703209636106
11.848778325000012,11.59299999999999,0.06564068686871707,4932.879997273581,279.99999998245784,0.0010212946244145817,24.383999978612387,1.6963719742991983e-09,-1.1752987072378588e-05,-6.956906003372307e-11,1.5708707697873434
11.949503273000005,11.694000000000017,0.06597790872209719,4940.959997266542,279.99999998302025,0.001009870596773659,24.383999979088188,1.6998494926522552e-09,-1.1653242439227475e-05,-6.971167488719601e-11,1.570871238292419
12.050519578000007,11.795000000000016,0.06631135482687471,4949.039997259654,279.9999999835853,0.0009985425271599843,24.38399997955471,1.7013743861658214e-09,-1.1551614874951776e-05,-6.977421162191816e-11,1.5708717028622086
12.185886543999999,11.931000000000012,0.06675445111607928,4959.919997250624,279.99999998434623,0.0009834435836429387,24.383999980168355,1.7008419854058975e-09,-1.1411927816874934e-05,-6.97523777154702e-11,1.5708723220774192
12.325730192000009,12.060000000000002,0.06716850277911644,4970.239997242319,279.9999999850679,0.0009692931073592094,24.383999980734963,1.6980103840138253e-09,-1.1276589216720283e-05,-6.963625244099409e-11,1.5708729023955155
12.426896932000005,12.161000000000001,0.06748854033487518,4978.3199972359835,279.99999998562834,0.0009583292198459697,24.383999981168323,1.6944693607222928e-09,-1.1168962444715154e-05,-6.949103339573624e-11,1.5708733520300153
12.528106491000017,12.260999999999996,0.06780183438787198,4986.319997229859,279.9999999861831,0.0009475762460594678,24.38399998158856,1.688875999542064e-09,-1.1061046422512035e-05,-6.92616469480877e-11,1.5708737930148384
12.629234592000017,12.361999999999995,0.06811469715648108,4994.399997223799,279.99999998674195,0.0009368204638170392,24.383999982004163,1.6812671627536753e-09,-1.0950859537349377e-05,-6.894960482485449e-11,1.5708742341148378
12.764882733999997,12.49799999999999,0.06853037847231563,5005.279997215859,279.9999999874902,0.0009225057072775958,24.38399998254993,1.6677008682389948e-09,-1.0800847113366746e-05,-6.839324442005942e-11,1.5708748211701498
12.904889338000004,12.62899999999999,0.06892474243490303,5015.759997208436,279.99999998820454,0.0009089045936483543,24.38399998306069,1.6516771745602643e-09,-1.0654895273889352e-05,-6.773610484581057e-11,1.57087537895861
13.007497805000014,12.730999999999995,0.06922779093792716,5023.919997202798,279.9999999887562,0.0008984393936752234,24.38399998344854,1.6375952129657074e-09,-1.0540516845932576e-05,-6.71585966541247e-11,1.5708758081416858
13.143068851999999,12.865000000000009,0.06962060420101573,5034.639997195614,279.99999998947305,0.0008848622533271615,24.38399998394501,1.6185511963896426e-09,-1.0389534628997514e-05,-6.637759211214795e-11,1.5708763649469903
13.27822876800002,12.998999999999995,0.07000747883332843,5045.359997188641,279.99999999018223,0.0008714790076308042,24.383999984427,1.597231767431121e-09,-1.0238085551234563e-05,-6.550327179097478e-11,1.570876913800578
13.383392446000016,13.093999999999994,0.07027818043481307,5052.959997183818,279.9999999906783,0.0008621120339061581,24.38399998475998,1.580612692846365e-09,-1.0130624584996593e-05,-6.482171530532816e-11,1.5708772979448475
13.518882293000019,13.230999999999995,0.0706634954966279,5063.919997177046,279.99999999138413,0.0008487711385247846,24.383999985228,1.5552526649726784e-09,-9.975816218090735e-06,-6.378168799998961e-11,1.5708778450616276
13.654180830000001,13.366000000000014,0.07103734115032802,5074.719997170575,279.9999999920686,0.0008358250104893197,24.383999985675196,1.5282932500336575e-09,-9.823702653085732e-06,-6.267606901447893e-11,1.5708783759888025
13.789192138999994,13.501000000000005,0.07140548443185712,5085.519997164305,279.99999999274206,0.0008230761639561831,24.383999986108876,1.5001061753048908e-09,-9.672333195911562e-06,-6.15201030859975e-11,1.5708788988253644
13.892016659000006,13.59299999999999,0.07165310696268588,5092.879997160135,279.9999999931936,0.0008145046394745746,24.383999986396706,1.4796483411719245e-09,-9.569755510485859e-06,-6.068111715248892e-11,1.5708792503478632
14.026887361000007,13.728000000000009,0.07201186016348936,5103.679997154167,279.99999999384454,0.0008020859139373483,24.383999986808384,1.4480885048728997e-09,-9.420289480489038e-06,-5.938683259872302e-11,1.5708797596459982
14.128776232000007,13.829000000000008,0.07227667806641137,5111.759997149839,279.99999999432174,0.0007929209975476322,24.383999987108126,1.424682121559109e-09,-9.309378911501305e-06,-5.842692518780022e-11,1.5708801355037953
14.230231349999997,13.931000000000012,0.07254105231055363,5119.919997145546,279.9999999947957,0.0007837749247488977,24.38399998740384,1.3990403407352319e-09,-9.198255866184511e-06,-5.737534300881983e-11,1.5708805105888077
14.335381014999996,14.027000000000015,0.07278706468661587,5127.5999971415995,279.99999999523305,0.0007752670609897376,24.38399998767582,1.374976916007884e-09,-9.094564872774949e-06,-5.638849000177238e-11,1.5708808595005488
14.505625167999995,14.197000000000003,0.07321622304878671,5141.199997134832,279.9999999959908,0.0007604362359988822,24.383999988142843,1.3315308653366868e-09,-8.91327045268118e-06,-5.460674585579771e-11,1.5708814677200866
14.60773779600001,14.299000000000007,0.07346976763343964,5149.359997130894,279.99999999643444,0.0007516787571485989,24.383999988414388,1.3046817852589072e-09,-8.805988908442032e-06,-5.3505651728761585e-11,1.5708818268686668
14.709371812,14.399000000000001,0.07371549757830118,5157.359997127132,279.9999999968602,0.0007431963015092595,24.383999988674397,1.278132887864142e-09,-8.701981507278104e-06,-5.241686823797339e-11,1.570882174738408
14.847663307999994,14.527000000000015,0.07402597143525029,5167.599997122426,279.9999999973917,0.0007324848733283748,24.383999988998518,1.2424423480601875e-09,-8.57060501474188e-06,-5.095318144765894e-11,1.5708826140194267
14.948201923,14.628000000000014,0.07426781341003631,5175.679997118803,279.99999999779976,0.0007241488617351755,24.383999989247513,1.2134241219096946e-09,-8.46838373288452e-06,-4.976312954965695e-11,1.570882955883424
15.049891429000013,14.72999999999999,0.07450926109815999,5183.83999711522,279.9999999982024,0.0007158284820513735,24.383999989493205,1.1837931011032716e-09,-8.366424155411546e-06,-4.8547946623720025e-11,1.5708832971063493
15.185900486000008,14.866000000000014,0.07482688247956702,5194.719997110603,279.9999999987239,0.0007048902699417291,24.383999989811848,1.1455836412501352e-09,-8.232553026062585e-06,-4.698095765434565e-11,1.5708837456878895
15.320879657999996,15.0,0.07513507849132012,5205.439997106178,279.9999999992222,0.0006942850657840895,24.38399999011612,1.1065316383877151e-09,-8.102990145206456e-06,-4.537941557593327e-11,1.5708841806126073
15.424341924999993,15.09299999999999,0.0753462197330321,5212.879997103192,279.9999999995573,0.0006870260181314478,24.38399999032172,1.07969606959619e-09,-8.014466123939109e-06,-4.427887552872333e-11,1.5708844783097762
15.560587950000013,15.229000000000013,0.07565106458650123,5223.759997098918,280.00000000003286,0.00067654832060825,24.383999990614686,1.039425551581553e-09,-7.887036822288148e-06,-4.262736153202464e-11,1.570884908005383
15.663042888999996,15.331000000000017,0.0758766438685081,5231.919997095791,280.0000000003769,0.0006687993423601753,24.383999990828453,1.008209997258921e-09,-7.793034937441203e-06,-4.134719610015278e-11,1.5708852257948502
15.798567698,15.467000000000013,0.0761734031021802,5242.799997091732,280.0000000008207,0.0006586109018531849,24.38399999110577,9.662857216045804e-10,-7.669767374702307e-06,-3.962786065902325e-11,1.5708856436278826
15.902147525000004,15.560000000000002,0.0763736983976479,5250.239997089043,280.0000000011128,0.0006517401090886165,24.383999991290388,9.38492399607177e-10,-7.586877764956368e-06,-3.848804266913926e-11,1.5708859254025245
16.003877673999995,15.662000000000006,0.07659100725802882,5258.399997086144,280.00000000142353,0.0006442865248403483,24.383999991488466,9.069775258724994e-10,-7.497167092839127e-06,-3.719560199513821e-11,1.570886231077736
16.10588346900002,15.76400000000001,0.07680583115443852,5266.559997083322,280.00000000172315,0.0006369208255460509,24.383999991681975,8.76214322779212e-10,-7.408780358454294e-06,-3.5933987707976913e-11,1.5708865331487418
16.241224254000002,15.899000000000001,0.07708638202146087,5277.35999707967,280.00000000210395,0.0006273059370101113,24.383999991931216,8.345063690110911e-10,-7.293739313431649e-06,-3.422352372783034e-11,1.5708869274601212
16.379646006,16.027000000000015,0.07734845372650247,5287.599997076326,280.00000000244887,0.0006183280098077655,24.383999992160533,7.957898158992076e-10,-7.186683714938298e-06,-3.263573858171783e-11,1.5708872956493987
16.480968866000012,16.12700000000001,0.07755059645631789,5295.599997073783,280.0000000027068,0.0006114081045769813,24.383999992335035,7.657926562568433e-10,-7.104417436768439e-06,-3.1405540103248667e-11,1.570887579438167
16.582604547000017,16.229000000000013,0.07775445891783932,5303.759997071239,280.00000000295887,0.0006044285326245574,24.38399999250904,7.349822418012336e-10,-7.02164869346235e-06,-3.014198964784774e-11,1.5708878656738976
16.684094885000007,16.329000000000008,0.07795205780721631,5311.759997068795,280.00000000319676,0.0005976650421576768,24.38399999267576,7.047248277321272e-10,-6.941655613463114e-06,-2.8901118004518795e-11,1.5708881430480188
16.785563015999998,16.430000000000007,0.07814939212494541,5319.839997066402,280.00000000342754,0.0005909125796802339,24.383999992840327,6.750379982808853e-10,-6.8619716146617905e-06,-2.7683646318054874e-11,1.5708884199698763
16.92529126400001,16.560000000000002,0.07840009429182808,5330.239997063384,280.00000000370954,0.0005823366365031172,24.383999993046658,6.360028356178998e-10,-6.761035150963384e-06,-2.6082794826874943e-11,1.5708887716735878
17.026879479,16.662000000000006,0.07859426415808597,5338.399997061069,280.00000000391884,0.0005756948560933521,24.38399999320437,6.0516036021652e-10,-6.683053088935179e-06,-2.4817929530700325e-11,1.5708890440563184
17.128231303999996,16.763000000000005,0.07878434477070802,5346.479997058827,280.0000000041166,0.0005691938281924368,24.383999993356987,5.749379563023859e-10,-6.606894237777159e-06,-2.357849366623873e-11,1.5708893106667186
17.26307677700001,16.89699999999999,0.0790332198194572,5357.199997055952,280.0000000043621,0.0005606829384366535,24.383999993554156,5.361094147073417e-10,-6.50739802195154e-06,-2.1986115801183573e-11,1.5708896597025568
17.364596704000007,16.99799999999999,0.07921834409022263,5365.279997053835,280.00000000453633,0.0005543531052828386,24.383999993698886,5.067931676124244e-10,-6.433546696246449e-06,-2.078384187632082e-11,1.5708899192921748
17.538469367999994,17.162000000000006,0.07951448829488475,5378.39999705049,280.00000000479895,0.0005442286783778762,24.38399999392696,4.5936633923423467e-10,-6.315672394906828e-06,-1.8838843969589417e-11,1.5708903344999772
17.639742987000005,17.263000000000005,0.07969417984664177,5386.479997048474,280.00000000494805,0.0005380851721793814,24.383999994063302,4.297464501293191e-10,-6.244289599522455e-06,-1.7624117542318536e-11,1.5708905864482334
17.775003034000008,17.397999999999996,0.07993119910612013,5397.279997045879,280.00000000513216,0.0005299817590480343,24.38399999424079,3.922021374205212e-10,-6.150262039418947e-06,-1.6084406528280173e-11,1.5708909187732518
17.876059873000003,17.498999999999995,0.08010618669040917,5405.359997043989,280.00000000525927,0.0005239992023691885,24.383999994370086,3.643186742679165e-10,-6.0809320221349925e-06,-1.4940891782953055e-11,1.5708911641208885
18.01451087800001,17.628000000000014,0.08032680113391025,5415.679997041625,280.0000000054078,0.0005164578978648917,24.383999994530974,3.2935995111321266e-10,-5.993637939140625e-06,-1.3507217095789457e-11,1.570891473393551
18.150502555000003,17.76400000000001,0.08055596923517296,5426.559997039215,280.0000000055489,0.0005086222918498481,24.383999994695678,2.9347437324909767e-10,-5.9030336205693404e-06,-1.2035531631899584e-11,1.5708917947356658
18.252662719,17.866000000000014,0.08072556066946579,5434.719997037458,280.000000005644,0.0005028234233315077,24.38399999481594,2.6702215014835354e-10,-5.836027672961165e-06,-1.0950712751665843e-11,1.570892032550159
18.38776623000001,17.998999999999995,0.08094378455384019,5445.3599970352,280.0000000057556,0.0004953616350424247,24.383999994968665,2.319052942040788e-10,-5.749856788668695e-06,-9.510552946900489e-12,1.5708923385618223
18.492413948000006,18.095,0.08109927579682,5453.039997033641,280.00000000582565,0.0004900456870289367,24.38399999507608,2.0871234859078512e-10,-5.688486626988577e-06,-8.559398663916817e-12,1.5708925565715042
18.593586762,18.194999999999993,0.08125948129480406,5461.039997032018,280.0000000058925,0.00048456696485886714,24.383999995185576,1.827064798242099e-10,-5.625283912198423e-06,-7.492884996189046e-12,1.570892781256636
18.694882078999996,18.296999999999997,0.08142105179939786,5469.199997030439,280.0000000059511,0.00047904117798554057,24.383999995294758,1.5897212832840294e-10,-5.5615423502120705e-06,-6.519527384348889e-12,1.5708930078719143
18.83088411700001,18.432999999999993,0.0816336165373963,5480.079997028358,280.00000000601614,0.0004717704673017057,24.38399999543651,1.2628487557293363e-10,-5.47768272982503e-06,-5.1790068125204226e-12,1.5708933060473895
18.935268444000002,18.527000000000015,0.08177862852485376,5487.599997026972,280.0000000060528,0.000466810107315684,24.383999995531983,1.0546188026044606e-10,-5.4204693203764245e-06,-4.325045371656258e-12,1.5708935094742293
19.036851979000005,18.628000000000014,0.0819327583009555,5495.679997025483,280.0000000060842,0.00046153886786644976,24.38399999563233,8.154486786460011e-11,-5.359669170903132e-06,-3.3441967448497012e-12,1.5708937256503908
19.171240119000004,18.762,0.08213456185723773,5506.399997023608,280.0000000061154,0.00045463473048146604,24.383999995762032,5.3212286112670715e-11,-5.280036242439844e-06,-2.1822634031862936e-12,1.5708940087925118
19.272481577000008,18.863,0.08228467124546304,5514.479997022195,280.0000000061311,0.0004494987426871229,24.38399999585725,3.031515374643928e-11,-5.220782888698756e-06,-1.2432405623953905e-12,1.5708942194219357
19.442420413000008,19.027000000000015,0.08252479908592565,5527.599997020022,280.00000000614057,0.00044128202017802053,24.383999996007333,-2.8930865658468388e-12,-5.125958888075676e-06,1.1864597295285057e-13,1.5708945563938284
19.544160766999994,19.12899999999999,0.08267193679981104,5535.75999701867,280.0000000061374,0.0004362474664293445,24.383999996097927,-2.4924016843722814e-11,-5.067841815109696e-06,1.0221454343939027e-12,1.5708947628633907
19.64602271800001,19.230999999999995,0.08281739558802897,5543.919997017395,280.0000000061263,0.0004312690652006549,24.38399999618649,-4.373294132065947e-11,-5.010351366359718e-06,1.7935088394184235e-12,1.5708949670301107
19.781578351999997,19.366000000000014,0.0830073626641278,5554.719997015707,280.0000000061027,0.00042476699519686457,24.383999996300624,-7.01783724398457e-11,-4.93523746588715e-06,2.878049187690537e-12,1.570895233683248
19.884196800000012,19.467000000000013,0.08314761018380418,5562.799997014495,280.0000000060776,0.00041996637101395743,24.38399999638378,-8.897851536341892e-11,-4.879756781244232e-06,3.649052457599291e-12,1.5708954305592424
20.018621550000006,19.593999999999994,0.08332169838424927,5572.959997013001,280.00000000603774,0.00041400832071901634,24.383999996485667,-1.111773444884491e-10,-4.810852409226124e-06,4.559437544312747e-12,1.5708956749018597
20.119987889000015,19.694999999999993,0.08345839358922025,5581.03999701184,280.00000000599846,0.0004093286761820997,24.38399999656467,-1.2903722468364203e-10,-4.756741628375235e-06,5.291880163187627e-12,1.5708958668164186
20.22136332400001,19.795999999999992,0.08359354366221665,5589.119997010727,280.0000000059545,0.0004047016697196852,24.383999996641908,-1.4419978338446896e-10,-4.703203812154901e-06,5.913704287311002e-12,1.5708960565722638
20.35565019500001,19.930000000000007,0.08377049489815118,5599.839997009251,280.0000000058877,0.00039864314026765856,24.383999996741714,-1.6592857358012098e-10,-4.63307321458151e-06,6.804812846815015e-12,1.5708963050355815
20.458847131,20.027000000000015,0.0838969242389436,5607.599997008231,280.00000000583344,0.00039431421786061485,24.383999996812108,-1.8025082960558648e-10,-4.582942117553285e-06,7.39217573321143e-12,1.5708964825668508
20.594518890000018,20.162000000000006,0.0840706131296305,5618.399997006845,280.0000000057501,0.00038836746968330346,24.38399999690755,-1.988298345252612e-10,-4.514041455229977e-06,8.154110025488873e-12,1.5708967264459626
20.729985994999993,20.296999999999997,0.08424168230904046,5629.199997005459,280.0000000056589,0.00038250962099178193,24.383999997000156,-2.189586879096039e-10,-4.446144679813957e-06,8.97960437882655e-12,1.5708969666792618
20.864840777000012,20.430000000000007,0.08440768901429387,5639.839997004194,280.00000000556116,0.00037682488039227595,24.383999997088672,-2.3448847532215253e-10,-4.380221904894188e-06,9.61648874112881e-12,1.570897199813312
20.967092460999993,20.52799999999999,0.08452842641473828,5647.679997003261,280.00000000548476,0.0003726899856066657,24.38399999715223,-2.466624021747267e-10,-4.332252260830438e-06,1.0115747582760962e-11,1.5708973693874118
21.101889045000007,20.66300000000001,0.08469259007037609,5658.4799970019985,280.000000005373,0.0003670686559379455,24.383999997237513,-2.631781790931371e-10,-4.267011777850089e-06,1.0793067866902978e-11,1.5708975999209478
21.20341214200002,20.76400000000001,0.08481378680096319,5666.559997001113,280.00000000528394,0.00036291797862651157,24.38399999729965,-2.724230374721479e-10,-4.21882911411177e-06,1.117220414158533e-11,1.5708977701422968
21.339655804000017,20.900000000000006,0.08497482302766034,5677.4399969999195,280.0000000051603,0.0003574025863745886,24.383999997381114,-2.859160406592276e-10,-4.1547804374033915e-06,1.1725558966010577e-11,1.5708979963312866
21.44116269700001,21.00200000000001,0.08509399208798625,5685.599996999024,280.0000000050636,0.00035332105828545825,24.3839999974406,-2.9688427410277345e-10,-4.1073653929843815e-06,1.2175371720210288e-11,1.5708981637167911
21.577304489,21.131,0.08524274613931387,5695.919996997977,280.0000000049373,0.0003482271125112652,24.383999997513875,-3.072543014812045e-10,-4.048173208176457e-06,1.2600651746926808e-11,1.5708983726220507
21.713157573000018,21.265000000000015,0.08539500444003202,5706.639996996902,280.00000000479986,0.0003430126443242793,24.383999997587793,-3.1744534525248817e-10,-3.9875682221313315e-06,1.3018591566116923e-11,1.5708985864699947
21.81499983400002,21.366000000000014,0.08550825844337935,5714.719996996091,280.0000000046933,0.00033913377934884174,24.383999997642043,-3.256355249482791e-10,-3.942475649406686e-06,1.33544749482631e-11,1.570898745544184
21.986047971000005,21.527000000000015,0.08568613761503645,5727.599996994869,280.0000000045194,0.0003330415762857446,24.383999997726008,-3.366755202062202e-10,-3.8716391223474865e-06,1.380723070361497e-11,1.570898995388473
22.121421567,21.66300000000001,0.0858339171921225,5738.479996993879,280.00000000436717,0.00032798106867288425,24.383999997794596,-3.432257421375689e-10,-3.8127859663386474e-06,1.4075858599946542e-11,1.570899202922417
22.223434935,21.765000000000015,0.08594327620077,5746.639996993136,280.0000000042531,0.0003242354907925182,24.383999997844693,-3.4930260276448757e-10,-3.769230047047907e-06,1.4325073710690095e-11,1.5708993565304357
22.357969131999994,21.899,0.08608504423365931,5757.359996992161,280.0000000040969,0.00031938005807494906,24.383999997908763,-3.575868821219806e-10,-3.7127501026552976e-06,1.4664816171132313e-11,1.5708995556541558
22.459433092000012,22.0,0.08619049539567954,5765.4399969915,280.00000000397915,0.0003157686468664144,24.383999997955804,-3.606176919518709e-10,-3.6707383419459057e-06,1.478911121835688e-11,1.5708997037599324
22.630064196000006,22.161,0.08635611964782107,5778.319996990448,280.00000000378833,0.0003100972981708545,24.383999998028578,-3.6537686033795814e-10,-3.6047544700030603e-06,1.4984287121655245e-11,1.570899936344774
22.731322069000015,22.262,0.08645850587399634,5786.399996989789,280.0000000036659,0.0003065907994116326,24.38399999807293,-3.686893222007336e-10,-3.563968264305261e-06,1.5120132858390648e-11,1.5709000801480388
22.833337645,22.363,0.08655973433188403,5794.479996989128,280.00000000354345,0.0003031238468213356,24.383999998116273,-3.725927048411287e-10,-3.5236346697147902e-06,1.5280212551642373e-11,1.5709002223294954
22.934636737000005,22.465000000000003,0.08666080522147314,5802.639996988512,280.0000000034198,0.0002996624517613289,24.38399999815905,-3.746983836566552e-10,-3.4833641087274533e-06,1.5366567509369456e-11,1.570900364283035
23.075411459999998,22.595,0.0867879408119089,5813.03999698776,280.00000000326224,0.00029530906904487355,24.38399999821217,-3.7572694137010937e-10,-3.4327049945177373e-06,1.5408749201688886e-11,1.5709005428174339
23.177343228000012,22.697000000000003,0.08688640599408363,5821.1999969871695,280.0000000031383,0.00029193686780442393,24.383999998252765,-3.7662896442372634e-10,-3.393479986667072e-06,1.5445741637924764e-11,1.5709006811130901
23.313142505000002,22.831999999999994,0.08701499903350061,5831.999996986388,280.00000000296916,0.0002875330301062622,24.383999998305114,-3.780844778979579e-10,-3.3422432935158856e-06,1.5505432996277093e-11,1.570900861716673
23.448514232999997,22.967000000000013,0.08714165228313875,5842.799996985606,280.0000000027992,0.00028319568358594986,24.383999998355876,-3.8019763488658325e-10,-3.2917780595001726e-06,1.5592094649387783e-11,1.5709010395934193
23.585882474000016,23.093999999999994,0.08725904481924095,5852.959996984966,280.0000000026393,0.0002791763916593689,24.38399999840222,-3.7777520691143485e-10,-3.2450072211615056e-06,1.549274969030809e-11,1.570901204426588
23.68796089,23.195999999999998,0.08735213091217829,5861.119996984452,280.00000000251254,0.00027598869983161867,24.383999998438515,-3.7571331353466306e-10,-3.2079366014514206e-06,1.5408190432053033e-11,1.570901335155421
23.823396884000005,23.330000000000013,0.08747280370910052,5871.8399969837765,280.0000000023501,0.0002718563143329861,24.383999998484946,-3.7406732090549066e-10,-3.1598662486891367e-06,1.534068747815135e-11,1.5709015046266137
23.95821570800001,23.465000000000003,0.0875925516994293,5882.639996983095,280.0000000021864,0.00026775576118668633,24.383999998530324,-3.7291211232799457e-10,-3.1121690267108768e-06,1.5293311818762872e-11,1.5709016727923455
24.063160307999993,23.561000000000007,0.08767659821794414,5890.319996982611,280.00000000207007,0.00026487829232231855,24.383999998561748,-3.723530893608405e-10,-3.078699350619032e-06,1.5270386025647762e-11,1.5709017907987801
24.165195791000002,23.66300000000001,0.08776491686741564,5898.479996982122,280.00000000194643,0.00026185386640369823,24.38399999859442,-3.716241344353753e-10,-3.043521566678738e-06,1.5240491239524722e-11,1.5709019148319971
24.299746362000008,23.795000000000016,0.08787771004349725,5909.039996981555,280.0000000017864,0.0002579916790282158,24.383999998635602,-3.6557027990098836e-10,-2.9986072765115098e-06,1.4992219665462654e-11,1.5709020732222296
24.400691706000003,23.896000000000015,0.08796289238055918,5917.119996981121,280.0000000016645,0.0002550748110368651,24.383999998666305,-3.6074967260114683e-10,-2.9646887284256213e-06,1.4794524169489058e-11,1.5709021928444424
24.502100014000007,23.99799999999999,0.08804794227614561,5925.279996980683,280.0000000015456,0.0002521624939202793,24.3839999986966,-3.5689319878307683e-10,-2.9308228868315667e-06,1.4636368267631532e-11,1.5709023122800214
24.612967037000004,24.095,0.08812791540545446,5933.039996980266,280.0000000014325,0.000249424471327121,24.383999998724764,-3.5342281170076183e-10,-2.898979504318086e-06,1.4494045975738679e-11,1.570902424567695
24.749100147000007,24.230999999999995,0.08823859168776861,5943.919996979682,280.000000001274,0.00024563454741296457,24.383999998763244,-3.485772522877008e-10,-2.854917769673254e-06,1.429532718709656e-11,1.5709025799943668
24.885138197000003,24.36699999999999,0.0883475862826827,5954.799996979097,280.0000000011202,0.00024190222915335333,24.38399999880056,-3.44758381696503e-10,-2.811522971844952e-06,1.4138713419680827e-11,1.570902733058602
25.02066961600002,24.5,0.08845257032478968,5965.439996978601,280.0000000009714,0.00023830746981999014,24.383999998835964,-3.3836140999780294e-10,-2.7697265941760474e-06,1.3876370434126015e-11,1.570902880481477
25.12488064300001,24.595,0.08852659732803034,5973.039996978263,280.0000000008662,0.00023577337988988444,24.383999998860595,-3.3153421144423107e-10,-2.7402568473637288e-06,1.3596383623530888e-11,1.5709029844057703
25.227123051999996,24.697000000000003,0.08860521151398648,5981.199996977901,280.0000000007568,0.00023308142760630472,24.383999998886473,-3.24881254417898e-10,-2.708971817869625e-06,1.3323542550591321e-11,1.5709030948040772
25.361747439,24.831000000000017,0.08870712367583893,5991.919996977425,280.0000000006147,0.00022959189730366384,24.383999998919588,-3.164551273654273e-10,-2.668408255411271e-06,1.2977982885766586e-11,1.5709032379114574
25.46287902100002,24.932000000000016,0.0887829291133787,5999.999996977067,280.0000000005111,0.00022699623157078344,24.383999998943885,-3.1063955690079235e-10,-2.6382342803124877e-06,1.2739483448654794e-11,1.5709033443610048
25.60188346800001,25.061000000000007,0.08887849879049005,6010.319996976608,280.0000000003799,0.0002237243747958414,24.38399999897413,-3.034412522122123e-10,-2.600202662748993e-06,1.2444277395914715e-11,1.5709034785414848
25.703547315999998,25.162000000000006,0.08895236692256787,6018.39999697625,280.00000000028103,0.00022119496261612328,24.383999998997204,-2.984541233413051e-10,-2.570800642393424e-06,1.2239752762025418e-11,1.5709035822739412
25.804828312000012,25.262,0.08902467962092186,6026.399996975895,280.0000000001831,0.00021871909606156165,24.38399999901955,-2.934589793778847e-10,-2.5420294881155944e-06,1.2034899429377643e-11,1.5709036838104644
25.941521025000014,25.39699999999999,0.08912102160634854,6037.199996975465,280.00000000005406,0.0002154201269394001,24.38399999904891,-2.861800158443808e-10,-2.5036886925209993e-06,1.1736385512867002e-11,1.5709038191028353
26.043398119000017,25.5,0.08919355089722833,6045.439996975177,279.999999999958,0.00021293655979811302,24.38399999907073,-2.77223273681837e-10,-2.474824167063164e-06,1.1369065058113579e-11,1.5709039209551638
26.148881297000003,25.595,0.08925969675711834,6053.03999697491,279.9999999998726,0.00021067221262248255,24.3839999990904,-2.6921470965290983e-10,-2.4485002414183947e-06,1.1040629855418868e-11,1.5709040138171722
26.25011942400002,25.695999999999998,0.08932925540602278,6061.119996974627,279.99999999978314,0.00020829045754466483,24.383999999110863,-2.6067995661638984e-10,-2.4208272810616686e-06,1.0690615379838484e-11,1.570904111494137
26.385999099999992,25.831999999999994,0.08942167944746054,6071.999996974246,279.999999999669,0.000205125642686632,24.38399999913769,-2.5004426849278407e-10,-2.3840485303971496e-06,1.025444051021076e-11,1.5709042412847745
26.521845336000013,25.966000000000008,0.08951136824912623,6082.7199969738695,279.99999999956117,0.00020205456732554734,24.383999999163343,-2.4000490182616546e-10,-2.348356857302309e-06,9.842721081180231e-12,1.5709043672311083
26.625964065999995,26.061000000000007,0.08957413371443615,6090.319996973603,279.9999999994859,0.00019990601795664896,24.383999999181047,-2.3351209694097773e-10,-2.3233854964812727e-06,9.576447917172026e-12,1.5709044553441907
26.72843400900001,26.16300000000001,0.08964078860662536,6098.479996973317,279.9999999994098,0.00019762359665595383,24.383999999199652,-2.2675025140706074e-10,-2.296858930597589e-06,9.299141262182338e-12,1.5709045489474276
26.86354135800002,26.296999999999997,0.0897271972348078,6109.199996972941,279.99999999931094,0.00019466483713345584,24.383999999223455,-2.1804372006959337e-10,-2.262477453550891e-06,8.942082074566012e-12,1.5709046702876328
26.964826594000016,26.397999999999996,0.08979147066776809,6117.2799969726575,279.99999999924034,0.00019246411710639104,24.383999999240928,-2.1207250055466557e-10,-2.236904004255159e-06,8.69719939017569e-12,1.57090476054026
27.105163495,26.527000000000015,0.08987250127138122,6127.599996972306,279.99999999915036,0.00018968950207090074,24.38399999926267,-2.0440711737528345e-10,-2.2046599657998576e-06,8.382838207835201e-12,1.5709048743286078
27.206123297000005,26.628000000000014,0.08993513205915456,6135.679996972099,279.9999999990844,0.0001875454175627057,24.383999999279254,-1.968851064167514e-10,-2.179743135829789e-06,8.074356788130823e-12,1.5709049622585838
27.307792989999996,26.729000000000013,0.08999705482105343,6143.75999697189,279.9999999990201,0.0001854250982324633,24.383999999295476,-1.8711042248573316e-10,-2.155103278836484e-06,7.673492122953532e-12,1.5709050492139383
27.409282042,26.831000000000017,0.09005888132160379,6151.91999697168,279.99999999895823,0.00018330798846102339,24.383999999311484,-1.7731626432780677e-10,-2.1305034648004436e-06,7.271828808833242e-12,1.570905136037667
27.511060105000013,26.932999999999993,0.09012000191095704,6160.079996971471,279.9999999989006,0.00018121504571140363,24.383999999327138,-1.6836035054031503e-10,-2.1061806187826687e-06,6.9045423184069385e-12,1.5709052218702941
27.682562617000002,27.093999999999994,0.09021505172876626,6172.959996971139,279.9999999988148,0.00017796088202969032,24.383999999351104,-1.5415988929728338e-10,-2.0683553988220736e-06,6.322174316690814e-12,1.5709053553251715
27.783388277,27.192000000000007,0.09027207106279884,6180.799996970937,279.9999999987656,0.00017600867122685444,24.383999999365283,-1.4636579257904326e-10,-2.0456741692487147e-06,6.002534520102484e-12,1.5709054353863112
27.884576484999997,27.293000000000006,0.09033018468892089,6188.87999697073,279.99999999871847,0.00017401876616615573,24.38399999937957,-1.3853641376551904e-10,-2.022551110678581e-06,5.681447786893545e-12,1.570905516993311
27.985880748,27.39500000000001,0.09038820797775181,6197.0399969705195,279.9999999986725,0.00017203194718942206,24.383999999393673,-1.3051471725918267e-10,-1.9994649958659127e-06,5.352474012063608e-12,1.5709055984737492
28.087080681000003,27.49600000000001,0.09044500857221827,6205.119996970311,279.99999999863013,0.00017008698999752497,24.383999999407315,-1.2357610947296977e-10,-1.9768627435322807e-06,5.067918243070553e-12,1.5709056782374147
28.22988396300002,27.62899999999999,0.09051882547139699,6215.759996970038,279.9999999985775,0.00016755948175222214,24.383999999424823,-1.1448414480344151e-10,-1.947490503868343e-06,4.69505223438882e-12,1.5709057818917898
28.365883585000006,27.765000000000015,0.09059317607909008,6226.639996969758,279.99999999852673,0.00016501347319300682,24.383999999442196,-1.0543382314848615e-10,-1.9179017154617175e-06,4.32389402560556e-12,1.570905886304872
28.501262620999995,27.899,0.09066532629778834,6237.3599969694815,279.999999998483,0.00016254287939897985,24.38399999945881,-9.783901824109726e-11,-1.8891862903348256e-06,4.012427285924187e-12,1.570905987625157
28.603979242999998,28.0,0.09071899386327412,6245.439996969274,279.99999999845005,0.00016070526068475837,24.383999999470994,-9.186078979651204e-11,-1.8678275902236716e-06,3.76725715550338e-12,1.570906062986818
28.708853333999997,28.095,0.09076891477221811,6253.039996969078,279.9999999984235,0.00015899628635479264,24.383999999482207,-8.659256247581387e-11,-1.8479599869215564e-06,3.551204522210081e-12,1.5709061330727085
28.810582073999996,28.197000000000003,0.09082192908123883,6261.199996968906,279.99999999839497,0.00015718090301849926,24.383999999493973,-8.122372040321209e-11,-1.826867047096948e-06,3.3310256279476933e-12,1.5709062075224853
28.912001563000018,28.298000000000002,0.09087382623583279,6269.279996968774,279.99999999836825,0.00015540377124737857,24.383999999505377,-7.417633966471582e-11,-1.8062118112671003e-06,3.042009027277043e-12,1.5709062804035465
29.048023050000012,28.433999999999997,0.0909427830514116,6280.159996968595,279.99999999833653,0.00015304252484467064,24.383999999520327,-6.282505122379512e-11,-1.7787675868502262e-06,2.5764870185607442e-12,1.5709063772394405
29.184463332999997,28.560000000000002,0.09100572691122351,6290.239996968429,279.99999999831306,0.0001508876845459815,24.38399999953376,-5.1587229503169465e-11,-1.7537208828185864e-06,2.1156183343121066e-12,1.570906465610517
29.287389044000008,28.662000000000006,0.09105603757349934,6298.399996968295,279.9999999982972,0.000149164948610774,24.383999999544358,-4.321405160901497e-11,-1.7336960540418575e-06,1.7722301267508422e-12,1.5709065362607777
29.422822975000003,28.795999999999992,0.09112125820980303,6309.11999696812,279.99999999827946,0.00014693170362397407,24.383999999557922,-3.2717531464795165e-11,-1.7077428445105757e-06,1.3417625898974316e-12,1.5709066278472694
29.557596904999997,28.93100000000001,0.09118597908383541,6319.919996967942,279.9999999982669,0.00014471550658931692,24.38399999957119,-2.25570067466198e-11,-1.6819861537270482e-06,9.25074392859354e-13,1.5709067187346164
29.665216119999997,29.027000000000015,0.0912314039360926,6327.599996967817,279.9999999982608,0.00014316005876006014,24.383999999580375,-1.5457496153675142e-11,-1.6639085619497777e-06,6.33919916075822e-13,1.5709067825243086
29.800191017000003,29.16300000000001,0.09129492796926077,6338.479996967638,279.99999999825445,0.00014098509078651727,24.38399999959305,-6.7469903518952e-12,-1.6386286105764043e-06,2.7669771887462146e-13,1.570906871720831
29.901885420000013,29.265000000000015,0.09134193678434975,6346.639996967504,279.9999999982543,0.00013937534973807814,24.38399999960231,-6.144327630045804e-13,-1.619921061461102e-06,2.5198465098305828e-14,1.570906937737115
30.03765272200002,29.400000000000006,0.09140332920802749,6357.439996967327,279.9999999982543,0.00013727306345664354,24.38399999961424,7.603597547222774e-12,-1.5954858095772086e-06,-3.1182706474427774e-13,1.570907023952925
30.139503356000006,29.501000000000005,0.09144865330985837,6365.519996967194,279.999999998259,0.0001357211300307524,24.383999999622933,1.3299529568902982e-11,-1.5774463590314089e-06,-5.454200863789881e-13,1.5709070875984896
30.243643476000017,29.595,0.09149037127739512,6373.039996967071,279.9999999982634,0.00013429303335041188,24.383999999630838,1.7802452627522864e-11,-1.5608418572467613e-06,-7.300872123132868e-13,1.5709071461654474
30.379432186000003,29.729000000000013,0.09154908935500727,6383.7599969668945,279.9999999982712,0.0001322824474658536,24.383999999641823,2.4212460868166932e-11,-1.5374774588356512e-06,-9.929648566052297e-13,1.5709072286205785
30.48087848100002,29.831000000000017,0.09159319643845254,6391.919996966761,279.9999999982807,0.00013077207425086444,24.383999999649973,2.8694462306678637e-11,-1.5199256469251272e-06,-1.1767739789274203e-12,1.5709072905617383
30.617382399000007,29.967000000000013,0.09165122349183212,6402.7999969665825,279.9999999982934,0.00012878503234696085,24.383999999660546,3.4714234957279874e-11,-1.4968304981682772e-06,-1.4236478652996528e-12,1.5709073720513187
30.723087227999997,30.061000000000007,0.09169080939226644,6410.319996966459,279.999999998305,0.00012742991805728487,24.383999999667672,3.86174158337943e-11,-1.4810789265674624e-06,-1.5837192674752527e-12,1.5709074276252322
30.857956427000005,30.194999999999993,0.09174652663982104,6421.039996966283,279.9999999983237,0.0001255220312793616,24.383999999677577,4.265447020819469e-11,-1.458904346345456e-06,-1.7492808874461146e-12,1.5709075058686215
30.959460162,30.296999999999997,0.09178837960182161,6429.199996966149,279.99999999833796,0.00012408890138770805,24.383999999684924,4.577001954914364e-11,-1.4422479823462746e-06,-1.8770511268353593e-12,1.5709075646419939
31.06229221000001,30.399,0.091829754701824,6437.359996966015,279.9999999983522,0.0001226720793613066,24.3839999996921,4.890643494023635e-11,-1.4257813212070922e-06,-2.0056770912122048e-12,1.5709076227465726
31.16390579100002,30.5,0.09187025792189969,6445.4399969658825,279.99999999836933,0.00012128516541050094,24.383999999699036,5.172577862499121e-11,-1.409660534144811e-06,-2.121299789065211e-12,1.5709076796246062
31.271859139000014,30.593999999999994,0.09190753824354359,6452.959996965759,279.9999999983869,0.0001200089272894952,24.38399999970535,5.4044299113463565e-11,-1.3948235177896353e-06,-2.2163834753120994e-12,1.5709077319637688
