Real_time_s,Simulation_time_s,x_ft,y_ft,alt_ft,vx_fps,vy_fps,vz_fps,roll_rad,pitch_rad,yaw_rad,adsb_x_ft,adsb_y_ft,adsb_alt_ft
0.0,0.0,-599.4074411288055,8997.694945991077,300.0,17.428202093967986,-67.79570614553558,1.3894327147947634e-12,-1.4378335715300687e-14,-1.9849038782782336e-14,-1.3190589224890354,-656.9179527350954,4580.888366496277,286.3509976811436
0.03363260300000093,0.03300000000001546,-598.8323104597051,8995.457687688298,300.0,17.428202093967986,-67.79570614553558,1.3899172504182055e-12,-1.4370552342189314e-14,-1.985596072026008e-14,-1.3190589224890354,-656.9179527350954,4580.888366496277,286.3509976811436
0.10141219899998077,0.09700000000000841,-597.7169055256921,8991.118762495033,300.0,17.428202093967986,-67.79570614553558,1.3906107644322365e-12,-1.43591950160089e-14,-1.9865868063317662e-14,-1.3190589224890354,-656.9179527350954,4580.888366496277,286.3509976811436
0.13526977600000123,0.13100000000000023,-597.1243466544978,8988.813708486108,300.0,17.428202093967986,-67.79570614553558,1.39123203491306e-12,-1.4349265717711132e-14,-1.9874743355900857e-14,-1.3190589224890354,-656.9179527350954,4580.888366496277,286.3509976811436
0.16932282799999143,0.1640000000000157,-596.5492159853973,8986.576450183331,300.0,17.428202093967986,-67.79570614553558,1.38836772485889e-12,-1.4341443353418137e-14,-1.983382464084129e-14,-1.3190589224890354,-656.9179527350954,4580.888366496277,286.3509976811436
0.23690318499998853,0.23199999999999932,-595.3640982430086,8981.966342165484,300.0,17.428202093967986,-67.79570614553558,1.3896191501964998e-12,-1.4321637407874022e-14,-1.9851702145664285e-14,-1.3190589224890354,-656.9179527350954,4580.888366496277,286.3509976811436
0.27041130300000304,0.2650000000000148,-594.1964087027137,8977.424029853782,300.0,17.428201973146464,-67.7957061765951,1.3899329864845451e-12,-1.4367205310905672e-14,-1.9856185495603393e-14,-1.3190589224890354,-656.9179527350954,4580.888366496277,286.3509976811436
0.40489026699998476,0.3990000000000009,-591.8610453718521,8968.339401181518,300.00000000115057,17.428097955573524,-67.7957329162458,9.771723897736001e-09,-0.0001528822289749932,-1.3932359796018853e-10,-1.3190604567683915,-597.2820894171089,8995.105915347454,278.2041270734218
0.5399793649999935,0.5340000000000202,-589.5082680382067,8959.18697315294,300.00000000614534,17.427993161717033,-67.79575985528261,3.6230125627255814e-08,-0.00030690536818679784,-5.17026274522497e-10,-1.3190620024974686,-596.5849280299882,8992.394095662585,278.2041270840248
0.712080143999998,0.695999999999998,-587.2774980095211,8950.50911252473,300.00000001779546,17.4281821120057,-67.79571128228751,8.469258866835506e-08,-0.0004885371612861933,-1.208616960825899e-09,-1.3190592146126519,-595.3648407463547,8987.648425316049,278.20412711760116
0.7460238939999897,0.7300000000000182,-586.109814227379,8945.96679873255,300.0000000284282,17.428418469826727,-67.79565052155813,1.2381602599664465e-07,-0.0006005733129954941,-1.7672303168373912e-09,-1.319055728287009,-594.8419123039329,8985.614575308262,278.20412713922326
0.8812224879999917,0.8640000000000043,-583.7569705054112,8936.814387769893,300.00000006155403,17.428894712586924,-67.79552809071141,2.2869005783831607e-07,-0.0008263177996947607,-3.2648406170948142e-09,-1.3190487036005267,-593.3021227297569,8979.705657667055,277.9974018567841
0.948768403999992,0.9320000000000164,-582.5718100893691,8932.204290721967,300.0000000853209,17.429134588965603,-67.79546642279477,2.943013152835609e-07,-0.0009400261346737725,-4.201728295372478e-09,-1.319045165239645,-592.6873483950033,8977.316555687163,277.99473234514755
1.1228289689999826,1.0960000000000036,-579.71327411798,8921.08587482025,300.0000001645479,17.431945130289346,-67.79474381528667,4.370182155282118e-07,-0.001226830991117134,-6.239755147253653e-09,-1.3190037088348467,-591.4575370880732,8972.538419263357,277.9893933412467
1.1904888400000004,1.1640000000000157,-578.5278929125368,8916.475834536912,300.0000002063829,17.43311046794522,-67.79444416335814,5.085647776189536e-07,-0.0013457500747986277,-7.2615229854524135e-09,-1.3189865195932517,-590.7545249145744,8969.808123195398,277.98634249152985
1.2583858680000048,1.2319999999999993,-577.3598659973546,8911.933608965397,300.0000002534851,17.4342586632497,-67.79414889848283,5.862034335669808e-07,-0.001462920353525668,-8.37032552850666e-09,-1.3189695831345478,-590.1392134793512,8967.419159353938,277.98367300352874
1.3939573989999872,1.3660000000000139,-575.0060951420313,8902.781436388832,300.00000036587005,17.43816921681699,-67.79314312217852,7.019515002805832e-07,-0.0016974709531119973,-1.0023253944608894e-08,-1.3189118999639158,-588.3398715709792,8960.604436588168,277.9629244205918
1.4614050699999837,1.4339999999999975,-573.8202746777287,8898.171509071959,300.000000429414,17.440409751479198,-67.7925667586053,7.577670162880447e-07,-0.001815354041246082,-1.0820297295958611e-08,-1.3188788502470645,-587.7061189089935,8958.151266734329,277.9597879906595
1.5974374519999799,1.5690000000000168,-571.5877250704152,8889.494106097109,300.0000005627088,17.44462717678415,-67.79148163806553,8.788258658881974e-07,-0.0020372516102835163,-1.2549104890435467e-08,-1.3188166390157239,-586.3472494497521,8952.894687341292,277.95306706857514
1.6684126429999822,1.6300000000000239,-570.4014660317071,8884.884291615535,300.0000006398286,17.447475737338543,-67.79074856083854,9.061099375602194e-07,-0.00214444577973182,-1.293962002715636e-08,-1.3187746198248718,-585.7127109444386,8950.441719806937,277.9499306379943
1.8039030679999826,1.7660000000000196,-568.028285296749,8875.664833201443,300.00000079307875,17.45438876604976,-67.78896896140054,8.793903522043496e-07,-0.002337456284052135,-1.2557478953813955e-08,-1.3186726424962947,-584.5335620882722,8945.886394187424,277.9441058254756
1.871428093999981,1.8329999999999984,-566.8762541299033,8871.190771929136,300.0000008671378,17.4577435527746,-67.78810507819786,8.680330154668511e-07,-0.002431123146797596,-1.2395021293859151e-08,-1.3186231534990447,-582.7523111505875,8939.265685058035,277.6211811050096
1.938214165000005,1.899000000000001,-565.7065423364267,8866.6489799476,300.00000094221724,17.4611491258704,-67.78722793603879,8.569134499578779e-07,-0.002526209204727773,-1.2235957184318982e-08,-1.318572914668465,-582.0723680326802,8936.651782711791,277.605973526106
2.10756345599998,2.069000000000017,-562.8597662714966,8855.599818601146,300.000001105278,17.471608265266294,-67.78453293128356,6.3325848681678e-07,-0.00270618701806765,-9.042143754014673e-09,-1.3184186185579119,-580.7114792292986,8931.424236540905,277.5755583388833
2.178272865999986,2.130000000000024,-561.6716335192388,8850.99048668786,300.0000011603765,17.476210490508524,-67.78334653128094,5.142203177053194e-07,-0.0027756235507532794,-7.341485428477915e-09,-1.3183507230467222,-580.0304792381361,8928.810606779913,277.56035072044745
2.31397557599999,2.265000000000015,-559.3293948923023,8841.907628183213,300.00000124604605,17.48527939922254,-67.78100769737932,2.7454024408121257e-07,-0.0029124543656059345,-3.919565184353976e-09,-1.3182169289524541,-578.6672887468886,8923.583654542568,277.52993543301926
2.381283967999991,2.332000000000022,-558.1578040850326,8837.366320537525,300.00000126836096,17.490731625038116,-67.779600967862,4.481222144162997e-08,-0.0029466665058250035,-6.377076471053567e-10,-1.3181364892750995,-576.0923063098877,8912.85773203794,276.75263194561353
2.449924101999983,2.4000000000000057,-556.9508614078155,8832.689549264833,300.00000127541904,17.496346485568484,-67.77815178801572,-1.9473482203265039e-07,-0.002981899904025771,2.78442247123728e-09,-1.3180536484133736,-575.3413999431461,8909.950618633817,276.7089534504547
2.5847775969999987,2.535000000000025,-554.5883271748736,8823.53963492148,300.0000012412821,17.507331734853683,-67.77531509089012,-6.698531311974642e-07,-0.0030508348148160745,9.571884599388417e-09,-1.3178915684679202,-573.8382439259208,8904.136739038582,276.62159638585285
2.655446076000004,2.5960000000000036,-553.5203181841547,8819.405356637313,300.0000012045787,17.512295347599768,-67.77403272540914,-8.869469752870405e-07,-0.003081983182107725,1.2670599054340204e-08,-1.3178183323456185,-573.08601941152,8901.22996643541,276.5779178187339
2.791525816999979,2.731000000000023,-551.1555626545706,8810.256016124224,300.0000010514316,17.52457977974187,-67.77085733373697,-1.5493229211382906e-06,-0.003076155398597996,2.2133112702630787e-08,-1.3176370723644668,-571.5801839116068,8895.416780017486,276.4905606046264
2.8588441599999896,2.7990000000000066,-549.9637992449603,8805.647621592694,300.00000094048,17.530767275690263,-67.76925703393685,-1.8825033630717464e-06,-0.003073219922423071,2.6892833369712366e-08,-1.3175457710405292,-567.7924246560642,8881.21009270976,276.52404782157623
2.994026593000001,2.9339999999999975,-547.0176352299356,8794.262643848975,300.00000056673844,17.54615575117313,-67.7652744303998,-2.717333898460079e-06,-0.0030550358374694182,3.881740774170154e-08,-1.3173186932595131,-565.9789424147857,8874.250611857553,276.437506892157
3.096101888999982,3.035000000000025,-545.8419491312237,8789.722394695225,300.0000003740132,17.55245947334834,-67.76364192328909,-3.0685074518682015e-06,-0.003029948801591995,4.383418632280049e-08,-1.3172256692415951,-565.2381550872136,8871.410160484618,276.4021840316464
3.168517742000006,3.0960000000000036,-544.7536180888095,8785.52106922593,300.00000017441045,17.558292633181043,-67.7621307226858,-3.3911923119661037e-06,-0.0030067339329879392,4.844398256089075e-08,-1.3171395873146512,-564.3734612482931,8868.096415165086,276.36097399934084
3.3034977949999984,3.231000000000023,-542.3826296133815,8776.373341957646,299.99999967198806,17.57099341828991,-67.7588384682331,-4.083530658591314e-06,-0.002956185427372608,5.833455763663151e-08,-1.3169521508588842,-562.3952686692664,8860.522594121841,276.26677954659266
3.371025489999994,3.2990000000000066,-541.2052785931265,8771.83352425776,299.9999993859075,17.57725704807539,-67.75721389637407,-4.423397667875198e-06,-0.0029208342789531524,6.318839863113036e-08,-1.3168597101982833,-561.5290693365882,8857.20923956282,276.22556943522375
3.505522001999992,3.433000000000021,-538.8317348559544,8762.686459667277,299.99999873680844,17.589795218888337,-67.75396006499335,-5.091684886297575e-06,-0.0028282962251383738,7.27354538328663e-08,-1.316674660206992,-554.9888439426828,8834.263454172138,275.5881928936315
3.5736358089999953,3.5010000000000048,-537.6355318371179,8758.07921553367,299.9999983762196,17.596110513948503,-67.75232021939223,-5.418662830786779e-06,-0.0027816844642502853,7.740661514652096e-08,-1.3165814498400028,-553.9737235378516,8830.446827349415,275.5302524967552
3.641625766000004,3.569000000000017,-536.5620931850854,8753.946343699949,299.9999980335953,17.60177557503483,-67.75084868055436,-5.707482519639005e-06,-0.002739870972763849,8.153265360012945e-08,-1.3164978346577065,-552.8130838849888,8826.085098678213,275.4640348782492
3.7794037939999896,3.695999999999998,-534.2028654823482,8744.867883198387,299.9999972176386,17.61368767068607,-67.74775278209272,-6.2747940744997434e-06,-0.002622644799164932,8.963618856319353e-08,-1.3163220089498555,-550.9258006200821,8818.99761320093,275.3564311961227
3.880283731999981,3.798000000000002,-532.4059782195275,8737.957688088776,299.99999654698223,17.622622378994325,-67.74542922492628,-6.671684959173555e-06,-0.0025271023451600917,9.530619411008392e-08,-1.3161901247005319,-549.7636992035959,8814.636264938576,275.2902135199243
4.016149348999988,3.9339999999999975,-530.0087109166539,8728.744463362204,299.9999955922301,17.63453484688064,-67.74232931603721,-7.168546501179825e-06,-0.0023997124078413384,1.0240439575243313e-07,-1.3160142790320943,-543.1701553463904,8786.909932001448,275.6602668843552
4.084176370999984,4.0020000000000095,-528.8094767864095,8724.138007281279,299.99999509109676,17.6400160589375,-67.74090222212534,-7.352326663193602e-06,-0.0023361392083311484,1.0502991701290458e-07,-1.3159333655198653,-541.8732952500633,8781.95640249542,275.6095068090259
4.185748077999989,4.098000000000013,-527.1157990706436,8717.634942157056,299.9999943629332,17.647754044104307,-67.73888674627206,-7.598438364469964e-06,-0.0022463888088455424,1.0854592604760669e-07,-1.3158191346781987,-540.7381271674661,8777.622172507314,275.5650917329711
4.322365294999997,4.234000000000009,-524.7151603068959,8708.42259534227,299.99999329357314,17.658715795700605,-67.73602997570656,-7.915498204733139e-06,-0.0021192424120203353,1.1307553308644916e-07,-1.3156573076501141,-538.6290637068408,8769.573121467218,275.48260657736813
4.3907531529999915,4.302000000000021,-523.5142811356079,8703.81656784362,299.9999927433791,17.663866840659214,-67.73468689449675,-8.033633935280769e-06,-0.0020552370540757956,1.1476322689710762e-07,-1.3155812610572388,-537.3305568772278,8764.620021491646,275.4318464730882
4.4581784899999946,4.369,-522.3483944682605,8699.346097133684,299.99999220279216,17.668546327340692,-67.73346640426473,-8.114324623126566e-06,-0.00199269475947946,1.1591604145424718e-07,-1.3155121749057344,-531.1370885880411,8742.659626871064,275.37054564718727
4.593149640999997,4.503000000000014,-519.962667957649,8690.20220248971,299.99999108233715,17.678117742057953,-67.73096894002713,-8.254732619732425e-06,-0.0018647673372620373,1.1792205497859261e-07,-1.3153708623216502,-528.4188246760538,8732.38979921323,275.2743332967813
4.66036348999998,4.570999999999998,-518.9196038932486,8686.206089700756,299.99999058721994,17.682300693964446,-67.72987703092565,-8.30779970762076e-06,-0.00180885831619683,1.1868023708672588e-07,-1.315309103488287,-527.1498370385714,8727.59733430639,275.2294342017907
4.830293977999986,4.731000000000023,-515.9305638795688,8674.75993139305,299.9999891623232,17.692987282299768,-67.72708617319347,-8.316779682198517e-06,-0.0016664389279294474,1.1880906252478174e-07,-1.3151513175525626,-524.4295476638713,8717.32803587513,275.13322186356095
4.898026751000003,4.798000000000002,-514.7450700165424,8670.222233257813,299.99998859883146,17.697094590858303,-67.72601304908069,-8.299126135148829e-06,-0.0016117467619884203,1.1855693712252018e-07,-1.3150906720807019,-523.1596487431582,8712.535809168054,275.088322780753
4.965878709999998,4.866000000000014,-513.5416018616767,8665.616881537753,299.99998802844794,17.70126313599626,-67.7249236534932,-8.27503815996393e-06,-0.0015562382961205586,1.1821289233474405e-07,-1.3150291214522678,-518.5091619571652,8694.672862394256,276.92648623713427
5.101564438999986,5.0020000000000095,-511.13382631876624,8656.406397452389,299.9999868961333,17.708914305326832,-67.72292340579385,-8.159839950510762e-06,-0.0014590543666047758,1.1656778127727289e-07,-1.3149161452677474,-515.7933720398449,8684.41364280721,276.9273390256207
5.169652394999986,5.070000000000022,-510.07125026786014,8652.343032815059,299.99998640367767,17.71198724795063,-67.72211978540273,-8.082425676654978e-06,-0.0014222818974762726,1.1546189737741034e-07,-1.3148707697774134,-514.43510861,8679.284129427733,276.9277654316171
5.307415313999996,5.197000000000003,-507.6797911709412,8643.200635781272,299.99998531313275,17.718901235558544,-67.72031112970146,-7.896233400161574e-06,-0.0013395438433618696,1.1280208488334924e-07,-1.3147686749234317,-511.91203129380546,8669.758044223823,276.92855735453236
5.375101272999984,5.265000000000015,-506.4748513101356,8638.595668899874,299.999984773664,17.722383751337567,-67.71939983995914,-7.796897054741254e-06,-0.001297868379212768,1.1138332987913687e-07,-1.3147172493671988,-510.5337395446341,8664.555415575016,276.92898988015867
5.442381042999983,5.332000000000022,-504.68474680122165,8631.75604713206,299.99998398802273,17.72684343384341,-67.71823256985867,-7.5994151025883605e-06,-0.0012509712877455381,1.0856219215173872e-07,-1.3146513934831918,-506.52356958667275,8648.822968989272,277.6964448486227
5.613101951000004,5.5020000000000095,-502.2735984267148,8622.546445423715,299.9999829622055,17.732848429426184,-67.71666033622621,-7.325368353215318e-06,-0.001187822730012641,1.0464728304856939e-07,-1.3145627162531053,-503.2844415738101,8636.569989254282,277.73793075994325
5.680912664999994,5.570000000000022,-501.209592278168,8618.483455029325,299.99998252186407,17.735497647843307,-67.71596653445849,-7.202057595217873e-06,-0.001159963071818681,1.0288572040617808e-07,-1.3145235939458964,-502.0695053025603,8631.975190830939,277.7534879939492
5.750410455999997,5.629000000000019,-500.0390056636106,8614.014212698634,299.99998204659136,17.738217919664553,-67.71525400940794,-7.051182056863205e-06,-0.0011373667522034559,1.0073080168007866e-07,-1.3144834215631649,-500.6519169677522,8626.614635304306,277.77163811102923
5.8851526610000064,5.76400000000001,-497.6263517020273,8604.805005297496,299.9999811017828,17.74342392977344,-67.71389006527562,-6.7107506364692065e-06,-0.0011073910834596737,9.586750544094133e-08,-1.3144065398824551,-497.8161945146562,8615.893667309503,277.8079383841844
5.953023648999988,5.832000000000022,-496.41975921578023,8600.200471162123,299.9999806467958,17.746026895501036,-67.71320794311782,-6.53932127245796e-06,-0.0010924032488748012,9.341851940961317e-08,-1.3143680990420945,-494.78499800480154,8603.803724307443,277.13362525203104
6.089026832999991,5.968000000000018,-494.0060433009769,8590.9915420403,299.99997977230936,17.75109602932868,-67.71187924057858,-6.186601410846944e-06,-0.0010674977132561398,8.837991898481152e-08,-1.314293236259172,-492.0820431458843,8593.562749041177,277.1385731895432
6.157021689999993,6.036000000000001,-492.79893387936676,8586.387143396332,299.9999793540382,17.753425513636465,-67.71126850875616,-5.998323541010539e-06,-0.0010626501453092807,8.56902355896419e-08,-1.3142588332143994,-490.8343329480114,8588.836195578146,277.14085686886216
6.295654713999994,6.164000000000016,-490.5262946272167,8577.720153670327,299.9999786017444,17.757810368252237,-67.71011867851243,-5.643395185487955e-06,-0.0010535253114392273,8.061983137563735e-08,-1.314194074542148,-487.92255947845433,8577.807688793931,277.14618549431884
6.363792236999984,6.231999999999999,-489.3364875372998,8573.18358457948,299.99997822598567,17.760105535905904,-67.70951670102582,-5.457307861522632e-06,-0.001048749031246339,7.796144148612344e-08,-1.3141601774245393,-486.4664281691943,8572.29349957224,277.1488498290166
6.499331686999994,6.366000000000014,-486.3524285930239,8561.808480521966,299.99997734101703,17.765602435088308,-67.70807463412406,-4.973434860908788e-06,-0.0010575428407655653,7.104922433113371e-08,-1.3140789927653964,-482.709051291323,8555.765475625078,275.87851872696723
6.600096950999983,6.467000000000013,-485.14433541898444,8557.20433989531,299.99997700618843,17.767800842890924,-67.70749776611993,-4.7761257088368825e-06,-0.0010632353511082489,6.823052299249991e-08,-1.3140465237108643,-481.2377942824199,8550.14625766225,275.85362965218184
6.667764933000001,6.535000000000025,-483.93609275348524,8552.600238496712,299.99997668477596,17.769999231962508,-67.70692082673578,-4.579029396373927e-06,-0.0010689278614627081,6.541486221982052e-08,-1.314014054656326,-479.7663795579698,8544.52708110455,275.8287405916167
6.805549006000007,6.663000000000011,-481.6613451232916,8543.933801899142,299.9999761169101,17.77412273097026,-67.70583846091046,-4.208128969548872e-06,-0.0010855313412000255,6.011643387010983e-08,-1.3139531518556575,-477.0333195190181,8534.091581111803,275.7825180894956
6.8739973229999976,6.731000000000023,-480.4526731993156,8539.329813171096,299.99997583459174,17.776306481141606,-67.70526514562295,-4.0114240004340596e-06,-0.0010971120177245,5.7306366144506264e-08,-1.3139208982204265,-475.7717255827109,8529.275244194303,275.76118464333814
7.009792857999997,6.866000000000014,-478.05266336888485,8530.189657105573,299.99997531378455,17.78064181270746,-67.70412673743715,-3.6219167036800456e-06,-0.0011201030663417148,5.1741982666541154e-08,-1.3138568652681508,-472.7283455949764,8516.687555849821,277.00663464233617
7.077614853,6.933000000000021,-476.86132980023916,8525.653488639125,299.99997507486046,17.78279339285718,-67.70356164713085,-3.429088548844438e-06,-0.0011315134388868084,4.898732800125412e-08,-1.3138250859510903,-471.2574956440385,8511.05340962612,277.0096533525513
7.212432506999988,7.067000000000007,-474.5671539358353,8516.91978053837,299.9999746510998,17.787067270636946,-67.70243894033592,-3.0697051397392685e-06,-0.0011556344673763494,4.385328673426563e-08,-1.3137619590917264,-468.31530166883715,8499.785247012856,277.01569081428295
7.2847894660000065,7.130000000000024,-473.37538894619547,8512.383725397758,299.99997444919796,17.789287008658505,-67.70185572260002,-2.88362332273917e-06,-0.0011681624432976281,4.1194978923951935e-08,-1.3137291722731592,-467.0541545144358,8494.956088838928,277.0182783140427
7.420389604999997,7.265000000000015,-470.95582770520207,8503.17633035365,299.9999740776021,17.793792686153278,-67.70067165407303,-2.5070984304977014e-06,-0.001193592364426396,3.581607041221007e-08,-1.3136626199248727,-464.1109891964153,8483.688181556208,277.0243158496282
7.488022408000006,7.332999999999998,-469.76361022666066,8498.640394120048,299.9999739132858,17.796143442423688,-67.70005376029768,-2.3329468850270782e-06,-0.0012064634577574685,3.332819527356122e-08,-1.3136278969754525,-463.5890026242369,8480.545639945445,276.15725737372327
7.589622915999996,7.4339999999999975,-467.36090317233555,8489.500946712613,299.99997361759637,17.80087997570975,-67.69880850252169,-1.98314583466313e-06,-0.0012323977494894326,2.8331045636440306e-08,-1.313557932823545,-460.5009414774668,8468.674510261179,276.12380789557375
7.691020898000005,7.535000000000025,-466.15040886293815,8484.897436795145,299.9999734865215,17.80326575207414,-67.69818113606787,-1.8076022970624702e-06,-0.001245460948495498,2.582328495676946e-08,-1.313522691621059,-458.8313773045913,8462.2577733504,276.1057271184934
7.762023210999985,7.596000000000004,-465.0643829048497,8480.767854776841,299.9999733793512,17.8054059209359,-67.69761827843497,-1.6502949905885373e-06,-0.0012571794065714301,2.357593116260673e-08,-1.313491078189736,-457.1615973894166,8455.84109320373,276.08764635505526
7.897515484999985,7.731999999999999,-462.64260280188665,8471.561043100517,299.99997317221283,17.810447392588078,-67.69629210125174,-1.3308469761162364e-06,-0.0012755864689205881,1.901239232227677e-08,-1.3134166070169124,-454.2388952367276,8444.612057506538,276.05600505534284
7.998988018999995,7.832000000000022,-460.8614434951443,8464.791444028557,299.9999730476867,17.81415429401728,-67.69531673144908,-1.0967781498317805e-06,-0.0012891210738168618,1.566855505215868e-08,-1.3133618488016872,-454.3309413609931,8442.976030110929,276.65172768683897
8.06614932399998,7.899000000000001,-459.66785958556915,8460.255867164917,299.9999729773345,17.81663788809429,-67.69466312012243,-9.403668804882194e-07,-0.0012981892589136047,1.3434110428039645e-08,-1.3133251607974596,-452.7343789478601,8436.79657793559,276.6487851093539
8.201226238000004,8.03400000000002,-457.2623668369871,8451.117152553361,299.99997286624443,17.82180377740721,-67.6933032929697,-6.464381388438164e-07,-0.0013115490865732741,9.235032834590748e-09,-1.3132488484879623,-449.86816828083175,8425.705407786541,276.6435035920221
8.272776808000003,8.096000000000004,-456.15738376392716,8446.920175970117,299.9999728284157,17.824201221739123,-67.6926720657516,-5.14788987731034e-07,-0.001316925322700593,7.354331505110903e-09,-1.3132134320524678,-448.22998817260265,8419.367687260674,276.640485599347
8.341028781000006,8.164000000000016,-454.9452994933563,8442.317084426482,299.99997279611125,17.82683065112632,-67.69197965439147,-3.70763063857827e-07,-0.0013228218398704068,5.2968192165280675e-09,-1.3131745882196793,-446.59156418262,8413.030030987175,276.637467617874
8.510495497999983,8.332000000000022,-451.9499686485786,8430.944943323031,299.99997275737655,17.833420581936068,-67.6902438387911,-3.430956568204311e-08,-0.0013304385808396342,4.901302541994793e-10,-1.3130772354085671,-444.3784616046971,8405.64152547709,278.2773416780094
8.577824123,8.400000000000006,-450.7550902808726,8426.409707306626,299.99997275677447,17.836103668188947,-67.6895369059711,8.895321181120193e-08,-0.0013293994821245302,-1.2707665620736303e-09,-1.3130375974916229,-442.95746915843006,8400.172563611886,278.31013509695964
8.64499551099999,8.467000000000013,-449.5600321467978,8421.874518656268,299.99997276443065,17.838786726418583,-67.68882986679964,2.1226610378388474e-07,-0.0013283603834119578,-3.032379299592637e-09,-1.312997959574676,-441.3332279573109,8393.922387347617,278.3476133003458
8.784967953999995,8.596000000000004,-447.2407475693128,8413.075034628124,299.99997280296617,17.843992584859336,-67.68745769528927,4.5166928408275434e-07,-0.0013263442217387672,-6.452512997111477e-09,-1.3129210501837698,-438.4901956553172,8382.98473979843,278.4132001813115
8.852640495999992,8.664000000000016,-446.0273148879058,8408.472298358556,299.99997283497305,17.84675059237998,-67.6867305600842,5.645639391958789e-07,-0.0013223820287997187,-8.065293501525843e-09,-1.3128803037526238,-437.0683761326242,8377.515996043336,278.4459936342744
9.022079500999979,8.834000000000003,-443.59988689490814,8399.266974167713,299.99997292204097,17.85226651852597,-67.68527595254005,7.909215164838795e-07,-0.0013144576428585385,-1.1298972611381054e-08,-1.3127988108903232,-435.5674030696677,8371.478966710712,277.9268851157018
9.090027249999991,8.902000000000015,-441.7788236066836,8392.363110859435,299.9999730075678,17.856403385334254,-67.68418470189434,9.612159026475703e-07,-0.0013085143534695798,-1.3731749132304266e-08,-1.3127376912435862,-433.9690558338852,8365.32729809021,277.9500203645394
9.157859516000002,8.969000000000023,-440.58240446934246,8387.828281062675,299.99997307297167,17.85911284385756,-67.68346983616404,1.0661569132521458e-06,-0.0013016905924697262,-1.5231080735512124e-08,-1.312697660271338,-432.1706096359165,8358.40675154824,277.97604753073153
9.327080779,9.134000000000015,-437.63522470807806,8376.660620985895,299.999973262141,17.865766440512974,-67.68171385333994,1.3094089508971173e-06,-0.001277906657891547,-1.8706104953545265e-08,-1.3125993543928374,-429.17246245545346,8346.872701864244,278.01942616727126
9.394835365000006,9.201999999999998,-436.4381782923121,8372.12595672984,299.99997335043093,17.868468154722525,-67.68100063116626,1.4090597956528586e-06,-0.0012682489389720063,-2.012968646392284e-08,-1.3125594362481756,-427.5730962771593,8340.721302282684,278.0425614521461
9.461773383999997,9.268,-435.25882058365426,8367.659020931056,299.9999734439692,17.871129521470106,-67.68029794756495,1.5076854659988728e-06,-0.001258735364987253,-2.1538705398220507e-08,-1.3125201138967473,-425.9734769900657,8334.569969563267,278.0656967457135
9.630859794999992,9.436000000000007,-432.256037241957,8356.288845368157,299.9999737090299,17.877763358930405,-67.6785459205953,1.7328170412796918e-06,-0.0012274941210342796,-2.4754862280808486e-08,-1.3124220953666543,-424.2432491759766,8328.704880451598,278.6852007279782
9.698330800999997,9.503000000000014,-431.0403086212772,8351.686714996642,299.9999738271078,17.880448434791703,-67.67783658196147,1.825111335082961e-06,-0.0012148488555551475,-2.607334876041784e-08,-1.3123824211996662,-422.86054786843886,8323.40646805698,278.71772741362315
9.834260161999993,9.629000000000019,-428.7871471141057,8343.159367031594,299.9999740626601,17.885370457669524,-67.67653599473634,1.992652053476101e-06,-0.001190318031771589,-2.846684200147852e-08,-1.312309693303404,-420.0945836536989,8312.809791722835,278.78278080348474
9.901734135999988,9.695999999999998,-427.6066757835708,8338.69272539952,299.9999741941062,17.887873226125155,-67.67587452039962,2.0742491967832778e-06,-0.0011759096035413666,-2.963251082791635e-08,-1.3122727117905364,-418.7113214607162,8307.51152761019,278.8153075077942
9.968725748999987,9.763000000000005,-426.39026111736814,8334.09077631322,299.9999743351538,17.890451810468345,-67.67519290457902,2.159184612068858e-06,-0.0011610645565509033,-3.0845869113073014e-08,-1.3122346096256674,-417.5255305098262,8302.970194770693,278.8431875446055
10.10357854999998,9.89700000000002,-423.9926942242873,8325.022365587593,299.99997463017974,17.89553306241243,-67.6738494328978,2.3289363822572358e-06,-0.001131811081249285,-3.327088496179153e-08,-1.3121595259478753,-416.13206847318486,8297.907878363952,277.10133286623375
10.17153295899999,9.965000000000003,-422.77575852703575,8320.420554255103,299.9999747886171,17.898045435041524,-67.6731850164392,2.4118487494503162e-06,-0.001116680720858572,-3.4455362547250116e-08,-1.3121224010650936,-414.772438926085,8292.708491570413,277.0954195491064
10.312414238999992,10.096000000000004,-420.4308961448301,8311.555424786598,299.9999751090365,17.902648343806163,-67.67196748241969,2.558501140947856e-06,-0.0010865541093719052,-3.655038878502826e-08,-1.3120543837252328,-412.0526737452101,8282.309851900884,277.0835929315351
10.380264366000006,10.164000000000016,-419.2313833616778,8307.021412312966,299.9999752803542,17.904998554965488,-67.67134568936997,2.634454675127222e-06,-0.0010711231220269643,-3.763543398335821e-08,-1.3120196541016673,-410.6925441580123,8277.110597437113,277.0776796309248
10.514778474999986,10.298000000000002,-416.8139769239085,8297.885841931291,299.99997564112,17.909733987239548,-67.67009257551203,2.7898248942376663e-06,-0.0010400308332557306,-3.985496340233858e-08,-1.3119496765018903,-408.16615196376455,8267.454954896944,277.0666978013441
10.582588109,10.365000000000009,-415.6139910687056,8293.351954639671,299.99997582805076,17.911976914907473,-67.66949891695492,2.862688585776318e-06,-0.0010260548807325884,-4.089586895354454e-08,-1.3119165313203034,-407.23016980597146,8266.58258292789,277.11451164146774
10.717452718000004,10.5,-413.2135685320727,8284.284299390214,299.99997621667825,17.91646271121028,-67.66831137681461,3.0104660316862842e-06,-0.0009981029750666594,-4.300696666799171e-08,-1.3118502409570736,-404.52517816640267,8256.364802357803,277.1049970458117
10.785022580000003,10.567000000000007,-412.08480202502335,8280.021203543934,299.9999764063406,17.918571677778825,-67.66775295293861,3.0807811418046846e-06,-0.0009849614074832205,-4.401146417150555e-08,-1.3118190745923801,-403.17244371101225,8251.255975281212,277.10023975584835
10.857536429999982,10.630000000000024,-410.88422404575385,8275.487473011546,299.999976612862,17.920814525940816,-67.66715900203052,3.156352595623646e-06,-0.0009709854545977853,-4.509102375488927e-08,-1.3117859294107461,-401.8195627099038,8246.147187027562,277.0954824707407
10.992549927999988,10.76400000000001,-408.46470702154016,8266.352461383696,299.99997704387425,17.92505090979738,-67.66603690597108,3.2947038812543754e-06,-0.0009454299133802216,-4.706746352319297e-08,-1.3117233226892084,-399.1133389253777,8235.929732876726,277.08596791607215
11.059777021000002,10.831000000000017,-407.2636970708228,8261.81884526397,299.99997726476767,17.927153385329664,-67.66547991537368,3.364223288176614e-06,-0.0009327467926587505,-4.806059434973866e-08,-1.311692251205172,-399.0813697566545,8234.820135845834,277.6281773837632
11.194351945999983,10.965000000000003,-404.86125460514154,8252.751724978743,299.99997772061755,17.931358281274527,-67.66436573909508,3.5048941204218825e-06,-0.0009073805516850451,-5.0070127570499906e-08,-1.31163010823713,-396.43009193195905,8224.77045755029,277.6424421649512
11.262131450999988,11.033000000000015,-403.6418921389992,8248.150556084087,299.99997795916227,17.93333699973649,-67.66384133892538,3.566756690681706e-06,-0.0008966179313040873,-5.0953876064643875e-08,-1.3116008649846744,-395.2936578288265,8220.463498211315,277.64855564809443
11.403550247999988,11.163000000000011,-401.32831700122085,8239.421966842881,299.99997842340906,17.93709070289881,-67.66284636195279,3.6852086713399695e-06,-0.0008762006070681344,-5.2646042456190876e-08,-1.3115453888147424,-392.6415757914666,8210.414033135014,277.6628204547665
11.470768590000006,11.229000000000013,-400.1265027591524,8234.88856386637,299.99997867055316,17.939040278889816,-67.66232950880085,3.7473887056831587e-06,-0.0008655962603217068,-5.353432618862219e-08,-1.3115165756101268,-391.31533631502174,8205.389353226474,277.66995286391847
11.605622133999987,11.363,-397.7224845204045,8225.82186124816,299.9999791773667,17.94281233318,-67.66132932678144,3.8626188277286684e-06,-0.0008463050036998587,-5.518043030361758e-08,-1.3114608269378198,-389.41173366853974,8199.045812884855,278.3072070028283
11.672625654,11.430000000000007,-396.5202888587332,8221.288559404087,299.9999794364042,17.944638498806746,-67.66084502751926,3.915905342978342e-06,-0.0008375625161179073,-5.594166456896488e-08,-1.3114338370429937,-388.2877316344874,8194.804632950509,278.3247974727439
11.740025075999995,11.498000000000019,-395.30002532890313,8216.687629396307,299.9999797029556,17.946491907272964,-67.66035344951256,3.970301993628705e-06,-0.0008286895435652135,-5.6718757886719e-08,-1.311406444313886,-386.9762848332687,8189.856619169142,278.3453196905418
11.881782010999984,11.629000000000019,-392.33856574852075,8205.523747579457,299.9999803653317,17.95093961932783,-67.65917356485437,4.0987829509436885e-06,-0.0008082371498422823,-5.8554149877452654e-08,-1.311340707815646,-383.97822058152354,8178.546998515131,278.39222762915983
11.983206790999986,11.730000000000018,-391.1178755082936,8200.922930765577,299.99998064434504,17.952687657962798,-67.65870976120839,4.143839986910557e-06,-0.0008018932460289098,-5.919782097428987e-08,-1.3113148717828622,-382.66639052262684,8173.599086439092,278.41274989141516
12.11949008099998,11.867000000000019,-388.6761383779138,8191.721391772578,299.9999812115968,17.956183699281382,-67.65778201843,4.234582828917296e-06,-0.0007892054386394813,-6.049414559745635e-08,-1.3112631997172928,-380.68085401469557,8168.064620940707,278.2112805702571
12.187178193999983,11.933999999999997,-387.47304852360816,8187.188327155888,299.9999814956133,17.957905996126,-67.65732490226016,4.279609453363358e-06,-0.000782954827713043,-6.11373822563804e-08,-1.311237743626191,-379.3779086112378,8163.19267249719,278.22663722194847
12.32212788199999,12.070000000000022,-385.1026772727474,8178.257541058769,299.99998252630326,17.959464932959303,-67.65691110327397,8.245116875059118e-06,-0.003306116544142021,-1.1765421582170629e-07,-1.3112146614873903,-376.77190099472233,8153.448806597925,278.2573526578844
12.39032550799999,12.134000000000015,-383.8815493855736,8173.65684037542,299.99998368836435,17.959942108012033,-67.65678443586516,1.3562060644293893e-05,-0.00505908272704674,-1.9353994759477769e-07,-1.3112076086164581,-375.46853752805725,8148.576969082079,278.27271011506656
12.458001623000001,12.201000000000022,-382.67834740772605,8169.123805506746,299.9999854363743,17.960412283080917,-67.65665962309586,2.0864047092953556e-05,-0.006786270021253596,-2.977844708981987e-07,-1.3112006591957712,-374.16465569519187,8143.705269235915,278.28806742947444
12.59353072099998,12.337000000000018,-380.23587105927106,8159.922462648241,299.99999072776194,17.96460050156591,-67.65554766423674,3.490885504202855e-05,-0.009347664518919791,-4.987266983168119e-07,-1.311138798039142,-371.45597226181195,8136.113821794852,278.77296999629596
12.66161610399999,12.405000000000001,-379.0141657566876,8155.321915204496,299.9999929812755,17.971539259066276,-67.65370483266608,3.297975660237422e-05,-0.009211554848853986,-4.711677302898961e-07,-1.311036236575362,-370.15170011519507,8131.3012315245005,278.79813640733056
12.797874626999999,12.54000000000002,-376.58732153388644,8146.188847301966,299.9999970730564,17.985314175029224,-67.65004416070376,2.9234516213077863e-05,-0.008941337114414185,-4.17663464538481e-07,-1.3108326218783812,-367.5396272804852,8121.6769901408725,278.84846918706967
12.899660468999997,12.632000000000005,-374.95038674359955,8140.032765305924,299.9999995473396,17.994598380257344,-67.64757520137488,2.6774036280011325e-05,-0.0087591903424784,-3.8242381085376824e-07,-1.3106953704694657,-366.04447085063106,8116.178101692273,278.8772305376569
12.96728101299999,12.699000000000012,-373.7264933929435,8135.432799358383,300.0000015375987,18.013605953026985,-67.64251623114912,2.4950368865280097e-05,-0.009063459731182137,-3.5636925092061347e-07,-1.3104143805993913,-364.547612496503,8110.679667712036,278.90599172567295
13.035026509000005,12.767000000000024,-371.90626165864677,8128.601133395287,300.00000427514306,18.041835160922197,-67.63499231586907,2.2184464355811374e-05,-0.009515389291656642,-3.1685310881730657e-07,-1.309997028036757,-363.0489242103901,8105.181723046952,278.9347521679605
13.204198638999998,12.936000000000007,-369.46882800980313,8119.4708857174155,300.00000751620695,18.079562357350238,-67.62491720177896,1.8369559125014886e-05,-0.010119453599736908,-2.623501580058976e-07,-1.3094391806227068,-360.84166924301405,8096.501366378494,277.4476233313247
13.271769470999999,13.003000000000014,-368.2572239238119,8114.94008917046,300.0000087149971,18.098431057256448,-67.61986982711598,1.4586577384957632e-05,-0.01010941466531781,-2.0845590261928266e-07,-1.309160164959886,-359.72680118175055,8092.418341255318,277.44137012817947
13.408416760999984,13.130000000000024,-365.95704519183363,8106.352814707602,300.00000964811153,18.134476314528968,-67.61021203138083,4.240667127754153e-06,-0.00948529178750112,-6.065247889867901e-08,-1.3086270697196234,-357.1214480807806,8082.892356426172,277.4267782519257
13.47553282299998,13.195999999999998,-364.74173498501364,8101.823010876329,300.0000096334086,18.15349024610288,-67.60510922995395,-9.394803763301803e-07,-0.0091560300802415,1.3352110883081691e-08,-1.3083458304146571,-355.8165363075272,8078.129965845219,277.4194817755688
13.54313321799998,13.26400000000001,-363.52515086914207,8097.293549024207,300.00000928235016,18.17250274579219,-67.60000108019491,-5.9376965463374375e-06,-0.00882676835448442,8.475768161885649e-08,-1.3080645910508761,-354.5102050525261,8073.367958092588,277.41218499010984
13.711035573000004,13.432000000000016,-360.4506677282659,8085.870044407827,300.00000687181773,18.223013765627297,-67.58640227135336,-1.8251732487212214e-05,-0.007848501812633173,2.6066650979026126e-07,-1.3073173132156777,-352.80823817627123,8065.403416814905,278.133556978522
13.778434363000002,13.499000000000024,-359.2294019680939,8081.341842627564,300.00000535876995,18.243291614036224,-67.58093158387918,-2.2766898433718106e-05,-0.007445916900419203,3.2517260053740535e-07,-1.3070172725515898,-351.51549717034624,8060.672931095691,278.14186351884814
13.918902121000002,13.629000000000019,-356.8741601775028,8072.624403825141,300.00000164500733,18.282329683667985,-67.57038126585903,-3.079188461575746e-05,-0.006670790693761233,4.397969441232028e-07,-1.3064395821267412,-348.9262858632812,8051.212970398863,278.15847598417645
13.986701436000004,13.695999999999998,-355.6306687889954,8068.029697070144,299.99999923059033,18.29937355114244,-67.5657674468306,-3.4393389541126976e-05,-0.0060970571361635174,4.912545074360123e-07,-1.3061873347805828,-347.6298257610388,8046.48349334816,278.16678196947515
14.12174757699998,13.831000000000017,-353.1585341933318,8058.9087841494,299.9999938245183,18.333207205233002,-67.55659491529354,-4.0387710947285944e-05,-0.004958027221999972,5.769025461684383e-07,-1.305686549375313,-346.0487403967092,8039.0073696506415,276.29845407902786
14.189025480999987,13.899000000000001,-351.92992497509954,8054.38256938655,299.9999908905011,18.349997022679247,-67.55203632915018,-4.279230669575562e-05,-0.004392730871525666,6.11261296837258e-07,-1.3054380113320727,-344.6168001090028,8033.753617311841,276.261726618926
14.324468523999997,14.03400000000002,-349.43263988876146,8045.1959504243505,299.99998456041044,18.380039870164094,-67.54386824540707,-4.601805611869714e-05,-0.0032320120267767694,6.573575133668763e-07,-1.3049932484189881,-342.2275191785027,8024.998102714488,276.2005141542785
14.396007804999982,14.096000000000004,-348.2928836361204,8041.008283295375,299.999981579836,18.391895473181815,-67.54064098054192,-4.681568673999799e-05,-0.002696819611399452,6.687594046337372e-07,-1.3048177197355493,-340.7556225824716,8019.610521876054,276.1628449975648
14.464023260000005,14.164000000000016,-347.66755275430603,8038.711903236748,299.99997993448727,18.39839669298207,-67.53887030646932,-4.7105739662609004e-05,-0.0024033269991635088,6.729069487153542e-07,-1.3047214620609981,-339.4671235879907,8014.89654954175,276.1298845630188
14.59916283299998,14.299000000000007,-345.18243696518016,8029.594518771868,299.9999733940239,18.424208681404117,-67.53183351250686,-4.735376252856674e-05,-0.0012379886751761225,6.764657405342084e-07,-1.3043392624060153,-336.8888388461746,8005.468956296148,276.0639639967131
14.667028959999982,14.367000000000019,-343.92935088213454,8025.002419543367,299.9999701394935,18.43367920772979,-67.52924902618881,-4.683299743752726e-05,-0.0006743729720503726,6.690344782085494e-07,-1.3041990207450374,-336.45666516490655,8003.548167717783,275.8989385708626
14.801960788999992,14.501000000000005,-340.84989083674975,8013.72531772388,299.99996246830017,18.448267718826298,-67.52526505926748,-4.417780276398534e-05,0.0006524080392848618,6.311195382546771e-07,-1.3039829818930961,-333.9112403629754,7994.235683746662,275.8272929363319
14.86882452499998,14.567000000000007,-339.7059919424013,8009.538780337639,299.99995977890046,18.45368359312746,-67.52378517963442,-4.281166362428748e-05,0.0011449854124206532,6.116093581027227e-07,-1.3039027758597141,-332.6384340083593,7989.579467446111,275.791470335556
15.009471649999995,14.695999999999998,-337.23264388081003,8000.490744685326,299.99995432075195,18.4601275759958,-67.52202376294866,-3.9490610559161195e-05,0.0021233859816211912,5.641736586469442e-07,-1.3038073398588628,-330.09269520806936,7980.267069321319,275.7198255952637
15.077424524999998,14.76400000000001,-335.34963471450214,7993.603519081473,299.99995049732865,18.46102823438018,-67.52177752173881,-3.679425778298446e-05,0.002802522107921274,5.256613950673453e-07,-1.3037940010994697,-328.72875279556933,7974.739264573139,277.5649323586096
15.213365718000006,14.900000000000006,-333.46653368156126,7986.716318595498,299.99994699280643,18.461928887233793,-67.52153126912957,-3.377009545556473e-05,0.0034816582115104106,4.824661378878561e-07,-1.3037806623733377,-327.32207187903185,7969.578217015872,277.57131793244974
15.281346323999998,14.968000000000018,-332.21108195620826,7982.124865559794,299.99994485015065,18.46252902649737,-67.52136717503446,-3.1572484048149194e-05,0.003934415609810632,4.5105933219482534e-07,-1.3037717699103926,-326.06009615068467,7964.9463901036415,277.57704868874725
15.42002651499999,15.096000000000004,-329.8482859118925,7973.482019059974,299.9999410657291,18.452841242602975,-67.52401538211704,-2.920101037438915e-05,0.004427951898595473,4.171841281020525e-07,-1.3039152444033437,-323.5372364682454,7955.682438049626,277.58851047065656
15.488023922999986,15.164000000000016,-328.5935507047197,7968.890370137672,299.9999391857665,18.447694452381853,-67.52542167691682,-2.7909595976002534e-05,0.004690143054736695,3.9873694007926137e-07,-1.3039914652353475,-322.2765886387207,7951.05024851194,277.5942414465719
15.55612376099998,15.232,-327.33916548013013,7964.298625590314,299.9999373989582,18.44254755469185,-67.52682757950036,-2.6593325096459763e-05,0.004952334211315261,3.7993465946615595e-07,-1.304067686071717,-321.01659538577877,7946.417880380702,277.59997247246065
15.69173941699998,15.367000000000019,-324.8683734151912,7955.249891540076,299.9999341143592,18.428843194058654,-67.53056894429292,-2.4639554746939177e-05,0.005384819064944804,3.520158438443773e-07,-1.3042706254205405,-317.95138305728887,7937.98257104423,276.4117459439132
15.758965036000006,15.433999999999997,-323.6153296625503,7950.657780712441,299.9999325184535,18.42008111959769,-67.53295947138598,-2.400284983313312e-05,0.005561567766373907,3.429207881943603e-07,-1.3044003728743676,-316.68062485289914,7933.364728930348,276.3916630651022
15.894817547000002,15.569000000000017,-321.2582897451038,7942.013362607937,299.9999296385993,18.403586962262974,-67.53745620282768,-2.280791522744544e-05,0.005894271213959631,3.258516657451161e-07,-1.3046446033698271,-314.14158362839714,7924.128370949298,276.35149719100195
15.965027445000004,15.630000000000024,-320.0253630939212,7937.488322011266,299.9999281949413,18.39495256483331,-67.53980843758464,-2.219436522368656e-05,0.006068420677300131,3.170604646394894e-07,-1.304772442769937,-312.8732748997635,7919.509862381929,276.3314142124444
16.100030586999992,15.76400000000001,-317.5431364189354,7928.370150439387,299.99992514588445,18.372465280344677,-67.54592899034918,-2.297376037667856e-05,0.006034433985502195,3.2819469172321277e-07,-1.305105376278782,-310.5200159788039,7910.932042266206,276.2941171433768
16.168025008,15.832000000000022,-316.29397796841977,7923.776981179902,299.9999235704289,18.361137580393695,-67.54900910005969,-2.336115249029081e-05,0.006017314762567846,3.337288701204456e-07,-1.3052730761213267,-309.424958837292,7906.991396634437,276.68800616572884
16.303191959999992,15.967000000000013,-313.81631646536874,7914.657568066218,299.9999203649693,18.338647100754393,-67.55511843240197,-2.412077302420979e-05,0.005983328069900456,3.445687305702361e-07,-1.3056060096339683,-306.9015823061258,7897.776115026838,276.6657974056596
16.371122530999997,16.035000000000025,-312.5878147470808,7910.131324122377,299.9999186937918,18.32626554475194,-67.5584783360368,-2.4873924936430886e-05,0.005880991322949445,3.55328278618766e-07,-1.305789285873454,-305.46123442900534,7892.509811492539,276.6531066009172
16.475753798,16.130000000000024,-310.8290305307414,7903.645564383137,299.99991621285903,18.308523734352452,-67.56328857123475,-2.590683635595643e-05,0.005734359565238674,3.700844927795059e-07,-1.3060518906438303,-304.20194998135105,7887.901519972444,276.6420020520774
16.611677789999987,16.26600000000002,-308.3586031962454,7894.524188897173,299.99991256486436,18.283572176430166,-67.57004508176536,-2.7253459504333734e-05,0.005528158646330531,3.893224398685968e-07,-1.3064211786196047,-301.6859640315129,7878.684238881028,276.61979280785357
16.679629283999986,16.333,-307.1155178525056,7889.929372308036,299.9999106414475,18.271180713137237,-67.57339683237211,-2.7975022357110096e-05,0.0053742410698705955,3.996184594974863e-07,-1.3066045587072086,-301.03435730683896,7874.0594724499015,276.77871445945897
16.813992216000003,16.467000000000013,-304.6683649236723,7880.874216635458,299.9999066712802,18.247111208598938,-67.5799003894053,-2.938433067959903e-05,0.0049722982465527695,4.1975328409893915e-07,-1.3069607394996465,-298.7257081410509,7865.493362541529,276.7649579941609
16.881103873,16.53400000000002,-303.44599797632225,7876.346312085719,299.9999046224658,18.23507558699884,-67.5831489531906,-2.998589578686052e-05,0.004771326829893677,4.2834799563168993e-07,-1.3071388299113567,-297.4837168047194,7860.880538028174,276.75755062889294
17.020581843000002,16.664000000000016,-301.09477129117874,7867.627789594728,299.99990057226455,18.212454164153854,-67.58924853535774,-3.091341327215999e-05,0.004366879674980703,4.415945675110213e-07,-1.3074735334106768,-295.0019759827702,7851.654285560574,276.7427358804864
17.088124766999982,16.731000000000023,-299.85649767364686,7863.031673964587,299.9998983864187,18.201991705315624,-67.5920668585183,-3.1176627022194665e-05,0.004108257768334304,4.4535628134771425e-07,-1.3076283249034173,-293.7622727252791,7847.04084543315,276.73532851098616
17.15603010799998,16.799000000000007,-298.618935511307,7858.43536671799,299.99989618889356,18.191528809658855,-67.59488356233156,-3.134728267981685e-05,0.0038496358549928848,4.477957367249989e-07,-1.3077831164063873,-292.5232736519887,7842.427216085649,276.7279211580665
17.291590800999984,16.933999999999997,-296.1641215720468,7849.309776903529,299.9998918160303,18.170755591187728,-67.60047074884415,-3.1416627680050214e-05,0.0033361952829291017,4.487893920984762e-07,-1.3080904230942503,-289.24473672154147,7832.52686095618,278.02704845095315
17.35878851999999,17.001000000000005,-294.94684908030206,7844.780500139618,299.9998896528605,18.160445310333518,-67.6032412718119,-3.131830993425785e-05,0.0030813766306354404,4.4738764328965224e-07,-1.3082429382773189,-287.9939705771111,7827.909612662907,278.0472549189257
17.497897744,17.130000000000024,-292.6230428744011,7836.127088943717,299.99988558525195,18.145144318546045,-67.60734976296223,-3.0504704957566322e-05,0.002630365481347985,4.357671716912238e-07,-1.3084692665787077,-285.49416034656616,7818.674654355471,278.08766801263266
17.599527277999982,17.231000000000023,-290.7726514498375,7829.23102833143,299.99988243545994,18.132950674623952,-67.61062123760169,-2.9663220459233938e-05,0.002270965967263893,4.2374792221141926e-07,-1.3086496219527861,-284.4233736426111,7814.716664873646,278.10498798761535
17.666945897999994,17.298000000000002,-289.5578770465526,7824.701080944366,299.99988042017367,18.12494080295526,-67.61276895073784,-2.9023676353456338e-05,0.002034889815800405,4.1461286374480453e-07,-1.3087680906827353,-282.81778456999257,7808.779522367053,278.13096805047
17.802614401,17.43300000000002,-287.1117151467857,7815.573168133639,299.9998765162221,18.112234123752472,-67.61617394822244,-2.737270486994135e-05,0.0015726615559834135,3.9103037282121496e-07,-1.3089560192698206,-280.35720452816014,7800.468188213231,277.34169159083586
17.870020574999984,17.5,-285.898295269337,7811.0428577354805,299.99987467153437,18.106478896065735,-67.6177153291349,-2.6440236138957324e-05,0.0013454186126852855,3.7771058564694605e-07,-1.3090411344388948,-279.1060256237393,7795.85285006062,277.34444093988634
18.009902463000003,17.630000000000024,-283.5450029088022,7802.252407505526,299.9998712875611,18.09531166224868,-67.62070467085763,-2.4470140920138637e-05,0.0009044994688253263,3.495686863060267e-07,-1.3092062832742055,-276.604392083816,7786.621980027336,277.34993990060303
18.077841022,17.698000000000008,-282.31462519811606,7797.6541718931385,299.99986962815547,18.090704377821126,-67.62193741291532,-2.333708406040797e-05,0.0007021291777043699,3.333841232234003e-07,-1.3092744181617686,-275.1753121349549,7781.347083521438,277.35308232327355
18.145940462,17.76600000000002,-281.084519523245,7793.055863500095,299.99986805087303,18.087331087008224,-67.62283976962993,-2.2154748097887536e-05,0.0005280232262629717,3.1649430175343923e-07,-1.3093243023921106,-273.7465518053104,7776.072101571246,277.35622487295814
18.31547137199999,17.935000000000002,-278.06450053819464,7781.7626980704745,299.99986453496183,18.079046491108038,-67.62505513733717,-1.912113489492114e-05,0.00010043948409389436,2.7315867044268947e-07,-1.3094468121862493,-271.39101358473044,7767.7840765617175,278.4992482716414
18.382754562000002,18.001000000000005,-276.85326489105836,7777.23180321013,299.99986327205653,18.075722731693944,-67.62594363179704,-1.7851557662680203e-05,-7.110608462647112e-05,2.550224543428686e-07,-1.309495962818938,-269.9652106484432,7762.528600021435,278.5298621436216
18.450109295000004,18.068000000000012,-275.7325921579686,7773.038988803255,299.9998621813,18.0746494086748,-67.6262305109281,-1.6712625432736134e-05,-0.0001842474543958748,2.3875231554801573e-07,-1.309511834253541,-268.5395136610663,7757.273095169305,278.56047613315457
18.624030435999998,18.232,-272.6601172254222,7761.542472028817,299.9998595560943,18.07170640336591,-67.62701702746608,-1.3531586107678533e-05,-0.0004944737898205947,1.9330977851558762e-07,-1.3095553526955763,-265.68820791794997,7746.762061886106,278.6217044697182
18.69204658299998,18.30000000000001,-271.43126733988964,7756.943827882504,299.9998586601095,18.07052919185859,-67.62733159816679,-1.2236230691432135e-05,-0.0006185643227715325,1.7480505389960496e-07,-1.3095727600694387,-264.89500777356983,7741.579688047337,280.6721827575294
18.794187343999994,18.40100000000001,-269.62425314565263,7750.181084373339,299.9998575005749,18.070419557623133,-67.62736089320832,-1.0427934308446157e-05,-0.0007388391248905157,1.4897152719376307e-07,-1.309574382660975,-263.1623898917183,7735.1238064074405,280.7717610816228
18.861473628,18.468000000000018,-268.41353251151094,7745.6500518662015,299.9998568224003,18.0708811210255,-67.62723755912745,-9.250940286203387e-06,-0.0007988935209998028,1.321574111843122e-07,-1.3095675575562105,-261.9247465148434,7730.512478191604,280.84288855576654
19.000380799,18.596000000000004,-266.1004274229666,7736.993774087825,299.9998557484458,18.07176291157769,-67.62700192701769,-6.9967846752092486e-06,-0.000913624306368266,9.9955349236881e-08,-1.3095545185482642,-259.6259780125491,7721.948659889132,280.97498263729835
19.067330613999985,18.662000000000006,-264.8896167840965,7732.462765631397,299.9998553010071,18.07222456191501,-67.62687855994434,-5.8138384122990655e-06,-0.0009736787023696884,8.305491660566553e-08,-1.309547693441333,-258.3880190598843,7717.337416018589,281.0461103278568
19.235681557999982,18.832000000000022,-261.81707743419577,7720.966266068597,299.9998544896389,18.076200262602086,-67.6258159909669,-3.134085566271795e-06,-0.0009816272942971295,4.477273377897054e-08,-1.3094889042142643,-256.1470048701341,7707.1450524875345,279.60334560489935
19.30354420499998,18.900000000000006,-260.58787245143435,7716.367716823819,299.9998542926442,18.0777905253903,-67.6253908979308,-2.0623204958096695e-06,-0.000984806731204483,2.9461804476084433e-08,-1.309465388523356,-255.0959191185767,7703.196672077231,279.634370131134
19.371787323999996,18.968000000000018,-259.37663786263755,7711.836821678719,299.9998541700862,18.07935739218494,-67.62497201968739,-1.0063904737232042e-06,-0.0009879394116481864,1.437709014595048e-08,-1.3094422186514127,-253.69428940378626,7697.93221354517,279.6757362518817
19.506712680999982,19.099000000000018,-256.99000791763535,7702.910366745647,299.99985413166314,18.082886684012557,-67.624028374246,9.702392916890596e-07,-0.0009521043273980106,-1.3861439130736543e-08,-1.309390030114094,-251.24097406637867,7688.7195350383245,279.74812718232783
19.573908705999997,19.166000000000025,-255.7784222084217,7698.379565479198,299.9998542078202,18.08490941523,-67.62348745687635,1.9220418618310093e-06,-0.0009119375554474059,-2.745858166487486e-08,-1.3093601185670263,-250.01409915507136,7684.1132538986985,279.7843227475914
19.64129243299999,19.233000000000004,-254.5667009764964,7693.8488004552655,299.9998543479013,18.086932130245263,-67.62294647900973,2.876325641357075e-06,-0.000871770781865683,-4.1091170047363834e-08,-1.3093302070202775,-248.61177302022256,7678.848981659616,279.82568918831794
19.777889829999992,19.369,-252.10667200306202,7684.652134884896,299.9998548290248,18.091037948328214,-67.6218481731174,4.821003802495083e-06,-0.0007902382275327427,-6.887289290215178e-08,-1.3092694910457725,-245.66735204974577,7670.1970399962,278.69440993277226
19.879499621999997,19.471000000000004,-250.87644592302235,7680.053858704072,299.99985516564107,18.09306174164209,-67.62130671030094,5.7030817479890664e-06,-0.0007119487520322807,-8.14738667098974e-08,-1.3092395628277207,-244.4248855448956,7665.585993101346,278.7049151896642
20.01470524999999,19.596000000000004,-247.99934672981118,7669.302151843687,299.99985619153745,18.097793783200547,-67.62004040648725,7.79141643376459e-06,-0.0005288895356622891,-1.1130689271372894e-07,-1.3091695836141195,-241.93955654149482,7656.364005313767,278.7259258971509
20.082839786999983,19.664000000000016,-246.78676007584522,7664.771618360367,299.99985672379245,18.09978776152461,-67.619506707617,8.683150178298328e-06,-0.00045175137489946967,-1.240458085619687e-07,-1.3091400955188481,-240.69672962915791,7651.7530549010835,278.7364313443982
20.184060426000002,19.76400000000001,-244.9585854611084,7657.942073891672,299.99985763828346,18.10223711681582,-67.61885103849367,9.94778293328593e-06,-0.0003161976086786545,-1.4211189226220654e-07,-1.3091038731827855,-238.38835708583127,7643.189932346754,278.7559416163102
20.251228682999994,19.831000000000017,-243.74570786796284,7653.411618288222,299.99985831479916,18.103674569646504,-67.61846620173581,1.076582926011734e-05,-0.00021978857729640274,-1.5379805261720582e-07,-1.309082614955237,-237.71848052355978,7637.927924803394,279.80327260817626
20.386322613999994,19.966000000000008,-241.3015578590872,7644.283166566225,299.9998598472563,18.106570904822526,-67.6176906916129,1.244108167875167e-05,-2.553157396019984e-05,-1.7772979532088304e-07,-1.3090397812154464,-235.43137689921045,7629.333415278914,279.86448943714396
20.454198023000004,20.03400000000002,-240.08838990273247,7639.752788708201,299.9998606932405,18.108008328598686,-67.61730576392902,1.3285541810596625e-05,7.087745626193205e-05,-1.8979330018942324e-07,-1.3090185229902,-234.19980773034345,7624.705616340021,279.89745242352063
20.62788707499999,20.198000000000008,-237.10047207104486,7628.595959087499,299.99986300684867,18.10926823970849,-67.6169683454024,1.5150854743637211e-05,0.00030097524861972614,-2.1644012731676802e-07,-1.308999889975473,-231.5606259579706,7614.78893244539,279.9680875846216
20.69579352599999,20.26600000000002,-235.86902748977965,7623.998009080229,299.9998640510574,18.10978747387839,-67.61682928126439,1.5932065765333936e-05,0.00039580342986987496,-2.276000785079598e-07,-1.3089922109162542,-230.32902346192446,7610.16114243211,280.0010507408611
20.764323913999988,20.334000000000003,-234.6556577288113,7619.467685267519,299.9998651327903,18.110299071157854,-67.61669225830073,1.6708223585135578e-05,0.0004892370796601211,-2.386878441339278e-07,-1.308984644785106,-229.22246579163445,7604.809440798868,279.11471574418346
20.900027166,20.469000000000023,-232.1926363656713,7610.271820660077,299.999867485402,18.110006275044856,-67.61677067948385,1.8153459720529718e-05,0.0006657155600952013,-2.5933382093553605e-07,-1.308988974821374,-226.76322610545932,7595.516540233671,279.1406237659603
20.96796689499999,20.537000000000006,-230.97926529892055,7605.741497196621,299.99986871613737,18.109643424006304,-67.6168678619434,1.8847699568166553e-05,0.0007504931500570707,-2.6925136521928543e-07,-1.308994341105128,-225.5333577847056,7590.8701564939765,279.1535791749695
21.10483019199998,20.66300000000001,-228.06365257294811,7594.855170791341,299.9998718676069,18.1087773984497,-67.61709980133486,2.054073312640826e-05,0.0009542124320895085,-2.9335386154830877e-07,-1.309007236207293,-222.89761696102767,7580.913702592174,279.1813493427751
21.206479395000002,20.76400000000001,-227.4659322095743,7592.623841501742,299.9998727967809,18.10938836502296,-67.6169361732972,2.4051500989640703e-05,0.0028399619405776637,-3.433393467242097e-07,-1.3089982005148433,-221.6674628704774,7576.267395395943,279.19431441014314
21.240252554999984,20.798000000000002,-225.65453560356494,7585.862270476042,299.99987819939844,18.111239653519537,-67.61644032819473,4.989775298823159e-05,0.008554354294150357,-7.120614004342112e-07,-1.3089708213471338,-220.48447918478718,7573.306588310632,279.71635590358994
21.409089551999983,20.966000000000008,-223.20885707442474,7576.734228099785,299.99989488248957,18.113738287191275,-67.61577101335412,0.00012089822265759349,0.01626878391251859,-1.725665207849027e-06,-1.3089338681067613,-217.88040221785727,7563.529556741451,279.7674338615789
21.476562433999987,21.033000000000015,-221.97683218317403,7572.136433516922,299.99990895177746,18.11498999112659,-67.61543568563258,0.00017222795893163533,0.020154570537340735,-2.4605243975549098e-06,-1.3089152606138859,-216.65028869754343,7558.904871891295,279.7915914798623
21.615888541999993,21.162000000000006,-219.64124902677455,7563.413706858766,299.9999297103679,18.088677810818425,-67.62247954914106,0.000156960543209742,0.01963433290048918,-2.242415233017775e-06,-1.3093043849196135,-214.19315129402355,7549.6546764994755,279.8399059491654
21.683713695999984,21.230000000000018,-218.41144379509592,7558.815317820795,299.999939878897,18.074806714822948,-67.62618847406054,0.00014908896671529087,0.019360099073491368,-2.1299624398811592e-06,-1.3095095048091991,-212.792937837239,7544.367819851043,279.86751415378546
