Real_time_s,Simulation_time_s,x_ft,y_ft,alt_ft,vx_fps,vy_fps,vz_fps,roll_rad,pitch_rad,yaw_rad
0.0,0.0,4.869053930913591e-16,4002.720000000006,280.0,5.329070518200751e-15,24.384,-1.4654794137058944e-12,-2.889915730716679e-17,6.010004157258425e-14,1.5709126535897928
0.03363260300000093,0.03300000000001546,1.0638715716709567e-15,4005.360000000012,280.0,5.329070518200751e-15,24.384,-1.4626966503924099e-12,-2.889917957532806e-17,5.99859190613685e-14,1.5709126535897928
0.10141219899998077,0.09700000000000841,2.18283646504953e-15,4010.480000000023,280.0,5.329070518200751e-15,24.384,-1.459423371124388e-12,-2.889919282301634e-17,5.985168024624295e-14,1.5709126535897928
0.13526977600000123,0.13100000000000023,2.7772867028558457e-15,4013.2000000000294,280.0,5.329070518200751e-15,24.384,-1.4643554402905203e-12,-2.889916638270227e-17,6.005394686230809e-14,1.5709126535897928
0.16932282799999143,0.1640000000000157,3.3542529048692758e-15,4015.8400000000356,280.0,5.329070518200751e-15,24.384,-1.4615714326074408e-12,-2.8899185412475927e-17,5.99397733188747e-14,1.5709126535897928
0.23690318499998853,0.23199999999999932,4.5431531610748e-15,4021.2800000000475,280.0,5.329070518200751e-15,24.384,-1.4625862917717338e-12,-2.8899181932046857e-17,5.99813931993001e-14,1.5709126535897928
0.27041130300000304,0.2650000000000148,5.120119427784276e-15,4023.9200000000533,280.0,5.329070518200751e-15,24.384,-1.459798972967103e-12,-2.889919202097199e-17,5.986708386512068e-14,1.5709126535897928
0.40489026699998476,0.3990000000000009,-5.65617585750017e-06,4034.6400000000776,280.00000000014103,-1.4030859471603179e-05,24.38399999999596,4.0586833994682703e-10,5.7258911894714e-05,-1.6644859112297265e-11,1.570913229002337
0.5399793649999935,0.5340000000000202,-2.058108589010307e-05,4045.4400000001015,280.0000000011184,-3.2972518644314e-05,24.38399999997771,2.291816838596404e-09,0.0001345584429518358,-9.398855164207548e-11,1.5709140058092257
0.712080143999998,0.695999999999998,-4.3517606665455715e-05,4058.4000000001156,280.0000000035662,4.252916747362309e-06,24.383999999999638,4.079214102596954e-09,0.000184117104090577,-1.6729060579303776e-10,1.5709124791793543
0.7460238939999897,0.7300000000000182,-4.302466284204499e-05,4061.1200000001218,280.00000000398944,2.9907521037188777e-05,24.38399999998166,3.893641832205136e-09,0.00018166235221684152,-1.5968019461754576e-10,1.5709114270712388
0.8812224879999917,0.8640000000000043,-1.3135417135742616e-05,4071.8400000001207,280.0000000054632,0.0001310168438767653,24.38399999964802,3.188810389736598e-09,0.00017198774189078496,-1.307747048400875e-10,1.570907280527487
0.948768403999992,0.9320000000000164,1.89928707438515e-05,4077.2800000000566,280.0000000060973,0.0001823260524617473,24.38399999931835,2.8530926059670528e-09,0.00016707823814313908,-1.170067514828354e-10,1.5709051763112556
1.1228289689999826,1.0960000000000036,0.00015985548920686784,4090.3999999993744,280.0000000078268,0.000426271367572871,24.383999996274053,2.711194359862697e-09,0.0001872101627660789,-1.1118743809500602e-10,1.5708951719973054
1.1904888400000004,1.1640000000000157,0.0002597341942940271,4095.839999998524,280.00000000860035,0.0005404541370861201,24.383999994010612,2.73996631492902e-09,0.00019902473201130737,-1.1236739109446361e-10,1.5708904893049855
1.2583858680000048,1.2319999999999993,0.00038508674560038344,4101.27999999716,280.00000000939076,0.0006546369065745003,24.383999991212484,2.7712972360297074e-09,0.0002108393012578876,-1.1365228591954987e-10,1.5708858066126656
1.3939573989999872,1.3660000000000139,0.0007084967905436267,4111.999999992388,280.0000000106669,0.0008860746588046047,24.383999983900758,2.040516688519334e-09,0.00021592805737833087,-8.3682611241951e-11,1.5708763152351786
1.4614050699999837,1.4339999999999975,0.0009126368526886729,4117.439999988646,280.00000001097914,0.001006783933010981,24.3839999792156,1.2628117011026467e-09,0.00020927819583285885,-5.1788542557032816e-11,1.5708713648876436
1.5974374519999799,1.5690000000000168,0.0013978135263798877,4128.239999977865,280.0000000111015,0.001246427344920166,24.38399996814343,-2.1311220370369567e-10,0.00019607626481916624,8.739833414817856e-12,1.5708615369918033
1.6684126429999822,1.6300000000000239,0.0016523639492768381,4133.119999971272,280.0000000109464,0.0013547106640705256,24.383999962367934,-8.573229018644666e-10,0.00019011094784066677,3.515923576585811e-11,1.570857096238879
1.8039030679999826,1.7660000000000196,0.002299557943759607,4143.9999999521215,280.00000001019816,0.0016251820357993498,24.3839999458412,-2.1867375199218814e-09,0.00017920580675345307,8.967919294536678e-11,1.5708460040745207
1.871428093999981,1.8329999999999984,0.002663877113345308,4149.35999993982,280.0000000096221,0.0017631998667962223,24.38399993625178,-2.816704094425608e-09,0.00017422664899753002,1.1551443574462153e-10,1.57084034389443
1.938214165000005,1.899000000000001,0.003052534584570795,4154.639999925602,280.0000000089221,0.0018991577299896478,24.383999926041678,-3.4187734966821612e-09,0.00016932180702713097,1.4020560195693657e-10,1.5708347681946442
2.10756345599998,2.069000000000017,0.004188020424742133,4168.239999878254,280.0000000064726,0.002228908677755315,24.383999898129233,-4.949175995879507e-09,0.00015111171300394066,2.0296817723167333e-10,1.570821244942132
2.178272865999986,2.130000000000024,0.0046394170642528754,4173.1199998574175,280.0000000053561,0.0023362276733637664,24.383999888083185,-5.4617965981254376e-09,0.00014157608203296167,2.2399100358793528e-10,1.570816843736584
2.31397557599999,2.265000000000015,0.005713662222221264,4183.919999804051,280.0000000025663,0.002573736925771386,24.38399986417074,-6.463109398761149e-09,0.00012047263642696008,2.650553402181919e-10,1.5708071033636506
2.381283967999991,2.332000000000022,0.00628591370454439,4189.27999977354,280.00000000103495,0.002691611836171716,24.383999851444106,-6.8983184405882775e-09,0.00010999907452566036,2.8290348663413505e-10,1.5708022692526384
2.449924101999983,2.4000000000000057,0.0068917044553839825,4194.719999739854,279.99999999940087,0.0027831801280451163,24.38399984116447,-7.178421659707296e-09,9.945563716378511e-05,2.9439065819965825e-10,1.570798513991301
2.5847775969999987,2.535000000000025,0.008154995958075827,4205.519999665968,279.99999999600817,0.002964970119210476,24.383999819737383,-7.620055063363751e-09,7.852381297586806e-05,3.125022655402275e-10,1.5707910586930551
2.655446076000004,2.5960000000000036,0.008752611653301294,4210.39999962939,279.9999999944258,0.0030471122635644565,24.383999809610955,-7.757712195113073e-09,6.906572944759757e-05,3.18147651479821e-10,1.5707876900027262
2.791525816999979,2.731000000000023,0.010131470950933315,4221.199999541383,279.9999999908666,0.0032017858225435506,24.38399978979183,-7.895484394709868e-09,4.8305877843361125e-05,3.237977615051205e-10,1.570781346760804
2.8588441599999896,2.7990000000000066,0.010849710413790077,4226.639999493969,279.9999999890723,0.00326583301085021,24.383999781297888,-7.885283917856755e-09,3.793697982144326e-05,3.2337943493111016e-10,1.570778720153649
2.994026593000001,2.9339999999999975,0.012318020433582176,4237.439999394148,279.9999999855533,0.0033929855170578608,24.383999763936387,-7.764007833690769e-09,1.7351667561135545e-05,3.184058416673939e-10,1.5707735055659113
3.096101888999982,3.035000000000025,0.013453422312898655,4245.519999314377,279.9999999829866,0.003471244676100391,24.3839997529212,-7.568325240019537e-09,2.7532405654637034e-06,3.1038080296392355e-10,1.5707702961162129
3.168517742000006,3.0960000000000036,0.014149884401287607,4250.399999264691,279.9999999814787,0.003498432561035778,24.383999749035645,-7.42015799484544e-09,-5.108605853502467e-06,3.043043910227726e-10,1.5707691811274822
3.3034977949999984,3.231000000000023,0.015710279782959677,4261.199999151971,279.9999999782734,0.003558602469122882,24.383999740328676,-6.997014252504483e-09,-2.250777416112526e-05,2.869510545603721e-10,1.5707667135295194
3.371025489999994,3.2990000000000066,0.01650633722111638,4266.639999093723,279.99999997674075,0.0035889102746610255,24.383999735886718,-6.760494395053822e-09,-3.127179968144028e-05,2.7725125807101427e-10,1.570765470591287
3.505522001999992,3.433000000000021,0.01808974733233701,4277.35999897679,279.9999999738874,0.0036012130748818852,24.383999734072862,-6.28889791747932e-09,-4.593057714046823e-05,2.5791085239362604e-10,1.5707649660449217
3.5736358089999953,3.5010000000000048,0.018893602637080828,4282.799998917402,279.99999997252235,0.003599593637076696,24.383999734311978,-6.035668074383528e-09,-5.293635956607344e-05,2.475257693989241e-10,1.5707650324588747
3.641625766000004,3.569000000000017,0.019697096649922734,4288.239998858064,279.9999999712174,0.003597974199228874,24.383999734550986,-5.7720341568909824e-09,-5.9942141991585464e-05,2.367140116462784e-10,1.570765098872829
3.7794037939999896,3.695999999999998,0.021196757076752063,4298.399998747387,279.9999999689464,0.003581716135818955,24.38399973694452,-5.2927753899282805e-09,-7.181763544732835e-05,2.170593696915104e-10,1.570765765622104
3.880283731999981,3.798000000000002,0.022391300751817104,4306.559998659953,279.99999996724387,0.003538383505618445,24.38399974327106,-4.995401768799882e-09,-7.85899084895775e-05,2.0486392928066718e-10,1.5707675427148966
4.016149348999988,3.9339999999999975,0.023961468420957584,4317.43999854668,279.99999996513594,0.003480606665348138,24.383999751586657,-4.58466853415991e-09,-8.761960587651132e-05,1.8801955462390343e-10,1.5707699121719536
4.084176370999984,4.0020000000000095,0.02473688487083587,4322.879998491426,279.9999999641531,0.003451718211238094,24.383999755693118,-4.374132299305123e-09,-9.213445456882766e-05,1.7938535823192351e-10,1.5707710969004816
4.185748077999989,4.098000000000013,0.025817610423551986,4330.559998415393,279.9999999628182,0.003382922079714456,24.38399976533463,-4.191767500830209e-09,-9.556743858843609e-05,1.719064870515279e-10,1.5707739182640592
4.322365294999997,4.234000000000009,0.027311514681268467,4341.439998312874,279.9999999610206,0.0032843442857724997,24.383999778811585,-3.9407054202066715e-09,-0.00010013543289258578,1.6161030596851004e-10,1.570777960988586
4.3907531529999915,4.302000000000021,0.028041972494212197,4346.879998263859,279.9999999601646,0.003235055388774876,24.383999785400622,-3.815766751749596e-09,-0.0001024194300437083,1.5648650889774638e-10,1.57077998235085
4.4581784899999946,4.369,0.028750854093157096,4352.239998217009,279.9999999593415,0.003180127838343096,24.383999792626064,-3.730305084692068e-09,-0.00010357801450078475,1.5298168278904878e-10,1.570782234956152
4.593149640999997,4.503000000000014,0.030129451888729026,4362.959998128392,279.9999999577162,0.0030571601851790992,24.38399980835328,-3.6422280010133818e-09,-0.00010364536323255218,1.4936959766395815e-10,1.570787277920972
4.66036348999998,4.570999999999998,0.030808411587219284,4368.399998086022,279.9999999569062,0.0029947586894377726,24.38399981609706,-3.598129574499036e-09,-0.00010367954020081817,1.475610991971449e-10,1.5707898370374511
4.830293977999986,4.731000000000023,0.03235023891651413,4381.19999799318,279.9999999550217,0.002842260987817044,24.383999834349435,-3.5444432001085257e-09,-0.00010178624955983518,1.4535939419908599e-10,1.570796091043889
4.898026751000003,4.798000000000002,0.03297160586675872,4386.559997957174,279.99999995422826,0.0027751065174875878,24.383999842084656,-3.5502817191649753e-09,-9.984621688894792e-05,1.4559883482109228e-10,1.5707988450822246
4.965878709999998,4.866000000000014,0.03358720824490525,4391.999997922363,279.99999995342296,0.002706949741563166,24.383999849746225,-3.5533579384712496e-09,-9.787722850711717e-05,1.4572499229450336e-10,1.570801640225612
5.101564438999986,5.0020000000000095,0.03477279626138813,4402.879997857813,279.9999999518114,0.0025706361930304426,24.38399986449784,-3.5455281023160926e-09,-9.39392517451496e-05,1.4540388717962068e-10,1.5708072305123877
5.169652394999986,5.070000000000022,0.03534282312291215,4408.319997827972,279.99999995100296,0.0025041822891556124,24.383999871413057,-3.5401392584242658e-09,-9.138546058870127e-05,1.4518288794210157e-10,1.5708099558201403
5.307415313999996,5.197000000000003,0.03636734444068251,4418.479997776331,279.99999994949957,0.0023800698512979083,24.383999883843266,-3.519072576174617e-09,-8.66158800486149e-05,1.4431893263181384e-10,1.5708150457331354
5.375101272999984,5.265000000000015,0.03689485650155232,4423.919997750778,279.99999994869904,0.0023136159473395894,24.38399989023913,-3.502644993999962e-09,-8.406208889409157e-05,1.4364522922240231e-10,1.5708177710408893
5.442381042999983,5.332000000000022,0.03740005788877702,4429.279997726993,279.999999947915,0.002248139319240283,24.383999896363807,-3.4830798824506117e-09,-8.154585349250316e-05,1.4284285517927268e-10,1.570820456270586
5.613101951000004,5.5020000000000095,0.03862078071449835,4442.879997672214,279.9999999459335,0.0020982867599083077,24.383999909719346,-3.4159637932235886e-09,-7.2365398876607e-05,1.4009039052767253e-10,1.5708266017987984
5.680912664999994,5.570000000000022,0.03908566767344529,4448.3199976523665,279.9999999451539,0.0020383457361424773,24.383999914803706,-3.3772877878281276e-09,-6.869321703159383e-05,1.3850426875690975e-10,1.5708290600100838
5.750410455999997,5.629000000000019,0.03947784206077314,4453.039997636081,279.999999944486,0.001986338083314609,24.383999919095746,-3.3363372474745026e-09,-6.550705925503078e-05,1.368248665883638e-10,1.570831192869869
5.8851526610000064,5.76400000000001,0.04033973658815015,4463.8399976017,279.9999999429949,0.0018832061168404777,24.383999927278857,-3.2030116383675685e-09,-5.818489310371637e-05,1.313571170035604e-10,1.5708354223640604
5.953023648999988,5.832000000000022,0.04075716136532855,4469.279997585682,279.9999999422688,0.0018338441436328821,24.38399993104118,-3.1255464289142914e-09,-5.449150783538629e-05,1.2818023011550942e-10,1.5708374467232036
6.089026832999991,5.968000000000018,0.04155897337855317,4480.159997556184,279.9999999408738,0.0017351201971715056,24.383999938266044,-2.947718319753445e-09,-4.710473730033597e-05,1.2088741064355006e-10,1.5708414954414913
6.157021689999993,6.036000000000001,0.04194333180962858,4485.599997542602,279.99999994020806,0.0016916183072805452,24.383999941322752,-2.8467787691803377e-09,-4.352273201718939e-05,1.1674782955027564e-10,1.5708432794765779
6.295654713999994,6.164000000000016,0.04264257493248112,4495.83999751874,279.99999993902475,0.0016207630608743911,24.38399994613533,-2.6327876492399828e-09,-3.698979027791253e-05,1.079719472941369e-10,1.5708461852855746
6.363792236999984,6.231999999999999,0.043002045488272446,4501.279997506857,279.99999993843505,0.001583121211261978,24.38399994860827,-2.5138187958073895e-09,-3.3519164979474745e-05,1.0309297524747798e-10,1.570847728996602
6.499331686999994,6.366000000000014,0.043685758779363086,4511.999997485064,279.9999999373542,0.0015136016738951509,24.383999953022684,-2.2551571291568045e-09,-2.6866127405387845e-05,9.248513120197323e-11,1.570850580028224
6.600096950999983,6.467000000000013,0.04418263831887477,4520.079997469788,279.9999999366196,0.0014719457935642578,24.38399995557284,-2.0476917213633924e-09,-2.228091644587854e-05,8.397687158727591e-11,1.570852288356653
6.667764933000001,6.535000000000025,0.04450941101678987,4525.519997459959,279.99999993616467,0.0014439002503538047,24.38399995724968,-1.9016595711012733e-09,-1.919384372091827e-05,7.798802004714426e-11,1.570853438518368
6.805549006000007,6.663000000000011,0.045107388687588186,4535.759997442493,279.9999999354013,0.0013911086612444826,24.383999960318587,-1.622145328365935e-09,-1.3382883298009266e-05,6.652500127459334e-11,1.5708556035286567
6.8739973229999976,6.731000000000023,0.04541678741357412,4541.199997433679,279.9999999350447,0.0013750236264257246,24.38399996123094,-1.4719470261703356e-09,-1.1233920697208037e-05,6.03652937826996e-11,1.570856263183957
7.009792857999997,6.866000000000014,0.04602038804775272,4551.999997416783,279.99999993443873,0.0013430901014245314,24.38399996301077,-1.1690317798292092e-09,-6.967597887042855e-06,4.79425884634904e-11,1.5708575727937442
7.077614853,6.933000000000021,0.04631469472472681,4557.359997408697,279.9999999341887,0.001327241611215451,24.383999963878573,-1.014327462940367e-09,-4.850237677646752e-06,4.1598087488675434e-11,1.570858222748232
7.212432506999988,7.067000000000007,0.04689327458860964,4568.079997393101,279.99999993379015,0.001303627840197938,24.38399996515246,-7.083121197431457e-10,-1.035178936710979e-06,2.9048245162167474e-11,1.5708591911613818
7.2847894660000065,7.130000000000024,0.04716228463881293,4573.119997385922,279.9999999336502,0.0012964413047316633,24.383999965535608,-5.656641626553392e-10,5.551855609875719e-07,2.3198181108643955e-11,1.5708594858847857
7.420389604999997,7.265000000000015,0.04773378521103489,4583.919997370791,279.9999999334478,0.0012810415860065568,24.383999966349513,-2.616639415496828e-10,3.963109484434535e-06,1.073098055092198e-11,1.570860117434931
7.488022408000006,7.332999999999998,0.048019072000998454,4589.359997363322,279.9999999333971,0.0012732847029568923,24.3839999667558,-1.0526976820452278e-10,5.679693386581397e-06,4.31717670408571e-12,1.5708604355490785
7.589622915999996,7.4339999999999975,0.04844078448635095,4597.43999735234,279.9999999333832,0.0012720215309276945,24.383999966821722,1.0837053170626162e-10,6.737001573917709e-06,-4.444318467897981e-12,1.5708604873523935
7.691020898000005,7.535000000000025,0.04886207840091948,4605.519997341357,279.99999993343994,0.0012707583589162603,24.383999966887586,3.222027492725875e-10,7.794309761242463e-06,-1.3213684277650856e-11,1.5708605391557076
7.762023210999985,7.596000000000004,0.04911631703102673,4610.3999973347245,279.9999999335116,0.001269995453005371,24.38399996692733,4.504788321015989e-10,8.432882032824144e-06,-1.847435051906119e-11,1.5708605704428595
7.897515484999985,7.731999999999999,0.04968291507089341,4621.279997319962,279.99999993375894,0.0012735443966168532,24.383999966742238,7.227706201635743e-10,9.14547104363704e-06,-2.96411734624502e-11,1.5708604248992968
7.998988018999995,7.832000000000022,0.050101411133816734,4629.27999730904,279.9999999340167,0.0012800140828986713,24.383999966403476,9.153085364024882e-10,9.146556270131237e-06,-3.753724942251441e-11,1.5708601595742355
8.06614932399998,7.899000000000001,0.05038298979403753,4634.639997301654,279.9999999342243,0.0012843487727022137,24.383999966175544,1.0441138369361335e-09,9.147283371873562e-06,-4.2819619031584115e-11,1.570859981806445
8.201226238000004,8.03400000000002,0.050953248470711636,4645.439997286599,279.9999999347275,0.0012938900437899576,24.383999965671123,1.297539409673217e-09,8.969588395899202e-06,-5.321272894248105e-11,1.5708595905142781
8.272776808000003,8.096000000000004,0.05121670960027197,4650.399997279605,279.9999999349958,0.0012994177912213018,24.38399996537718,1.4065542091258606e-09,8.633657540362354e-06,-5.76834802407095e-11,1.5708593638185988
8.341028781000006,8.164000000000016,0.05150693291610773,4655.839997271878,279.999999935316,0.0013054804819707328,24.38399996505335,1.5267513501397713e-09,8.265217247183064e-06,-6.261282492847175e-11,1.5708591151846274
8.510495497999983,8.332000000000022,0.052229763607896926,4669.279997252433,279.9999999362199,0.001320458893810017,24.383999964246833,1.820981450509421e-09,7.3549529933945445e-06,-7.467934924095446e-11,1.5708585009124623
8.577824123,8.400000000000006,0.05252471602601196,4674.71999724443,279.99999993663045,0.0013263344648281826,24.38399996392794,1.9251026783105926e-09,6.386136099746748e-06,-7.894941271255237e-11,1.5708582599523644
8.64499551099999,8.467000000000013,0.052816617635487874,4680.079997236469,279.99999993705853,0.0013321236303982186,24.38399996361236,2.0286312619498013e-09,5.431566513346753e-06,-8.319517155798111e-11,1.570858022535797
8.784967953999995,8.596000000000004,0.0533822418391428,4690.399997220978,279.9999999379461,0.0013432699342834308,24.383999963000875,2.2294048130382413e-09,3.593663876786239e-06,-9.142899483557897e-11,1.5708575654203154
8.852640495999992,8.664000000000016,0.053682283334528694,4695.839997212696,279.9999999384486,0.0013491455014368679,24.383999962676498,2.3377555665253785e-09,2.624846983098146e-06,-9.587251458592428e-11,1.5708573244602175
9.022079500999979,8.834000000000003,0.05443701411691217,4709.4399971917765,279.9999999398011,0.0013586559722033396,24.383999962148437,2.5708457793006526e-09,1.5342191926195834e-09,-1.0543166038914585e-10,1.570856934431068
9.090027249999991,8.902000000000015,0.05474039166086389,4714.879997183318,279.9999999403797,0.001362460160508152,24.383999961936176,2.6652358454840018e-09,-1.0477908863827042e-06,-1.0930264400420702e-10,1.5708567784194083
9.157859516000002,8.969000000000023,0.05504014087260647,4720.239997174933,279.99999994097,0.0013662084048861399,24.383999961726452,2.7579762951550597e-09,-2.0816847404296562e-06,-1.1310597602781264e-10,1.5708566247020368
9.327080779,9.134000000000015,0.05578100557168591,4733.439997154161,279.999999942508,0.001369948709712081,24.3839999615166,2.966915292686176e-09,-4.7127527111667275e-06,-1.2167466957897704e-10,1.5708564713100537
9.394835365000006,9.201999999999998,0.056086764770703595,4738.879997145549,279.9999999431754,0.0013709028981114856,24.38399996146297,3.0487792874270318e-09,-5.8061539967957536e-06,-1.2503195274908072e-10,1.5708564321783116
9.461773383999997,9.268,0.05638373614847031,4744.159997137192,279.99999994384007,0.0013718290221831396,24.383999961410883,3.12886302365912e-09,-6.867396421113402e-06,-1.2831622663385031e-10,1.5708563941975016
9.630859794999992,9.436000000000007,0.05714001196613188,4757.599997115916,279.9999999456075,0.001369036378792628,24.383999961567838,3.316183601784228e-09,-9.406629081877747e-06,-1.3599833797264566e-10,1.5708565087249413
9.698330800999997,9.503000000000014,0.05744090104489728,4762.959997107482,279.9999999463401,0.0013665936631468718,24.38399996170486,3.386992778309187e-09,-1.037746580582394e-05,-1.3890225779372375e-10,1.5708566089019285
9.834260161999993,9.629000000000019,0.058005286039196705,4773.039997091688,279.9999999477596,0.001361999899514273,24.38399996196189,3.5186932256701794e-09,-1.2203218450931536e-05,-1.4430335872829179e-10,1.5708567972944663
9.901734135999988,9.695999999999998,0.058304632232561306,4778.399997083328,279.9999999485374,0.001357873743852347,24.383999962192007,3.5821966451693786e-09,-1.308184684674372e-05,-1.4690766672018795e-10,1.5708569665099084
9.968725748999987,9.763000000000005,0.05860288761038945,4783.759997075019,279.99999994932773,0.0013520131476662223,24.383999962517663,3.6361959221663777e-09,-1.3865472722661288e-05,-1.491222038286347e-10,1.5708572068558808
10.10357854999998,9.89700000000002,0.05919553360280932,4794.479997058648,279.9999999509458,0.001340291955299302,24.38399996316474,3.751053294258559e-09,-1.5432724474453645e-05,-1.5383256194012184e-10,1.570857687547826
10.17153295899999,9.965000000000003,0.05949431315569469,4799.919997050443,279.9999999517859,0.0013343438875134362,24.383999963490957,3.809231279982367e-09,-1.6228046258920452e-05,-1.5621847015475775e-10,1.5708579314810525
10.312414238999992,10.096000000000004,0.06006572209875968,4810.399997034875,279.9999999534391,0.001318783054881146,24.383999964337523,3.901241290694351e-09,-1.7440839760647585e-05,-1.599918476189252e-10,1.5708585696383388
10.380264366000006,10.164000000000016,0.06035953849030886,4815.839997026948,279.99999995431256,0.0013098643223748438,24.38399996481825,3.9440335793948205e-09,-1.7996049550773415e-05,-1.6174678072673515e-10,1.5708589354000073
10.514778474999986,10.298000000000002,0.06093269162833768,4826.559997011629,279.9999999560619,0.0012922891731508854,24.383999965756022,4.0295220933379215e-09,-1.9090139431387438e-05,-1.6525270732096662e-10,1.5708596561656425
10.582588109,10.365000000000009,0.0612163683374802,4831.919997004118,279.9999999569506,0.0012823360338847446,24.383999966281483,4.06516189372802e-09,-1.9504724210245306e-05,-1.6671431429980611e-10,1.5708600643486708
10.717452718000004,10.5,0.061780782588706,4842.719996989364,279.99999995876016,0.0012598615254278069,24.383999967453043,4.121590076868076e-09,-2.006509646209803e-05,-1.6902846221179943e-10,1.5708609860394718
10.785022580000003,10.567000000000007,0.06205719870336719,4848.079996982254,279.9999999596676,0.001248707510139523,24.383999968026792,4.149579266618637e-09,-2.0343207135238826e-05,-1.701763128302686e-10,1.5708614434712016
10.857536429999982,10.630000000000024,0.06231484460257687,4853.1199969756635,279.9999999605269,0.001238219406271467,24.38399996856164,4.1750070676084285e-09,-2.0604714186151548e-05,-1.7121911960646093e-10,1.570861873593572
10.992549927999988,10.76400000000001,0.06285545744088694,4863.8399969620195,279.99999996236994,0.0012136977186111468,24.38399996979451,4.210900239113922e-09,-2.085540423692352e-05,-1.726911173265057e-10,1.5708628792401038
11.059777021000002,10.831000000000017,0.06312163968684889,4869.199996955408,279.99999996329615,0.0012010752395100923,24.383999970419524,4.22616663387357e-09,-2.093083573383685e-05,-1.7331719979653954e-10,1.570863396894267
11.194351945999983,10.965000000000003,0.0636456809179352,4879.919996942614,279.99999996515845,0.001175830281284891,24.383999971649935,4.257537831326879e-09,-2.1081698727663328e-05,-1.7460374824169707e-10,1.5708644322025944
11.262131450999988,11.033000000000015,0.06390736913874463,4885.35999693631,279.9999999661096,0.0011625883526684682,24.383999972284883,4.2659993796698715e-09,-2.1010903704707377e-05,-1.7495076149912732e-10,1.5708649752606314
11.403550247999988,11.163000000000011,0.06439918294403665,4895.759996924675,279.9999999679279,0.0011364488323157822,24.383999973517167,4.267354305192195e-09,-2.0593857231579714e-05,-1.7500632767192476e-10,1.5708660472553977
11.470768590000006,11.229000000000013,0.06464461419884447,4901.039996918976,279.99999996885106,0.001123177998824108,24.38399997413206,4.268742717170555e-09,-2.0382125945167112e-05,-1.7506326711721673e-10,1.5708665914988977
11.605622133999987,11.363,0.06513409393473946,4911.759996907805,279.9999999707253,0.0010962365740097748,24.383999975358154,4.266386551818106e-09,-1.989806307192964e-05,-1.749666404226018e-10,1.5708676963801682
11.672625654,11.430000000000007,0.06537438624640786,4917.119996902417,279.9999999716625,0.0010827692397966284,24.383999975959895,4.2576447267961016e-09,-1.95793996942261e-05,-1.7460813377680434e-10,1.570868248682261
11.740025075999995,11.498000000000019,0.06561524910887521,4922.559996897078,279.9999999726104,0.0010691009006161447,24.383999976563004,4.2493034895577295e-09,-1.9255980146732915e-05,-1.742660554976492e-10,1.5708688092276675
11.881782010999984,11.629000000000019,0.06607061808120186,4933.039996887181,279.99999997443365,0.0010427692472641705,24.383999977703276,4.2326814287764885e-09,-1.8632921900913692e-05,-1.7358437649376895e-10,1.5708698891019035
11.983206790999986,11.730000000000018,0.06641403053391014,4941.11999687989,279.99999997583376,0.0010231882837261183,24.38399997853279,4.213282967780037e-09,-1.8031929078523832e-05,-1.727888366682116e-10,1.5708706921270448
12.11949008099998,11.867000000000019,0.06686964573693774,4952.079996870434,279.99999997772017,0.0009972043950747364,24.38399997960927,4.179216076117359e-09,-1.7120314618901368e-05,-1.713917364592522e-10,1.570871757739277
12.187178193999983,11.933999999999997,0.06708819676526767,4957.439996865973,279.999999978637,0.000984496945898262,24.383999980125644,4.162646264572021e-09,-1.667448856933508e-05,-1.7071220018953644e-10,1.570872278878105
12.32212788199999,12.070000000000022,0.06752330150980504,4968.319996857272,279.99999998048855,0.0009597063224924681,24.383999981113945,4.121633395125326e-09,-1.5741090166570754e-05,-1.6903024249209544e-10,1.5708732955540115
12.39032550799999,12.134000000000015,0.06772426672691613,4973.439996853346,279.9999999813523,0.0009485124282489351,24.38399998155195,4.0995445515469e-09,-1.5288461241378516e-05,-1.6812436801591534e-10,1.5708737546211968
12.458001623000001,12.201000000000022,0.06793216049383488,4978.799996849334,279.99999998225195,0.0009367938201881173,24.383999982004973,4.076461950379011e-09,-1.4814615335303833e-05,-1.6717773902805172e-10,1.5708742352071576
12.59353072099998,12.337000000000018,0.06834625182662159,4989.679996841496,279.99999998406224,0.0009130067979049512,24.38399998290723,4.030105594955166e-09,-1.3852778869281139e-05,-1.6527664250863365e-10,1.5708752107249284
12.66161610399999,12.405000000000001,0.06854939771309027,4995.119996837704,279.9999999849587,0.0009027463884406712,24.38399998328925,3.997702315273959e-09,-1.3365841307134112e-05,-1.6394776779491457e-10,1.5708756315094374
12.797874626999999,12.54000000000002,0.06894591058455236,5005.9199968304265,279.9999999867179,0.0008823764579143285,24.38399998403488,3.933701009532822e-09,-1.2399127029378359e-05,-1.6132304232878176e-10,1.5708764668904471
12.899660468999997,12.632000000000005,0.06921090371128549,5013.279996825665,279.9999999879018,0.0008684947275020489,24.38399998453327,3.8911331062147305e-09,-1.1740329151228122e-05,-1.5957731140893363e-10,1.5708770361871345
12.96728101299999,12.699000000000012,0.06940128313474796,5018.63999682229,279.9999999887561,0.0008590965996131484,24.383999984866186,3.857085813200666e-09,-1.1281349767189796e-05,-1.5818101540185348e-10,1.5708774216091532
13.035026509000005,12.767000000000024,0.0695924752420878,5024.0799968189285,279.9999999896137,0.0008502589713022058,24.383999985175954,3.819348244826085e-09,-1.0836006868220554e-05,-1.5663337890000392e-10,1.5708777840446977
13.204198638999998,12.936000000000007,0.07005909763167711,5037.599996810892,279.99999999171115,0.000828294865681708,24.383999985931943,3.727094014676258e-09,-9.729198781122886e-06,-1.528499869576778e-10,1.5708786848036231
13.271769470999999,13.003000000000014,0.0702407146167373,5042.959996807825,279.999999992528,0.0008195872052838073,24.383999986226172,3.69100995046602e-09,-9.290405042454101e-06,-1.5137016193322237e-10,1.5708790419092327
13.408416760999984,13.130000000000024,0.07058013945415728,5053.119996802164,279.9999999940543,0.000806140543596207,24.383999986674432,3.6113797350890557e-09,-8.637993855455508e-06,-1.4810448708398266e-10,1.5708795933635455
13.47553282299998,13.195999999999998,0.07075434043910742,5058.399996799296,279.99999999483435,0.0007991901683146734,24.38399998690322,3.5704720042875887e-09,-8.302945726516364e-06,-1.464268406893755e-10,1.570879878401902
13.54313321799998,13.26400000000001,0.07093225788609026,5063.839996796391,279.99999999562857,0.0007920291755861013,24.383999987136875,3.527562847131624e-09,-7.957744623971976e-06,-1.4466711472186646e-10,1.570880172077785
13.711035573000004,13.432000000000016,0.07136517331144862,5077.279996789429,279.999999997549,0.0007763283986926601,24.38399998764181,3.415115725719006e-09,-7.213068122135321e-06,-1.4005560261856045e-10,1.570880815974576
13.778434363000002,13.499000000000024,0.07153552431579391,5082.639996786716,279.9999999982972,0.0007705935334592957,24.38399998782372,3.3677505637848245e-09,-6.944702019469982e-06,-1.3811313370826406e-10,1.570881051164259
13.918902121000002,13.629000000000019,0.07186244304428537,5093.039996781575,279.9999999997187,0.0007594661830599754,24.38399998817283,3.276731580361716e-09,-6.423991671058674e-06,-1.343803997597357e-10,1.5708815075024483
13.986701436000004,13.695999999999998,0.0720290881723851,5098.399996778988,280.0000000004371,0.0007542665854691463,24.383999988334224,3.2284475169279e-09,-6.211277928038541e-06,-1.3240024658231486e-10,1.5708817207406176
14.12174757699998,13.831000000000017,0.07236163279499727,5109.19999677385,280.00000000185025,0.0007448365798643195,24.383999988624105,3.1256321557432196e-09,-5.891512863050182e-06,-1.2818373733843676e-10,1.5708821074698502
14.189025480999987,13.899000000000001,0.07252755690652463,5114.639996771326,280.0000000025446,0.0007400866511721702,24.383999988768732,3.0747081639265334e-09,-5.730446015536879e-06,-1.2609531905117012e-10,1.5708823022667948
14.324468523999997,14.03400000000002,0.07285382112982672,5125.439996766391,280.00000000388985,0.0007310179285217954,24.383999989042287,2.9711812851291584e-09,-5.442832462864435e-06,-1.2184963035362194e-10,1.5708826741796869
14.396007804999982,14.096000000000004,0.07300235071413996,5130.399996764182,280.0000000044914,0.000727345918915192,24.383999989152098,2.922864626154978e-09,-5.3546066243462356e-06,-1.198681400686253e-10,1.570882824770632
14.464023260000005,14.164000000000016,0.07316441317670627,5135.83999676176,280.0000000051413,0.0007233185535477715,24.383999989271896,2.8681406747243605e-09,-5.257842801459171e-06,-1.1762388354248635e-10,1.5708829899348942
14.59916283299998,14.299000000000007,0.07348348907912712,5146.6399967570505,280.0000000063938,0.0007153230487384276,24.38399998950776,2.7609145085713414e-09,-5.065738153045758e-06,-1.132264850014521e-10,1.5708833178345338
14.667028959999982,14.367000000000019,0.07364287188176703,5152.079996754729,280.0000000070073,0.000711579570859132,24.383999989617298,2.7061856189532803e-09,-5.028809406095322e-06,-1.1098202616742294e-10,1.5708834713564694
14.801960788999992,14.501000000000005,0.0739546279279521,5162.7999967502055,280.00000000818176,0.0007047621389299251,24.383999989815287,2.5935703472581435e-09,-5.073948348578279e-06,-1.06363617717525e-10,1.5708837509427527
14.86882452499998,14.567000000000007,0.07410707496473218,5168.079996748002,280.0000000087418,0.0007014042993377699,24.383999989912105,2.537756152587541e-09,-5.0961809620549485e-06,-1.0407464976063075e-10,1.570883888649429
15.009471649999995,14.695999999999998,0.07440293301790196,5178.3999967437685,280.0000000097998,0.0006949225076746395,24.3839999900977,2.4288785579089294e-09,-5.141646095437051e-06,-9.960952541958497e-11,1.5708841544709502
15.077424524999998,14.76400000000001,0.07455780737974775,5183.839996741549,280.0000000103388,0.0006916303564208086,24.383999990191295,2.369313720518228e-09,-5.1686952312887835e-06,-9.716674173520856e-11,1.5708842894837147
15.213365718000006,14.900000000000006,0.07486535269510967,5194.719996737211,280.0000000113787,0.0006850460538580798,24.383999990377163,2.2522830379137247e-09,-5.222793502971769e-06,-9.2367255080749e-11,1.5708845595092464
15.281346323999998,14.968000000000018,0.0750180236486237,5200.159996735068,280.0000000118787,0.0006817539025829327,24.38399999046943,2.1934404580564806e-09,-5.249842638831178e-06,-8.99540915379917e-11,1.5708846945220123
15.42002651499999,15.096000000000004,0.07530339283845162,5210.39999673108,280.0000000127809,0.0006754612052403535,24.38399999064455,2.0811807129743393e-09,-5.392206746929662e-06,-8.535026348634319e-11,1.5708849525886621
15.488023922999986,15.164000000000016,0.07545392688008547,5215.8399967290125,280.0000000132436,0.000672099819423551,24.38399999073743,2.022403461931253e-09,-5.4854098185456085e-06,-8.293977911303323e-11,1.5708850904407707
15.55612376099998,15.232,0.07560371100624803,5221.279996726945,280.0000000136906,0.0006687384336191831,24.383999990829853,1.9626854073573767e-09,-5.578612890160419e-06,-8.04907118968497e-11,1.5708852282928787
15.69173941699998,15.367000000000019,0.07589885143979304,5232.079996722915,280.0000000145403,0.000662006335142858,24.38399999101355,1.844785993673237e-09,-5.756182952169279e-06,-7.565559816164358e-11,1.5708855043795842
15.758965036000006,15.433999999999997,0.07604420906738914,5237.439996720927,280.0000000149432,0.0006585556383905196,24.383999991106997,1.7851246528105134e-09,-5.833206837011896e-06,-7.320885682339431e-11,1.570885645894379
15.894817547000002,15.569000000000017,0.07633479272373293,5248.239996717024,280.00000001571743,0.0006516027419523692,24.383999991293777,1.666456730920229e-09,-5.988404216917525e-06,-6.834222617552589e-11,1.5708859310361294
15.965027445000004,15.630000000000024,0.07646506865889176,5253.119996715286,280.0000000160486,0.0006484610628435046,24.383999991377532,1.6126710129585322e-09,-6.0585304404641825e-06,-6.613644704385837e-11,1.5708860598779564
16.100030586999992,15.76400000000001,0.07674902704318111,5263.839996711512,280.0000000167389,0.0006411347184454455,24.383999991571272,1.4946063334495525e-09,-6.224021224930016e-06,-6.129455562756459e-11,1.5708863603349719
16.168025008,15.832000000000022,0.07689188129030829,5269.279996709647,280.0000000170686,0.0006373464135401177,24.38399999167059,1.4358916816553515e-09,-6.309898927947131e-06,-5.888663848321578e-11,1.5708865156952452
16.303191959999992,15.967000000000013,0.07717298147200694,5280.079996705996,280.0000000176854,0.0006298255141435219,24.383999991866006,1.31861952895862e-09,-6.480391426610721e-06,-5.4077249010715806e-11,1.5708868241310803
16.371122530999997,16.035000000000025,0.07731331261454866,5285.519996704182,280.0000000179771,0.0006259066737277269,24.383999991966924,1.2597517526660392e-09,-6.554331273435882e-06,-5.1663052063622426e-11,1.5708869848446607
16.475753798,16.130000000000024,0.07750785143398446,5293.119996701694,280.0000000183623,0.0006202494587201673,24.383999992111477,1.1788213399363293e-09,-6.640951701546547e-06,-4.8344055477725166e-11,1.5708872168498695
16.611677789999987,16.26600000000002,0.07778330830527472,5303.999996698204,280.00000001886957,0.0006121507087757155,24.383999992316134,1.0625403662693163e-09,-6.764955682818829e-06,-4.3575314756374924e-11,1.5708875489836436
16.679629283999986,16.333,0.0779176794663164,5309.359996696517,280.0000000191007,0.0006081608829633713,24.383999992415973,1.0050595073241428e-09,-6.826045879470163e-06,-4.12179959361644e-11,1.5708877126083707
16.813992216000003,16.467000000000013,0.07818370669102256,5320.079996693216,280.00000001952554,0.0005996730841617894,24.383999992626187,8.939623775890821e-10,-6.9012879604065655e-06,-3.6661847242485404e-11,1.5708880606972324
16.881103873,16.53400000000002,0.07831532098614902,5325.4399966916035,280.00000001971927,0.0005954291847556694,24.38399999273019,8.383676462812486e-10,-6.938909000874541e-06,-3.438187958197946e-11,1.5708882347416635
17.020581843000002,16.664000000000016,0.07856802014189455,5335.839996688524,280.0000000200616,0.0005871947527955742,24.38399999292987,7.301000222156599e-10,-7.011905049561932e-06,-2.9941770170721215e-11,1.570888572439812
17.088124766999982,16.731000000000023,0.07869688091795038,5341.199996686986,280.0000000202193,0.0005827608687187335,24.383999993036248,6.777613639521835e-10,-7.0160006929619895e-06,-2.7795335636940496e-11,1.5708887542756067
17.15603010799998,16.799000000000007,0.07882666933715238,5346.639996685426,280.0000000203683,0.0005782406346205959,24.38399999314386,6.236750558004387e-10,-7.012276249059428e-06,-2.55772291672294e-11,1.570888939652661
17.291590800999984,16.933999999999997,0.07908134553667812,5357.4399966824285,280.00000002062643,0.0005692666404950131,24.38399999335502,5.178504495473634e-10,-7.004882132511161e-06,-2.123730929096728e-11,1.5708893076806354
17.35878851999999,17.001000000000005,0.07920626275924228,5362.799996680991,280.0000000207389,0.0005648128804409225,24.383999993458588,4.66269051865068e-10,-7.0012124598430955e-06,-1.912193044939766e-11,1.5708894903315564
17.497897744,17.130000000000024,0.07944399408606052,5373.119996678249,280.0000000209213,0.0005561500848859434,24.38399999365771,3.677658178321779e-10,-6.97168986249298e-06,-1.5082263485556346e-11,1.5708898455971179
17.599527277999982,17.231000000000023,0.07962757167857198,5381.199996676158,280.00000002103417,0.0005493430267527809,24.38399999381201,2.921858622882252e-10,-6.942282515989244e-06,-1.1982691819296059e-11,1.5708901247579665
17.666945897999994,17.298000000000002,0.07974810519610419,5386.5599966748205,280.0000000210967,0.00054482745352722,24.38399999391332,2.4324838849697915e-10,-6.922774672259405e-06,-9.975741613211934e-12,1.5708903099438762
17.802614401,17.43300000000002,0.07998795892076019,5397.35999667215,280.00000002118793,0.0005357475200560051,24.383999994114514,1.4529090423157053e-10,-6.856210912792839e-06,-5.958456115608661e-12,1.570890682316478
17.870020574999984,17.5,0.08010550284148872,5402.719996670863,280.00000002121766,0.0005312502827019321,24.38399999421291,9.817805478694145e-11,-6.809846995804554e-06,-4.026334669063179e-12,1.5708908667504247
18.009902463000003,17.630000000000024,0.08033074177484771,5413.119996668432,280.00000002124506,0.0005225242998039042,24.383999994401464,7.26193020335663e-12,-6.719887156880249e-06,-2.978190615026907e-13,1.570891224607335
18.077841022,17.698000000000008,0.08044708622058043,5418.559996667176,280.00000002124506,0.0005179599396686272,24.38399999449884,-4.1361929393525285e-11,-6.672831241128299e-06,1.696269942847025e-12,1.5708914117940271
18.145940462,17.76600000000002,0.08056241517220707,5423.999996665971,280.000000021234,0.0005134815267232527,24.38399999459356,-8.487485907363853e-11,-6.6060625618364274e-06,3.4807568818783126e-12,1.5708915954559755
18.31547137199999,17.935000000000002,0.08084471078854347,5437.519996663025,280.00000002116315,0.0005023513533784994,24.3839999948254,-1.950912597121457e-10,-6.440122755955528e-06,8.000786433466422e-12,1.570892051909935
18.382754562000002,18.001000000000005,0.08095327524666823,5442.7999966619045,280.00000002111847,0.0004980046584669382,24.383999994914564,-2.38334238974999e-10,-6.375317861350528e-06,9.774202584537976e-12,1.570892230170061
18.450109295000004,18.068000000000012,0.08106252439794437,5448.159996660793,280.0000000210638,0.0004936755450714587,24.38399999500259,-2.801362004013241e-10,-6.303584314721856e-06,1.1488522146428588e-11,1.570892407709173
18.624030435999998,18.232,0.08132596706663263,5461.279996658147,280.00000002089183,0.0004832771432287659,24.3839999952109,-3.779533552092716e-10,-6.113869600327211e-06,1.5500052454531303e-11,1.570892834152818
18.69204658299998,18.30000000000001,0.08143356576596489,5466.719996657094,280.00000002080463,0.000478965610744841,24.383999995295973,-4.176069834320636e-10,-6.0352074016666855e-06,1.7126267514683377e-11,1.5708930109709156
18.794187343999994,18.40100000000001,0.08159160176212506,5474.79999665553,280.00000002066025,0.0004726722305235572,24.383999995418776,-4.768582678242961e-10,-5.91522565049512e-06,1.9556192535883125e-11,1.570893269065594
18.861473628,18.468000000000018,0.08169530066593596,5480.159996654542,280.00000002055316,0.0004686418789546284,24.383999995496573,-5.119654332651545e-10,-5.831522255781959e-06,2.099595490516633e-11,1.5708934343523215
19.000380799,18.596000000000004,0.08189093211599709,5490.399996652655,280.00000002032846,0.00046094210286324287,24.383999995643336,-5.814434372047858e-10,-5.6716112927903765e-06,2.3845282488446873e-11,1.570893750123979
19.067330613999985,18.662000000000006,0.08199054649449512,5495.679996651732,280.00000002020073,0.0004569719058174545,24.383999995718064,-6.158543506318169e-10,-5.589157202494874e-06,2.5256491214871327e-11,1.5708939129437396
19.235681557999982,18.832000000000022,0.08224327106295655,5509.279996649378,280.0000000198377,0.0004472687418509376,24.383999995897987,-6.98662920265328e-10,-5.3776713469817165e-06,2.8652512255630244e-11,1.5708943108753528
19.30354420499998,18.900000000000006,0.08234285983089135,5514.719996648477,280.0000000196808,0.00044343978615798486,24.38399999596792,-7.302903396906409e-10,-5.2931665940116655e-06,2.994956850364044e-11,1.5708944679027352
19.371787323999996,18.968000000000018,0.0824415943698639,5520.159996647576,280.00000001951753,0.00043961083045259764,24.383999996037247,-7.626169029159907e-10,-5.208661841033344e-06,3.1275296988015846e-11,1.570894624930118
19.506712680999982,19.099000000000018,0.08262939430302745,5530.6399966458885,280.0000000191787,0.00043251495783664745,24.38399999616415,-8.207047842051882e-10,-5.0521775259856425e-06,3.3657510303481336e-11,1.570894915935415
19.573908705999997,19.166000000000025,0.08272429331436214,5535.9999966450505,280.000000018996,0.0004290359560424431,24.38399999622561,-8.476922869289086e-10,-4.975522952654008e-06,3.4764281251682704e-11,1.570895058611014
19.64129243299999,19.233000000000004,0.08281842758448528,5541.359996644213,280.00000001880704,0.0004255569542500151,24.38399999628657,-8.755917700810059e-10,-4.898868379325568e-06,3.590845297185734e-11,1.5708952012866122
19.777889829999992,19.369,0.08300716017411176,5552.239996642589,280.00000001840596,0.0004184951002748018,24.383999996408804,-9.301168207632241e-10,-4.743271036434154e-06,3.8144552769766964e-11,1.5708954908967836
19.879499621999997,19.471000000000004,0.0831466803895286,5560.399996641389,280.00000001809207,0.0004135581892667996,24.383999996493028,-9.662210846203063e-10,-4.636905614966106e-06,3.96252066451839e-11,1.5708956933619658
20.01470524999999,19.596000000000004,0.08331538644859761,5570.399996639962,280.00000001768865,0.0004075080532444044,24.383999996594888,-1.0102098696615742e-09,-4.506555833766254e-06,4.142920865750192e-11,1.5708959414810615
20.082839786999983,19.664000000000016,0.08340613231550045,5575.8399966392135,280.00000001746196,0.00040421677924084594,24.38399999664967,-1.033582830805988e-09,-4.4356455527886965e-06,4.238774543740244e-11,1.5708960764578497
20.184060426000002,19.76400000000001,0.08353825591637438,5583.839996638113,280.00000001711896,0.00039962213829531365,24.3839999967254,-1.0649229663199068e-09,-4.344806722437336e-06,4.3673020350736084e-11,1.5708962648863847
20.251228682999994,19.831000000000017,0.08362594945737703,5589.199996637375,280.0000000168831,0.00039662473283370034,24.383999996774342,-1.0852737931288568e-09,-4.288380234349806e-06,4.4507617907341856e-11,1.5708963878114777
20.386322613999994,19.966000000000008,0.08380064656224855,5599.999996635989,280.00000001639694,0.00039058518447005483,24.383999996871836,-1.122533898372218e-09,-4.174685071755786e-06,4.603567340540117e-11,1.5708966354963676
20.454198023000004,20.03400000000002,0.08388763031132723,5605.439996635291,280.0000000161449,0.0003875430419383317,24.383999996920373,-1.1419275568493533e-09,-4.117416397245908e-06,4.6831017285556286e-11,1.5708967602561645
20.62788707499999,20.198000000000008,0.08409470746757407,5618.559996633633,280.00000001552235,0.00038067035092292906,24.38399999702863,-1.1820056250991473e-09,-3.99639063573557e-06,4.84746388435518e-11,1.5708970421086503
20.69579352599999,20.26600000000002,0.08417948928779395,5623.999996632986,280.0000000152576,0.0003778206985208808,24.383999997072955,-1.1970769636328493e-09,-3.946209222415052e-06,4.9092721953066486e-11,1.5708971589743164
20.764323913999988,20.334000000000003,0.08426363535879024,5629.439996632339,280.0000000149897,0.0003749710461454779,24.38399999711694,-1.2127445875303016e-09,-3.896027809103122e-06,4.9735259022353016e-11,1.5708972758399815
20.900027166,20.469000000000023,0.08442883697721781,5640.239996631054,280.00000001444835,0.0003696116784272118,24.383999997198767,-1.239331538487366e-09,-3.820434771841563e-06,5.082560347881949e-11,1.5708974956303392
20.96796689499999,20.537000000000006,0.08451116264482945,5645.679996630432,280.00000001417095,0.0003669607126727425,24.38399999723881,-1.2511534293704396e-09,-3.786274576745137e-06,5.131042511883942e-11,1.570897604347767
21.10483019199998,20.66300000000001,0.0846621265128453,5655.7599966293255,280.0000000136509,0.00036204862917190155,24.383999997312237,-1.2712273302571757e-09,-3.722977744746925e-06,5.213366580253104e-11,1.5708978057947607
21.206479395000002,20.76400000000001,0.08478169051803539,5663.83999662844,280.00000001322866,0.00035825807294504125,24.38399999736822,-1.2845504522539412e-09,-3.6779578394014803e-06,5.268005398001786e-11,1.570897961247373
21.240252554999984,20.798000000000002,0.08482166054409054,5666.559996628142,280.000000013086,0.0003570071400570995,24.383999997386567,-1.2888121714202463e-09,-3.6637794294837217e-06,5.285482920489589e-11,1.5708980125487546
21.409089551999983,20.966000000000008,0.08501710744111877,5679.999996626704,280.00000001237004,0.00035082605995778943,24.383999997476284,-1.3092713039732557e-09,-3.5937214039796413e-06,5.369386843435278e-11,1.570898266037932
21.476562433999987,21.033000000000015,0.08509410279118453,5685.359996626166,280.00000001208264,0.00034836098651364517,24.383999997511623,-1.3158036790039387e-09,-3.5657815961795934e-06,5.3961764663624514e-11,1.570898367131831
21.615888541999993,21.162000000000006,0.08524084413960999,5695.679996625131,280.0000000115233,0.0003438131524256584,24.383999997576176,-1.3226788675560804e-09,-3.529443251611907e-06,5.4243719576871927e-11,1.570898553640775
21.683713695999984,21.230000000000018,0.08531742788004952,5701.119996624585,280.00000001122845,0.0003414158444912709,24.38399999760986,-1.3272196283786266e-09,-3.510288155217309e-06,5.442993844175461e-11,1.5708986519555688
21.75210403599999,21.298000000000002,0.08539347678801174,5706.55999662404,280.000000010932,0.00033901853657819964,24.383999997643308,-1.3320389943396713e-09,-3.491133058859359e-06,5.462758304248302e-11,1.570898750270362
21.887252888000006,21.43300000000002,0.08554287372851324,5717.359996623006,280.0000000103404,0.00033434071887515594,24.383999997707896,-1.3374707771106758e-09,-3.4575415844205925e-06,5.485034342010639e-11,1.5708989421100048
21.95524829599998,21.501000000000005,0.08561734862091505,5722.799996622511,280.00000001004236,0.0003320261714219033,24.383999997739522,-1.3373189273024638e-09,-3.4428897379926147e-06,5.4844115986020815e-11,1.57089903703075
22.023021658000005,21.569000000000017,0.08569130714446262,5728.2399966220155,280.0000000097443,0.0003297116239810851,24.38399999777093,-1.3377505667442698e-09,-3.428237891577063e-06,5.486181773413868e-11,1.5708991319514949
22.195468398999992,21.732,0.08586647706885504,5741.279996620829,280.00000000903,0.00032419035770165716,24.38399999784496,-1.3386905350940304e-09,-3.3944511631809286e-06,5.4900366529675906e-11,1.5708993583813824
22.263128628999993,21.799000000000007,0.08593763019146605,5746.639996620341,280.0000000087363,0.0003219627380875536,24.383999997874472,-1.3374485402606157e-09,-3.382644750351211e-06,5.4849431701582295e-11,1.5708994497371738
22.364818791000005,21.900000000000006,0.08604396633438123,5754.719996619631,280.0000000082937,0.0003186046845794024,24.38399999791858,-1.335687412926423e-09,-3.364847023509189e-06,5.477720699173878e-11,1.5708995874526228
22.50052935399998,22.035000000000025,0.0861843617395367,5765.519996618749,280.00000000770206,0.00031411619735286455,24.383999997976815,-1.3289148993525645e-09,-3.3410579827369067e-06,5.44994630786482e-11,1.5708997715277258
22.570548107999997,22.096000000000004,0.08624714009909373,5770.39999661835,280.000000007436,0.0003121323233366886,24.383999998002288,-1.3236018260648888e-09,-3.3318645111139284e-06,5.428157129478675e-11,1.5708998528873885
22.672381024000003,22.197000000000003,0.08635022660823807,5778.479996617691,280.000000006998,0.0003088475482838411,24.383999998044118,-1.3155458021393422e-09,-3.3166425335125627e-06,5.395118973616364e-11,1.5708999875976517
22.739806915000003,22.26400000000001,0.08641800962115181,5783.839996617253,280.00000000670906,0.00030666853907610435,24.383999998071623,-1.3106805020117523e-09,-3.306544785976377e-06,5.3751661351312955e-11,1.570900076959906
22.875023857000002,22.400000000000006,0.0865541295353658,5794.7199966163635,280.0000000061257,0.0003022618836666474,24.383999998126633,-1.300621045433068e-09,-3.2853421376361226e-06,5.333911820201122e-11,1.5709002576790445
22.976210097999996,22.501000000000005,0.08665395024925553,5802.7999966157795,280.00000000569565,0.00029902584996431114,24.383999998166537,-1.2873558907528842e-09,-3.2680237327965654e-06,5.2795107593914815e-11,1.5709003903904004
23.115118448999993,22.630000000000024,0.08677987688986104,5813.1199966150325,280.00000000515274,0.0002948926980031835,24.383999998216872,-1.2707240580604424e-09,-3.2459041860385432e-06,5.2113027841594814e-11,1.5709005598930235
23.183991402999993,22.698000000000008,0.08684555798104313,5818.559996614638,280.00000000487057,0.00029271398225743967,24.383999998243127,-1.2626094237688e-09,-3.2342442698657814e-06,5.1780242848159695e-11,1.5709006492432456
23.319395850999996,22.833,0.08697452379775396,5829.359996613857,280.00000000431453,0.00028846299407908377,24.38399999829379,-1.2418607623490488e-09,-3.207802993954554e-06,5.0929329897295665e-11,1.5709008235783906
23.386772723999997,22.90100000000001,0.08703877217224289,5834.799996613464,280.0000000040387,0.000286321755555705,24.383999998319027,-1.2321879028702417e-09,-3.194484425317499e-06,5.053264110581889e-11,1.5709009113916503
23.45502404199999,22.969000000000023,0.08710254284259632,5840.23999661307,280.0000000037645,0.0002841805169843646,24.383999998344073,-1.222488896622765e-09,-3.181165856644558e-06,5.013488002187638e-11,1.5709009992049119
23.59246386999999,23.096000000000004,0.08722035280425956,5850.399996612405,280.0000000032581,0.00028021510689936534,24.383999998389964,-1.2006642180279055e-09,-3.1540281332009968e-06,4.9239839226475945e-11,1.57090116182836
23.69402402999998,23.198000000000008,0.0873137918474206,5858.559996611891,280.000000002857,0.0002770604842278347,24.383999998426013,-1.1804123793158938e-09,-3.1302026058375154e-06,4.840930122180659e-11,1.5709012912010087
23.76202965599998,23.26600000000002,0.08737549805351937,5863.999996611547,280.0000000025939,0.0002749574024302349,24.383999998449816,-1.1672631160760163e-09,-3.114318920926849e-06,4.7870043378257665e-11,1.570901377449442
23.898026752999982,23.402000000000015,0.08749750263160137,5874.879996610862,280.0000000020771,0.0002707758099941052,24.383999998496616,-1.1409191914778627e-09,-3.081129613074457e-06,4.6789666044455376e-11,1.570901548938637
23.965886479999995,23.468000000000018,0.08755603852100276,5880.159996610529,280.0000000018309,0.00026878228032565154,24.38399999851868,-1.1272335021852556e-09,-3.0629528627133238e-06,4.622840910016388e-11,1.570901630694283
24.066412082,23.569000000000017,0.08764478379835582,5888.239996610019,280.0000000014605,0.00026573157578155737,24.383999998552113,-1.1069844824482384e-09,-3.035136926510787e-06,4.5397986703209846e-11,1.5709017558051976
24.205108257999996,23.698000000000008,0.08775665433535486,5898.559996609394,280.00000000099453,0.0002618351315033752,24.38399999859427,-1.0813343214660155e-09,-2.9996096417168293e-06,4.4346060909856056e-11,1.5709019156003245
24.27202375599998,23.76400000000001,0.08781325640276111,5903.839996609111,280.0000000007607,0.0002598888949359125,24.38399999861509,-1.0653690388678055e-09,-2.9799386480202768e-06,4.3691316711536e-11,1.5709019954164567
24.407470569999987,23.899,0.0879277256803415,5914.639996608531,280.0000000002949,0.0002559079565836132,24.383999998657195,-1.0320626791777246e-09,-2.9397025246130793e-06,4.232540628878534e-11,1.5709021586767238
24.47485041599998,23.967000000000013,0.08798471733691084,5920.079996608239,280.00000000006503,0.0002539027432140418,24.38399999867816,-1.015674183324744e-09,-2.9194354402563395e-06,4.165330590404957e-11,1.5709022409115239
24.613044240999983,24.096000000000004,0.0880915976013412,5930.399996607684,279.9999999996398,0.0002501528541290858,24.383999998716924,-9.8425831507306e-10,-2.8791540944146133e-06,4.036492557099613e-11,1.57090239469635
24.680120821999992,24.162000000000006,0.08814567269597988,5935.6799966074,279.9999999994275,0.0002482651721023947,24.38399999873622,-9.680962347014973e-10,-2.8574993196983155e-06,3.970211059796211e-11,1.5709024721111313
24.815312398000003,24.297000000000025,0.0882550125084768,5946.47999660682,279.9999999990042,0.00024440400428136594,24.383999998775224,-9.35623647642313e-10,-2.8132054623147356e-06,3.837039360568445e-11,1.570902630459549
24.88320877199999,24.36500000000001,0.08830944050011369,5951.919996606529,279.99999999879657,0.0002424591198209384,24.383999998794636,-9.196146350305499e-10,-2.790894482262785e-06,3.7713856081066926e-11,1.570902710220235
24.951021674999993,24.432000000000016,0.08836264489841673,5957.279996606253,279.9999999985951,0.00024060088961478523,24.383999998813046,-9.031220472661247e-10,-2.7677872662832014e-06,3.703748683048325e-11,1.5709027864271827
25.052289247999994,24.533000000000015,0.08844207731777158,5965.359996605894,279.9999999982984,0.00023779967698048945,24.383999998840522,-8.769947351780681e-10,-2.7329540004585056e-06,3.596599273248068e-11,1.5709029013063096
25.193499556999996,24.664000000000016,0.08854371577621539,5975.8399966054285,279.9999999979259,0.00023416642111898791,24.383999998875687,-8.407295520047461e-10,-2.687774220148476e-06,3.447873948657586e-11,1.5709030503079444
25.261246062999987,24.732,0.08859586234200358,5981.279996605187,279.9999999977388,0.00023232055648208773,24.383999998893348,-8.21545695665331e-10,-2.663944812689912e-06,3.3692000032643784e-11,1.57090312600778
25.429308421,24.899,0.08872220259618738,5994.639996604595,279.99999999729823,0.00022788581103832785,24.383999998935195,-7.746652650512046e-10,-2.6044959680699425e-06,3.176941019682002e-11,1.5709033078789019
25.496962153999988,24.967000000000013,0.0887729521681799,6000.079996604353,279.9999999971254,0.000226080046435592,24.383999998952007,-7.559074105165926e-10,-2.5802892529118277e-06,3.100014122644725e-11,1.5709033819342089
25.564876631999994,25.035000000000025,0.08882329887930358,6005.519996604112,279.9999999969574,0.0002242742819741681,24.383999998968687,-7.375659027289387e-10,-2.556082537750085e-06,3.024794687582128e-11,1.5709034559895159
25.668747026999995,25.12900000000002,0.08889223280529508,6013.039996603778,279.9999999967323,0.0002218824851957566,24.383999998990568,-7.116777166309185e-10,-2.5227859916946665e-06,2.918625945296092e-11,1.5709035540782943
25.80382682999999,25.26400000000001,0.08898995519776956,6023.8399966032985,279.99999999642387,0.00021844745791269583,24.383999999021583,-6.75880362350132e-10,-2.4749664840358956e-06,2.7718192103434256e-11,1.5709036949504762
25.871804776999994,25.331000000000017,0.08903788885752993,6029.199996603061,279.99999999627545,0.00021674266666408238,24.3839999990368,-6.58278878666232e-10,-2.451233839550194e-06,2.699634647765204e-11,1.5709037648648154
25.939451470999984,25.399,0.08908615596614967,6034.639996602869,279.9999999961296,0.00021505098024459553,24.38399999905178,-6.401542630605605e-10,-2.4276747347083255e-06,2.6253046963789026e-11,1.570903834241725
26.108624545999987,25.567000000000007,0.08920380919369109,6048.079996602399,279.99999999578745,0.00021096675859393795,24.38399999908746,-5.939317443663129e-10,-2.3707737604957264e-06,2.4357438423352267e-11,1.5709040017376916
26.181875797999993,25.630000000000024,0.08924734398492339,6053.119996602221,279.99999999566563,0.0002094351754811586,24.38399999910066,-5.761920125298536e-10,-2.349435895163415e-06,2.3629923171949692e-11,1.5709040645486791
26.250028060999995,25.698000000000008,0.08929398490888404,6058.559996602031,279.9999999955373,0.0002077820383213127,24.383999999114803,-5.566457970040065e-10,-2.3264045484632583e-06,2.28283231280455e-11,1.5709041323446646
26.384792067999996,25.831000000000017,0.08938416543731657,6069.199996601658,279.9999999953,0.00020471467939978583,24.383999999140745,-5.185118909429341e-10,-2.284647163126e-06,2.1264432623826904e-11,1.5709042581385837
26.452460952999985,25.899,0.08942975755331392,6074.639996601467,279.9999999951843,0.00020314640574307008,24.38399999915386,-4.989265474418491e-10,-2.2632975225651375e-06,2.046122791793227e-11,1.5709043224542685
26.62180211399999,26.068000000000012,0.08710137662382708,6088.159993059036,280.00004777439227,-0.008120332999050723,24.383998631158327,-0.0009032523734160788,0.03390280075839124,3.704265416194686e-05,1.5712456724972723
26.695654918000002,26.12900000000002,0.08036422877790732,6093.039983957042,280.00010126259,-0.023078084145803323,24.383989010046143,-0.0018330261477231664,0.09473239671351548,7.517314037208983e-05,1.5718590974639022
26.763788828999992,26.197000000000003,0.06944812639449482,6098.479968004254,280.00031855309874,-0.039681856334996705,24.383967645893293,-0.0017872635428921124,0.1625423648262441,7.329639312230013e-05,1.5725400270204115
26.90012904599999,26.332000000000022,0.037051757584921706,6109.279909062846,280.00216962546233,-0.0718471419776836,24.383894100668165,0.0015734020915663875,0.29716450295250235,-6.452618058617375e-05,1.5738591449890988
