Real_time_s,Simulation_time_s,x_ft,y_ft,alt_ft,vx_fps,vy_fps,vz_fps,roll_rad,pitch_rad,yaw_rad,adsb_x_ft,adsb_y_ft,adsb_alt_ft
0.0,0.0,200.0,9800.0,300.0,3.496765431890257e-14,-80.0,6.699313241294241e-25,-1.2903995612017372e-14,-8.374547369826261e-27,-1.5706799999999994,199.24574431997107,4273.518369989361,294.15149017374216
0.1699413019999838,0.16800000000000637,200.00000491528132,9781.280000000132,300.0000000003191,-9.21950439681639e-05,-79.99999999994735,1.8588879748663745e-09,6.898947634053313e-05,-2.320610954645915e-11,-1.5706811528727558,199.24574431997107,4273.518369989361,294.15149017374216
0.3819885829999521,0.3690000000000282,199.999971694189,9768.080000000225,300.0000000010101,-0.0004675069334732772,-79.99999999863628,3.6856187136137025e-09,0.00010944856768959793,-4.6042523363810234e-11,-1.570685844089852,199.24574431997107,4273.518369989361,294.15149017374216
0.625965701000041,0.6009999999999991,199.99978383753407,9749.20000000117,300.0000000023814,-0.0013385622694563333,-79.99999998880897,4.819611617795131e-09,0.0001463899016527889,-6.02227184678776e-11,-1.5706967321815677,196.39729814317002,9798.915705347585,276.3188941696718
0.8366740049999635,0.8020000000000209,199.99944088337497,9733.120000004803,300.0000000034881,-0.002283045772264444,-79.99999996743688,3.855858784218455e-09,0.00016300353913868758,-4.8187205622745276e-11,-1.5707085381398196,196.3971269784718,9792.115705352371,276.31889416898554
1.0475576379999438,1.0020000000000664,199.9989044621339,9717.200000013803,300.0000000041384,-0.0033124535527933956,-79.99999993144375,1.3919800597446552e-09,0.00016814994533315486,-1.7399796244121392e-11,-1.5707214056691514,196.39666230857688,9782.91570536941,276.31889416722936
1.2604731010000023,1.2010000000000218,199.99815954202128,9701.28000003114,300.000000004103,-0.004366510074834256,-79.99999988086316,-2.030552487947228e-09,0.00016430478042825676,2.5373063323791065e-11,-1.5707345813221432,196.4225445253296,9774.37230702492,276.4150608767665
1.4297456980000334,1.3690000000000282,199.99738332001215,9688.08000005389,300.00000000347234,-0.005219616278286264,-79.99999982975638,-5.13386331506218e-09,0.00015579017272935398,6.415958625385736e-11,-1.5707452451155532,196.4227014358754,9766.303815818226,276.418450080014
1.6412211849999494,1.5670000000000073,199.99624574077325,9671.920000093858,300.0000000019655,-0.006200618016249719,-79.99999975974177,-8.797346810341e-09,0.00014051952161152264,1.0995025438611909e-10,-1.5707575076072846,196.42270031621436,9759.445598303439,276.42133090228896
1.8158558909999556,1.7340000000000373,199.99539126176094,9661.28000012807,300.00000000057133,-0.006792952251042945,-79.99999971164164,-1.0925714490820224e-08,0.00012835887650439965,1.3655457065673074e-10,-1.570764911771886,196.6081037311603,9749.530129286772,276.4473775715101
1.989653804999989,1.900000000000091,199.9939645647067,9645.280000191726,299.99999999798655,-0.0075867702084762316,-79.99999964030235,-1.3526561565901106e-08,0.00010810636699558479,1.6906653854675824e-10,-1.5707748344845465,196.62070216621393,9742.446943991406,276.45186339147
2.1599279339999384,2.07000000000005,199.99235668189013,9628.960000270923,299.99999999491564,-0.0082642602496019,-79.99999957318667,-1.524398630271e-08,8.625634046549241e-05,1.9053717992620215e-10,-1.5707833031066611,196.6872067922626,9728.723127373389,276.30134778125364
2.3706200269999727,2.2660000000000764,199.99128108918805,9618.720000327396,299.99999999285234,-0.008616236596681192,-79.99999953605318,-1.5894871370711033e-08,7.247085831469182e-05,1.9867537291300445e-10,-1.570787702812516,196.704454800772,9721.124498552384,276.29150341567043
2.5492297869999447,2.4329999999999927,199.98951828267525,9602.720000424477,299.9999999895388,-0.009056382532544482,-79.99999948743839,-1.6226507175290737e-08,5.148638232459532e-05,2.02824217388983e-10,-1.5707932046435653,196.7236776352276,9712.631913405728,276.2805008894908
2.75286607999999,2.636000000000081,199.98735038626492,9583.920000549442,299.99999998568,-0.009406457646122123,-79.99999944704282,-1.5876053547905293e-08,2.8538263559207933e-05,1.9844709715594272e-10,4.712387726583911,197.17910489118378,9691.39658070609,275.7659128707652
2.992939629000034,2.8700000000000045,199.98578692328607,9570.72000064201,299.9999999830746,-0.009551473265736712,-79.9999994298605,-1.523784104058328e-08,1.3955792749630902e-05,1.9047143408264548e-10,4.712385913876618,197.233822713911,9682.864052843397,275.7124705811737
3.135993505999977,3.0,199.98417578576758,9557.280000738563,299.99999998056114,-0.009621256354556264,-79.99999942149846,-1.4393298255051058e-08,6.374951368589063e-07,1.7991616417309578e-10,4.71238504157528,197.2853219860617,9674.833438384378,275.66217195582766
3.3055300490000263,3.1680000000000064,199.98256731669073,9543.92000083533,299.99999997822454,-0.009621362600046174,-79.99999942148568,-1.3418377511082593e-08,-1.0965422313318006e-05,1.677306722401334e-10,4.7123850402337375,197.32436213966645,9649.356714740452,276.07610352774276
3.4853313710000293,3.336999999999989,199.98066644528322,9528.080000949336,299.99999997567454,-0.009543495144712895,-79.99999943081275,-1.2244529536775706e-08,-2.2542291137036078e-05,1.530582195579148e-10,4.712386013560987,197.39028063127634,9637.16129041344,276.0565855871778
3.7289069900000413,3.5650000000000546,199.97876824746135,9512.080001061928,299.9999999733409,-0.00939337292073953,-79.99999944858078,-1.1075247850261925e-08,-3.1878587692460135e-05,1.3844235060441975e-10,4.7123878900727805,197.44367354239114,9627.288804049942,276.04078534974565
3.8992557870000155,3.7240000000000464,199.9772837609825,9499.3600011486,299.99999997164775,-0.009232277963254095,-79.99999946733418,-1.021254726875911e-08,-3.7668183505671866e-05,1.276584495834524e-10,-1.570795403432089,198.07331955807965,9595.064451759072,275.475005187997
4.071010212000033,3.8920000000000528,199.97584500258617,9486.800001230993,299.9999999701064,-0.00904493466080137,-79.99999948873528,-9.417318141133362e-09,-4.203910936020048e-05,1.177178643463079e-10,-1.5707930616504937,198.16261488469152,9584.245283447477,275.4230020770105
4.240503839999974,4.051000000000045,199.97432179016113,9473.20000131631,299.99999996857036,-0.0088184968559599,-79.99999951401674,-8.613453375183566e-09,-4.5467464075450225e-05,1.0766914406080312e-10,-1.570790231189438,198.26311448146953,9572.073719092323,275.36449857727706
4.444218728999999,4.2409999999999854,199.97266694969346,9458.000001406373,299.99999996700666,-0.008544268575693284,-79.99999954377586,-7.782154391092325e-09,-4.7769912088537844e-05,9.727747872224609e-11,-1.5707868033459103,198.6602440573725,9534.87479227433,276.4463153338901
4.648632723999981,4.434000000000083,199.97133136641014,9445.360001476942,299.99999996581903,-0.008306112431616776,-79.9999995688578,-7.152161696803787e-09,-4.8651017222521836e-05,8.940218803506488e-11,-1.5707838264021525,198.78106578395435,9521.003592467432,276.4664245803495
4.8174149259999695,4.600999999999999,199.9696950963987,9429.360001560615,299.99999996445115,-0.00799918504698657,-79.99999960013687,-6.399267025152725e-09,-4.861893260123892e-05,7.999063455881028e-11,-1.5707799898174342,198.396918314144,9484.383838552925,277.7454524565259
5.019800490999955,4.790000000000077,199.9684617166798,9416.880001621557,299.9999999634831,-0.007760240356174643,-79.99999962367265,-5.842634137404733e-09,-4.784878423975025e-05,7.303250304928105e-11,-1.5707770030134585,198.48374745163554,9469.013078232301,277.84994065556265
5.222895971999947,4.9809999999999945,199.96700952369383,9401.680001690936,299.99999996242,-0.007474676705792036,-79.99999965086418,-5.183479238633709e-09,-4.6234405758770284e-05,6.479286358945769e-11,-1.5707734334725174,198.57062307878357,9453.642317907388,277.9544288547057
5.391649598999948,5.146000000000072,199.96561089912353,9386.480001755353,299.9999999614768,-0.00719912859430606,-79.99999967613564,-4.547827833473592e-09,-4.405734628810005e-05,5.6847092988189475e-11,-1.5707699891246856,200.15295765236843,9419.557426596979,276.20621731888923
5.595586256000047,5.336999999999989,199.964416937846,9373.040001808387,299.99999996074206,-0.0069665877703584764,-79.99999969672427,-3.964738869985998e-09,-4.1799918570131184e-05,4.955844538050017e-11,-1.5707670823661513,200.32182012742956,9404.024590758236,276.1964180545243
5.804418835999968,5.535000000000082,199.96283076406968,9354.4800018762,299.9999999598878,-0.006665305767017094,-79.99999972239387,-3.1755070081234312e-09,-3.8383342245211475e-05,3.969305610311189e-11,-1.5707633163425445,200.53046196625692,9384.83697001238,276.1843130810322
5.981043772000021,5.701000000000022,199.96175060343995,9341.360001920631,299.9999999593968,-0.006467521559753881,-79.99999973862843,-2.5938786531999636e-09,-3.5874360737593005e-05,3.242274577956055e-11,-1.57076084404014,200.27119426068487,9355.686246961955,276.9188864437763
6.183309799999961,5.897000000000048,199.96055124174782,9326.320001968495,299.99999995895166,-0.006256986955952466,-79.99999975537227,-1.924017109475443e-09,-3.3009095718374174e-05,2.4049547875620685e-11,-1.5707582123572053,200.43414431068564,9337.46462183726,276.9534735083997
6.35318788699999,6.055000000000064,199.9595117955079,9312.880002008691,299.9999999586604,-0.006082913173314646,-79.99999976879785,-1.3378924308104746e-09,-3.052312135798583e-05,1.672306539326671e-11,-1.570756036434069,200.57997111333398,9321.16106251296,276.9844198294838
6.5237343669999746,6.215000000000032,199.958554296477,9300.160002044746,299.99999995847554,-0.005930454751681612,-79.99999978024516,-7.92959253054448e-10,-2.8281861365542724e-05,9.911475320220717e-12,-1.570754130702686,201.24126846658282,9296.757218457551,277.03505480007095
6.692715204000024,6.383000000000038,199.95759709404663,9287.120002079824,299.9999999583775,-0.005785708845513254,-79.99999979084457,-2.2110550241252174e-10,-2.612984856998056e-05,2.7633750593770295e-12,-1.5707523213776131,201.4240863043087,9279.071812502612,277.06886335562507
6.8966521419999935,6.581000000000017,199.95644233972573,9270.960002121034,299.99999995838647,-0.005621400509461843,-79.99999980255909,4.807437292048133e-10,-2.369559067819927e-05,-6.009654362690298e-12,-1.570750267521524,201.15929065169087,9258.173200289795,275.20254726516464
7.099140777000002,6.771000000000072,199.95556158063727,9258.320002151751,299.9999999584923,-0.005503804753558572,-79.99999981073601,1.008640583888007e-09,-2.199271267734483e-05,-1.2608306409082133e-11,-1.5707487975730743,201.32525167111177,9239.342560487827,275.12459307752187
7.274765298000034,6.934000000000083,199.95448848190517,9242.560002188164,299.99999995874265,-0.005368788597311711,-79.99999981991101,1.6813347087939081e-09,-2.012007721383613e-05,-2.101691863857396e-11,-1.5707471098691856,201.482498753173,9221.50300698985,275.05074174196835
7.444416043000047,7.102000000000089,199.95359894141015,9229.200002217705,299.99999995905745,-0.005263294297987134,-79.99999982692133,2.22780149401443e-09,-1.8749461712039603e-05,-2.784770637625036e-11,-1.5707457911887834,200.65207435882127,9206.65591531688,275.7322148723599
7.625068767000016,7.2690000000000055,199.95272134125668,9215.760002246368,299.9999999594634,-0.005164394087364845,-79.99999983336708,2.7360167922893297e-09,-1.7567136586456714e-05,-3.420035938715563e-11,-1.5707445549346462,200.74967720428728,9189.886156381086,275.7016247191239
7.800738112999966,7.432999999999993,199.95188537876714,9202.720002273152,299.99999995993807,-0.005074421569413452,-79.99999983912484,3.215945608416961e-09,-1.6597967736064773e-05,-4.0199438343599685e-11,-1.5707434302767838,200.84729454635897,9173.11639744438,275.67103456596726
8.005418100000043,7.634999999999991,199.95086914876066,9186.560002305063,299.99999996063497,-0.004969626457762906,-79.99999984570353,3.7886091462981305e-09,-1.5618133712481563e-05,-4.735770095846102e-11,-1.570742120336309,201.22501738208356,9155.821323215017,274.57287308914835
8.246961529000032,7.8700000000000045,199.9497322756962,9168.080002340012,299.9999999615693,-0.004857152412004936,-79.99999985261154,4.386517235220323e-09,-1.4766837054713843e-05,-5.483152486434153e-11,-1.5707407144092116,201.36212024549332,9135.29126407459,274.467823818604
8.41620219799995,8.031000000000063,199.94893582584257,9154.880002364032,299.9999999623187,-0.004780513558146389,-79.99999985722799,4.783935095968896e-09,-1.430903923619104e-05,-5.979923263736139e-11,-1.570739756422583,201.47965349679015,9117.694070524682,274.37778158679146
8.585573939000028,8.19900000000007,199.9481848954795,9142.240002386327,299.9999999630952,-0.004709359646891031,-79.99999986144833,5.139040463929871e-09,-1.3972146882215816e-05,-6.423803884607863e-11,-1.5707388669979854,199.94955563003398,9106.433088064043,275.70851103876345
8.787815411999986,8.389999999999986,199.94741719275655,9129.120002408787,299.9999999639602,-0.004637231817839857,-79.99999986566182,5.483166673110665e-09,-1.3707005830644986e-05,-6.853960587135873e-11,-1.5707379653993936,199.9762672769757,9091.022415299056,275.69559288031945
8.957418398999948,8.55600000000004,199.94647854515136,9112.800002435788,299.99999996511093,-0.0045493483340471735,-79.99999987070787,5.873827246012603e-09,-1.3478089859485538e-05,-7.342285429768307e-11,-1.5707368668552242,200.563287633692,9076.873639446701,275.23318077802315
9.194286835999947,8.783000000000015,199.9456069650763,9097.36000246037,299.9999999662721,-0.004467503857481502,-79.9999998753203,6.213077127321962e-09,-1.3340264181135986e-05,-7.76634719313723e-11,-1.5707358437988352,200.62885371228265,9058.553194734199,275.1907657500731
9.363633799000013,8.941000000000031,199.94490958071182,9084.800002479715,299.9999999672604,-0.004401529638760286,-79.9999998789774,6.455386922945886e-09,-1.3268500252160126e-05,-8.069234073685057e-11,-1.570735019120829,200.68294044080992,9043.443549609856,275.1557842837624
9.531984233000003,9.103000000000065,199.94419644800223,9071.760002499204,299.99999996832486,-0.00433339811908825,-79.99999988269693,6.6892555325551885e-09,-1.3220661156313893e-05,-8.361569622357065e-11,-1.5707341674766715,201.06153796962252,9032.790049036084,276.2330697969818
9.703179516999967,9.269000000000005,199.94333655590762,9055.76000252229,299.9999999696819,-0.0042501186316707745,-79.99999988716473,6.9400028068823475e-09,-1.3184027129898374e-05,-8.675003568360458e-11,-1.570733126482966,201.1405535109617,9016.02459809373,276.2556761062664
9.880819540999937,9.432000000000016,199.94251421179928,9040.160002543924,299.99999997105334,-0.004169132776571539,-79.99999989142637,7.147887734715134e-09,-1.3158113043173924e-05,-8.934859707957296e-11,-1.5707321141597612,201.22351236435486,8998.425505943536,276.2794064862115
10.117760090000047,9.66700000000003,199.94181423474814,9026.640002561973,299.99999997227144,-0.00409907121709789,-79.99999989504695,7.308527329515348e-09,-1.3134261423341403e-05,-9.135659259080608e-11,-1.5707312383903105,201.34004718578933,8986.219671077311,277.02312057662175
10.287038037000002,9.826000000000022,199.94103340673135,9011.280002581832,299.99999997368633,-0.004019634230428772,-79.99999989907782,7.441177274543516e-09,-1.3097625455110411e-05,-9.301471819888929e-11,-1.5707302454280745,201.4118777946676,8971.597063160176,277.078326973416
10.490040090999969,10.017000000000053,199.94027967896946,8996.160002600602,299.99999997510076,-0.003941665863799364,-79.99999990295744,7.546228912221387e-09,-1.3045625535752753e-05,-9.432786535561562e-11,-1.5707292708236205,201.50112280683481,8953.432332827635,277.1469063483304
10.659366965000004,10.182999999999993,199.93965697838243,8983.440002615838,299.9999999763044,-0.003876316689428411,-79.99999990615062,7.610733347591602e-09,-1.2986679899780912e-05,-9.51341724615576e-11,-1.5707284539590693,200.76907494446402,8943.910432843533,278.33935586255643
10.828291276999948,10.340000000000032,199.93904465854493,8970.720002630595,299.99999997751706,-0.003811262334762085,-79.99999990927638,7.64915647055148e-09,-1.2912333815472663e-05,-9.561446345384453e-11,-1.570727640779789,200.80143563257045,8929.694268986572,278.4487222201101
11.002489323999953,10.502000000000066,199.93841259820897,8957.360002645542,299.99999997879553,-0.003743342150198327,-79.99999991248337,7.673256557401768e-09,-1.2816502609221805e-05,-9.59157162458844e-11,-1.5707267917776186,200.83380604975213,8915.478105129156,278.55808857766493
11.171416851999993,10.668000000000006,199.9378250602007,8944.720002659167,299.999999980011,-0.003679547315912019,-79.99999991544306,7.682236360835484e-09,-1.2709288869787894e-05,-9.602796563227211e-11,-1.5707259943423404,199.82829482161043,8906.141545969596,281.6766211605182
11.374909110999965,10.86099999999999,199.93711736000057,8929.200002675263,299.99999998150344,-0.00360196201449267,-79.99999991897394,7.669775376079386e-09,-1.2556091981330421e-05,-9.587220525012722e-11,-1.5707250245262356,199.80685606803274,8889.576951723633,281.9796609649523
11.578424125999959,11.052999999999997,199.93652368741004,8915.920002688536,299.99999998277366,-0.0035363282468191203,-79.9999999219022,7.627667177853882e-09,-1.2407321596102396e-05,-9.534585408000593e-11,-1.5707242041042568,199.78655832919236,8873.884178226906,282.2667513059842
11.747644365000042,11.20900000000006,199.93596873924602,8903.280002700747,299.99999998397595,-0.0034745887462299388,-79.99999992460755,7.570053433410533e-09,-1.2251923033059132e-05,-9.462568339178493e-11,-1.5707234323606047,200.04121362388798,8865.63444411871,280.79554958891237
11.917025601999967,11.37600000000009,199.93542692772468,8890.720002712413,299.9999999851607,-0.003413997035995075,-79.9999999272163,7.507133508894748e-09,-1.2085940198221016e-05,-9.383918543118128e-11,-1.5707226749643342,200.03604239839504,8851.092579991233,280.9783318071356
12.089192175999983,11.535000000000082,199.93485421298982,8877.20000272451,299.9999999864245,-0.0033496985693117877,-79.9999999299344,7.4246116450859e-09,-1.1895823966622204e-05,-9.280766282113601e-11,-1.5707218712335793,200.0305781353844,8835.695312091082,281.1718659205296
12.268141644000025,11.701999999999998,199.9341936925552,8861.280002738233,299.9999999878905,-0.003275284144944673,-79.99999993301564,7.297294082535852e-09,-1.1659572063478154e-05,-9.121619393212402e-11,-1.5707209410533585,201.00044891088518,8827.693555533255,277.64229794425097
12.43748899100001,11.869000000000028,199.9336571810216,8848.080002749159,299.99999998908646,-0.003214713583736065,-79.99999993547256,7.173842862482387e-09,-1.1455691569025665e-05,-8.96730539597321e-11,-1.5707201839213942,201.04509838222958,8813.5161550541,277.63516832277116
12.642171792999989,12.068000000000097,199.9331242623024,8834.720002759817,299.99999999027625,-0.003154484631180977,-79.9999999378702,7.036963474474858e-09,-1.1244040371334642e-05,-8.796206170080643e-11,-1.570719431059525,201.09238750511287,8798.504789840345,277.6276193117595
12.81017822399997,12.221000000000004,199.9326417403457,8822.400002769242,299.9999999913522,-0.003099958217963215,-79.9999999400017,6.9074078427594825e-09,-1.1045615817882767e-05,-8.63426162046253e-11,-1.5707187494793793,201.16301559508312,8788.98434048699,275.76046833991916
12.979561229999945,12.389999999999986,199.93212784586666,8809.040002779155,299.99999999249525,-0.003041887514063823,-79.9999999422309,6.746921448167448e-09,-1.082872582784485e-05,-8.433653604240899e-11,-1.5707180235955915,201.20635010413517,8775.852096087503,275.6646116979683
13.14933389600003,12.55600000000004,199.93151908341883,8792.88000279057,299.99999999384204,-0.002973176749529469,-79.9999999448141,6.552882496964445e-09,-1.0565844875936788e-05,-8.191104869458254e-11,-1.5707171647110325,201.255111308932,8761.07832113771,275.5567729757421
13.352888810999957,12.748000000000047,199.93105255642365,8780.240002799197,299.99999999486914,-0.0029206135060387646,-79.99999994675042,6.380193281128676e-09,-1.0361281168757008e-05,-7.975243301556274e-11,-1.5707165076704745,201.8773040102673,8750.397834561621,272.2996935830353
13.525985842999944,12.905000000000086,199.93049957211403,8764.960002809163,299.9999999960711,-0.0028584283301896075,-79.99999994899656,6.170463892718723e-09,-1.0116837388773687e-05,-7.713081499991122e-11,-1.57071573035575,201.9567200150599,8735.874258841635,272.02327774347737
13.72811405699997,13.103000000000065,199.930034145964,8751.840002817427,299.9999999970712,-0.002806198392681537,-79.99999995084578,5.97668991405692e-09,-9.910447336620068e-06,-7.470863967711644e-11,-1.570715077481505,201.18190373925174,8723.488548350155,274.17805761870164
13.90829996299999,13.270000000000095,199.92947251029298,8735.680002827183,299.9999999982592,-0.002743320255278812,-79.99999995302672,5.730158468575333e-09,-9.661609973476676e-06,-7.162699581216237e-11,-1.5707142915047454,201.21338754854528,8709.116137072966,274.03822344095875
14.081720279000024,13.432999999999993,199.92902851076664,8722.640002834713,299.9999999991787,-0.0026937434088586598,-79.9999999547115,5.5286021195044605e-09,-9.465860541881363e-06,-6.910754078910154e-11,-1.5707136717941275,201.2466306427101,8693.94525850224,273.89062069774116
14.286020299000029,13.636000000000081,199.92849200163297,8706.560002843673,300.0000000002705,-0.002633978084657603,-79.99999995670166,5.265672677544649e-09,-9.231224907001826e-06,-6.582092194571e-11,-1.5707129247275242,200.25872902986669,8680.265404461426,275.53015251651186
14.49861931299995,13.836999999999989,199.92797513834563,8690.720002852106,300.0000000012911,-0.0025765535215251595,-79.99999995857172,4.998417180046361e-09,-9.0078041011791e-06,-6.248022742714028e-11,-1.5707122069204322,200.2340498251913,8665.970659833221,275.48863367385076
14.674124247000009,14.0,199.9275504918002,8677.440002858888,300.00000000210383,-0.002529488562092217,-79.9999999600737,4.77293971565812e-09,-8.826586599389697e-06,-5.966175849376093e-11,-1.5707116186083967,200.20664236360614,8650.087610245891,275.4425016263795
14.877190552999991,14.200000000000045,199.92705659672,8661.68000286659,300.00000000302356,-0.0024748591898749984,-79.99999996178235,4.50284370795531e-09,-8.618715260367473e-06,-5.628555767795481e-11,-1.570710935741193,200.09658208306823,8638.417778091913,275.35133963413966
15.047550961999946,14.365000000000009,199.92666820450603,8649.040002872543,300.0000000037245,-0.002431969788732222,-79.99999996309771,4.28601721134606e-09,-8.457509998813399e-06,-5.357522588171897e-11,-1.5707103996236338,200.07048326734719,8625.795745440431,275.31191913255554
15.217821516999948,14.523000000000025,199.92625778407918,8635.440002878726,300.0000000044378,-0.00238672635891632,-79.99999996446024,4.047274922488646e-09,-8.289491546439406e-06,-5.059094674473929e-11,-1.5707098340807235,200.04276054868077,8612.384835748011,275.2700348495835
15.387866029999941,14.693000000000097,199.9258785125408,8622.640002884307,300.00000000507237,-0.002344967461484448,-79.99999996569521,3.8269170699229744e-09,-8.136224128035512e-06,-4.7836473100394846e-11,-1.5707093120944684,200.25887269897729,8600.639018407166,275.91061756347335
15.591231837999999,14.884000000000015,199.9255174363308,8610.240002889534,300.00000000565166,-0.002305244550873441,-79.99999996684973,3.613120442792112e-09,-7.992032019192864e-06,-4.516401477387992e-11,-1.5707088155580458,200.2410013365891,8584.95734207413,275.9025728874585
15.759774025999945,15.038000000000011,199.92506277088737,8594.32000289603,300.0000000063458,-0.0022552821081228535,-79.99999996827383,3.329945134249074e-09,-7.81285337869426e-06,-4.162432289764876e-11,-1.5707081910274714,200.2240321028248,8570.059749557518,275.8949304451959
16.005090128000006,15.268000000000029,199.92455175401523,8576.000002903136,300.00000000707485,-0.00219913181475435,-79.99999996983709,3.009304606499736e-09,-7.614184678150522e-06,-3.761631580106729e-11,-1.5707074891487673,200.27284179086777,8554.521186438029,275.1643277029563
16.21771985800001,15.466999999999985,199.9241871167228,8562.640002908112,300.0000000075621,-0.002159103274780746,-79.99999997092748,2.7731323033474596e-09,-7.473768114225287e-06,-3.466416159563418e-11,-1.570706988791982,200.25966033641612,8539.671027339777,275.1163262995737
16.388127949000022,15.637000000000057,199.92375702907952,8546.560002913879,300.00000000809723,-0.002111896844169083,-79.99999997218757,2.490272206920459e-09,-7.3097179023745465e-06,-3.112840998538354e-11,-1.5707063987115673,199.9382780330599,8523.57411052346,277.6720162242563
16.595946942999944,15.83400000000006,199.9233425662686,8530.720002919308,300.000000008571,-0.002066415234035468,-79.99999997337534,2.2174410872120285e-09,-7.1528880487999705e-06,-2.7718020624790458e-11,-1.5707058301914119,199.91064609030389,8510.299433263046,277.76380889161305
16.776327689000027,16.00100000000009,199.92299993397197,8517.360002923639,300.00000000892925,-0.002028809727240433,-79.99999997433785,2.0047929101351965e-09,-7.02397311991191e-06,-2.5059918128185368e-11,-1.5707053601225547,199.8813952253623,8496.243892634207,277.8610011275993
16.945465610000042,16.169000000000096,199.92265953873346,8503.84000292792,300.00000000925235,-0.001991442020607925,-79.99999997527682,1.7813110307775605e-09,-6.896393311360019e-06,-2.2266394369736283e-11,-1.5707048930262006,200.661540012773,8478.741581386957,277.3090441985456
17.19918954000002,16.40000000000009,199.92220440379236,8485.360002933525,300.0000000096355,-0.0019414654562155606,-79.9999999765053,1.4802995818573314e-09,-6.726334906138333e-06,-1.850375091958149e-11,-1.570704268319119,200.67525390070975,8465.486089753456,277.36667793188883
17.368662538999956,16.56600000000003,199.92188440477597,8472.080002937333,300.00000000986773,-0.00190631234149871,-79.9999999773507,1.2823274635397438e-09,-6.606985781969445e-06,-1.6029099216374705e-11,-1.5707038289051676,199.24364842486094,8450.364423500514,278.4771731295025
17.60641414600002,16.791000000000054,199.921459915873,8454.080002942306,300.0000000101296,-0.0018596673830076566,-79.99999997844864,1.0068934316320563e-09,-6.448754733800369e-06,-1.2586173533461585e-11,-1.570703245843164,199.1736591684778,8435.572748271861,278.6030671509881
17.775734143000022,16.94900000000007,199.92116622803985,8441.360002945717,300.0000000102774,-0.0018273813942624075,-79.99999997919264,8.138375763106931e-10,-6.339265297830392e-06,-1.0172975159438954e-11,-1.570702842268291,199.11104317158868,8422.33809148821,278.7157091701784
17.979337665999992,17.151000000000067,199.92086143372634,8427.920002949122,300.0000000104023,-0.0017938542017277678,-79.99999997995145,6.284080880827387e-10,-6.225474687206051e-06,-7.85510636638659e-12,-1.5707024231783695,200.6580933243255,8408.726431902558,278.5721818942197
18.149692316000028,17.307999999999993,199.9205234838447,8412.720002952916,300.000000010506,-0.0017566715733326967,-79.9999999807766,4.122057812739135e-10,-6.099116116751793e-06,-5.152577329240642e-12,-1.5707019583954986,200.68109434607055,8394.688029694764,278.6772738881001
18.320778116000042,17.466000000000008,199.9202460654389,8400.000002955889,300.00000001056173,-0.0017261368778472696,-79.99999998144129,2.509466824517556e-10,-5.99516814310638e-06,-3.1368384278804187e-12,-1.5707015767117918,200.7041011867245,8380.64962748684,278.78236588194915
18.523901679999994,17.669000000000096,199.9199022342758,8383.920002959601,300.0000000105947,-0.0016882687499864268,-79.99999998224939,4.137168734437876e-11,-5.8659972559979e-06,-5.17150796504036e-13,-1.5707011033601788,200.74350686713214,8363.670693022319,278.6954997425246
18.732380613000032,17.871000000000095,199.9196256363204,8370.720002962455,300.00000001059044,-0.0016577939211917414,-79.99999998288669,-1.1213496040802886e-10,-5.761772167302509e-06,1.4016824556101941e-12,-1.5707007224248057,200.7658324418318,8350.41738790923,278.7837412981523
18.912039367000034,18.033999999999992,199.91935076513613,8357.36000296529,300.00000001056236,-0.0016275045177743526,-79.99999998350862,-2.702227314956462e-10,-5.65793237824535e-06,3.377779743665081e-12,-1.5707003438072515,200.78947645085304,8336.384476612917,278.87717353349666
19.091724063000015,18.201999999999998,199.91902498556027,8341.20000296857,300.0000000104918,-0.0015915918060294214,-79.99999998423117,-4.5107598227704236e-10,-5.534489205870063e-06,5.638445554911626e-12,-1.5706998948983397,200.58245814961091,8321.823199846704,279.683626580827
19.261590204999948,18.369000000000028,199.91876422931543,8328.000002971125,300.00000001040866,-0.0015628420822024972,-79.99999998479801,-5.835782179152239e-10,-5.435414572597087e-06,7.29472363929424e-12,-1.5706995355267805,200.59367364519542,8307.757566250866,279.81556724573426
19.47257778400001,18.568000000000097,199.91845139443313,8311.840002974202,300.00000001027684,-0.0015283416269091267,-79.99999998546456,-7.581613763818598e-10,-5.3162429621569465e-06,9.477013286949372e-12,-1.5706991042710747,200.6048960213494,8293.691932654901,279.94750791061307
19.675346720999983,18.756000000000085,199.9181679810155,8296.880002976819,300.000000010127,-0.0014970901640809727,-79.99999998605546,-8.828950618279381e-10,-5.208045039882447e-06,1.1036184504750691e-11,-1.5706987136277757,200.8739256912286,8278.983335196079,279.21448618580024
19.84474347799994,18.911000000000058,199.917937465073,8284.48000297899,300.0000000099839,-0.0014716700408231296,-79.99999998652714,-9.965293037568497e-10,-5.11988560333197e-06,1.2456612657104482e-11,-1.5706983958762222,200.89887592677266,8264.920918060552,279.2999507560642
20.04818392100003,19.11200000000008,199.91764432603154,8268.400002981653,300.0000000097731,-0.0014393321616262345,-79.99999998711549,-1.1295866545037625e-09,-5.007623415032888e-06,1.4119829689601113e-11,-1.570697991652719,200.88830375452173,8248.577342820749,277.67689898749194
20.250415556000007,19.309000000000083,199.91736328111972,8252.640002984115,300.00000000954174,-0.0014083306301420381,-79.99999998766728,-1.2360788863340697e-09,-4.8998061039166445e-06,1.5450982729671832e-11,-1.5706976041335614,200.9110778853085,8234.51406613232,277.66713957750517
20.456519746000026,19.50100000000009,199.91714226494858,8240.000002986091,300.0000000093405,-0.0013839534370684594,-79.99999998809274,-1.3312071560012945e-09,-4.814925970708353e-06,1.664008621589421e-11,-1.5706972994186361,200.93259109510143,8221.232082593184,277.65792235694755
20.62575963200004,19.668000000000006,199.9168801852835,8224.720002988297,300.00000000907784,-0.0013550416281532898,-79.9999999885877,-1.4241221378064066e-09,-4.714185065801848e-06,1.7801523619343483e-11,-1.570696938021011,200.38967755624506,8206.137994340756,278.07125227354504
20.79561631699994,19.826999999999998,199.9166541779709,8211.280002990146,300.0000000088336,-0.0013301147967705533,-79.99999998900607,-1.4891333656242087e-09,-4.627265634922552e-06,1.8614164074911855e-11,-1.5706966264356081,200.38233008216739,8193.621348434655,278.0832042567694
20.965830194999967,19.98300000000006,199.91644674845466,8198.720002991875,300.0000000085962,-0.0013072398746164016,-79.99999998938318,-1.5557716636614706e-09,-4.547459022262221e-06,1.944714290412158e-11,-1.5706963404990693,200.37498609261922,8181.104702528498,278.0951562399827
21.13437916999999,20.149,199.9162441753127,8186.2400029935925,300.0000000083494,-0.0012848957057529393,-79.99999998974516,-1.629935110795427e-09,-4.469499645941116e-06,2.0374186093141444e-11,-1.5706960611969474,201.2092618403457,8167.788045593945,277.14140527627643
21.303939984999943,20.307000000000016,199.9160311337643,8172.880002995187,300.0000000080722,-0.0012614034303667688,-79.9999999901191,-1.6765854915538607e-09,-4.387522467781695e-06,2.0957315949324615e-11,-1.5706957675434943,201.2430775832486,8155.304924909356,277.1061168890123
21.47828477799999,20.466000000000008,199.9158306901477,8160.0800029967095,300.00000000780216,-0.0012393001289362903,-79.99999999046457,-1.7134028048976692e-09,-4.310378567878777e-06,2.1417532463626008e-11,-1.570695491252215,201.2790113147836,8142.041609181918,277.06862297753537
21.68225019900001,20.66700000000003,199.9156252090365,8146.7200029983,300.00000000751294,-0.0012166390716072855,-79.99999999081246,-1.7574414116514168e-09,-4.231303307637967e-06,2.1968015139934584e-11,-1.570695207988988,201.21533881776162,8128.263854965719,278.0106520485994
21.852482366000004,20.826000000000022,199.91543307528676,8134.000002999813,300.0000000072312,-0.0011954553195504343,-79.99999999113183,-1.8034317749365718e-09,-4.157374487496793e-06,2.2542894770697655e-11,-1.570694943192076,201.2461057933056,8114.969696489809,278.0241396054554
22.021341182000015,20.98300000000006,199.91520551537664,8118.64000300144,300.00000000688215,-0.0011703671502222579,-79.99999999150286,-1.8352062964990771e-09,-4.069852657077292e-06,2.2940076391989408e-11,-1.5706946295899469,201.2804967173841,8100.111519369599,278.0392139337045
22.225511091000044,21.187000000000012,199.91498158143793,8103.200003002989,300.00000000652756,-0.001145679458097872,-79.99999999186025,-1.8475314963496886e-09,-3.98375501987032e-06,2.3094141483430148e-11,-1.5706943209937845,200.91071457389486,8085.071332670161,277.8083502379929
22.428711733,21.377000000000066,199.91472647840266,8085.200003004796,300.00000000610794,-0.0011175571100912737,-79.99999999225811,-1.864430812496434e-09,-3.885699927023903e-06,2.3305383049627656e-11,-1.5706939694644189,200.92554664247754,8065.4422404442175,277.8096421064165
22.632726022000043,21.57000000000005,199.91453897981398,8071.680003006152,300.00000000579274,-0.0010968853943812674,-79.99999999254418,-1.883020361724576e-09,-3.81368275811109e-06,2.3537752489183135e-11,-1.570693711067963,201.36887028397396,8051.336921064446,277.98733518473966
22.811743588000013,21.73700000000008,199.9143571108254,8058.320003007442,300.0000000054766,-0.0010768356155494855,-79.99999999281658,-1.9016379559076936e-09,-3.7438242618029985e-06,2.3770472491323286e-11,-1.5706934604457174,201.403835290951,8037.157129285892,277.9981728220772
23.019289107999953,21.934000000000083,199.91411101412277,8039.8400030089515,300.00000000503974,-0.0010497077163267908,-79.99999999317714,-1.8713399808895742e-09,-3.649327650895273e-06,2.3391747902817145e-11,-1.570693121346964,201.44269023806567,8021.401805087444,278.01021464134584
23.256416862000037,22.16700000000003,199.91391842066776,8025.04000301016,300.00000000469475,-0.0010284787799897462,-79.99999999345286,-1.8522468772757034e-09,-3.5754091070794214e-06,2.3153084183876992e-11,-1.570692855985249,201.25567177146982,8003.625092379571,279.8010689732857
23.42549016199996,22.32000000000005,199.91372668853148,8010.000003011389,300.000000004348,-0.0010073496288377085,-79.9999999937217,-1.836438542683826e-09,-3.5018738104190915e-06,2.29554800761939e-11,-1.5706925918708485,201.28078360505316,7987.7417915921405,279.9215089654746
23.662895252999988,22.544000000000096,199.91355867187445,7996.560003012487,300.00000000404253,-0.0009888334171231424,-79.99999999395268,-1.8283209492185493e-09,-3.437476566807097e-06,2.285401021722844e-11,-1.5706923604181942,201.3033878117735,7973.446820883396,280.0299049584461
23.832842445999972,22.703000000000088,199.91340153909707,7983.760003013533,300.0000000037516,-0.0009715164593624128,-79.99999999416487,-1.8213615315380933e-09,-3.3772514225678916e-06,2.2767017553171082e-11,-1.5706921439562134,201.3309533979639,7960.928433270892,278.9565892890755
24.00206378300004,22.87200000000007,199.91321279245676,7968.0800030145965,300.0000000033952,-0.0009507131119648474,-79.99999999441482,-1.7911983852711131e-09,-3.304929424637375e-06,2.2389978292991082e-11,-1.5706918839143609,201.35518287717497,7945.890937997328,279.0038068719852
24.20986440699994,23.064000000000078,199.9130262206705,7952.240003015595,300.000000003046,-0.0009301494854252031,-79.99999999465656,-1.7317201884425865e-09,-3.2334513390938388e-06,2.1646500898821013e-11,-1.570691626869019,201.37814137004563,7931.644889843387,279.0485393189645
24.41422509100005,23.254999999999995,199.91281910594813,7934.24000301673,300.00000000266255,-0.0009073234692526684,-79.99999999491871,-1.6699806727268403e-09,-3.1541168147204187e-06,2.0874757024596035e-11,-1.5706913415438049,201.4556812833466,7912.91673867022,278.5732727973125
24.65013326999997,23.479000000000042,199.91264817625623,7919.040003017688,300.0000000023483,-0.000888486005436669,-79.9999999951301,-1.6215765378841764e-09,-3.0886673189748587e-06,2.026970539648442e-11,-1.5706911060754978,201.47963794416282,7899.510611360233,278.5889209022997
24.819922021000025,23.648000000000025,199.91250698854353,7906.2400030184945,300.0000000020915,-0.0008729225560290384,-79.99999999530145,-1.5864944245108403e-09,-3.034604505991621e-06,1.983117902511699e-11,-1.570690911532373,201.10205090236937,7887.714478820135,278.56717940050135
24.990033755000013,23.807999999999993,199.91236139316467,7892.800003019342,300.0000000018267,-0.0008568766583437916,-79.99999999547492,-1.5520969441496426e-09,-2.978856914374917e-06,1.9401210565793574e-11,-1.5706907109586448,201.1051777629316,7874.305944061555,278.58097412073636
25.164603175000025,23.966999999999985,199.9122260748576,7880.0800030201435,300.0000000015821,-0.0008419636085475795,-79.99999999563329,-1.5212438510348774e-09,-2.9270418365078062e-06,1.9015546945317155e-11,-1.5706905245455145,201.10886038281407,7858.5311972867075,278.5972032033757
25.40160175699998,24.200000000000045,199.9120394212835,7862.160003021063,300.00000000124624,-0.000821391784061557,-79.99999999584713,-1.4652883304246958e-09,-2.8555737313376446e-06,1.831610299364976e-11,-1.5706902673976995,200.68275048261242,7840.5557631121,280.0342372250322
25.60504559200001,24.391000000000076,199.9118862935374,7847.120003021731,300.0000000009786,-0.0008045158081645728,-79.99999999601863,-1.3790205808016881e-09,-2.7969482109152373e-06,1.7237756169134454e-11,-1.5706900564479929,200.66282940318655,7826.320555163046,280.12553047522044
25.80799811199995,24.58000000000004,199.91172525271833,7830.960003022448,300.000000000707,-0.0007867633132553377,-79.99999999619517,-1.2951900559926834e-09,-2.7352785895684527e-06,1.6189874657618865e-11,-1.5706898345417972,200.34848562985715,7809.933810347155,280.7211030825524
26.010864843000036,24.769000000000005,199.91160333399546,7818.480003023002,300.00000000050846,-0.0007733267357388306,-79.9999999963262,-1.2315576837053258e-09,-2.6885922529785655e-06,1.539447003948396e-11,-1.5706896665845713,200.31217821835773,7795.662213957209,280.84013312729275
26.18616702500003,24.934000000000083,199.91147739879287,7805.360003023584,300.0000000003112,-0.0007594445618811962,-79.99999999645922,-1.1720712348604795e-09,-2.6403567651185596e-06,1.4650889465689487e-11,-1.5706894930573911,200.2778902723847,7782.183484033358,280.95255039178005
26.355256790999988,25.101,199.91132537999616,7789.200003024302,300.00000000008043,-0.0007426859058521332,-79.99999999661658,-1.0993747721103138e-09,-2.5821228810680897e-06,1.3742183722590884e-11,-1.570689283574183,200.1764034170838,7767.874563375664,281.9893614908773
26.53623788799996,25.270000000000095,199.91120297118766,7775.920003024891,299.99999999990087,-0.0007291914707764167,-79.99999999674073,-1.0468936370507717e-09,-2.5352147637136182e-06,1.3086169567561249e-11,-1.5706891148937383,200.14100753325388,7755.222104033319,282.1402064328993
26.746021701000018,25.466000000000008,199.91105987216275,7760.080003025594,299.99999999969936,-0.0007134171132581755,-79.99999999688299,-9.838854798397273e-10,-2.4803681946805487e-06,1.2298567640753598e-11,-1.5706889177142616,200.09897787330175,7740.197308564256,282.3193348015608
26.915096715999994,25.634000000000015,199.91094088127844,7746.64000302619,299.9999999995364,-0.0007002988968725954,-79.99999999699887,-9.391198399691005e-10,-2.434752707288718e-06,1.1738997173364919e-11,-1.5706887537365506,200.1735265416296,7726.191275034288,278.88127387087997
27.118415811999967,25.82400000000007,199.9108096412034,7731.520003026862,299.99999999936324,-0.0006858341468146422,-79.99999999712416,-8.885100658891912e-10,-2.3844514897949153e-06,1.1106375030878299e-11,-1.5706885729271676,200.1439222228996,7713.623237542451,278.85523772636304
27.286640767999984,25.979000000000042,199.91070336191706,7719.040003027365,299.99999999922665,-0.0006741212294025557,-79.99999999722371,-8.47629542584565e-10,-2.3437224304760558e-06,1.0595368517564747e-11,-1.570688426515694,200.11061964486217,7699.484195364112,278.82594706379285
27.489409402999968,26.18100000000004,199.91057437838867,7703.600003027762,299.99999999906896,-0.0006599041954265617,-79.9999999973423,-7.754328395784778e-10,-2.29429787691291e-06,9.69290976061324e-12,-1.570688248802763,199.26820261332495,7684.842325186764,279.96417214613757
27.658913963000032,26.340000000000032,199.91046886520732,7690.720003028094,299.9999999989485,-0.0006482721669018557,-79.99999999743743,-6.963612522017874e-10,-2.2538564506784394e-06,8.704514945231682e-12,-1.5706881034024,199.19946417566837,7672.284182337583,279.99480075419166
27.86635102499997,26.533000000000015,199.91034100917696,7674.800003028503,299.99999999881743,-0.0006341793388113386,-79.99999999755038,-6.000284877360612e-10,-2.2048596422599347e-06,7.500355419784498e-12,-1.5706879272420422,199.1049523435758,7655.016735919923,280.03691509028835
28.071046188999958,26.721000000000004,199.91022216044206,7659.680003028892,299.99999999871017,-0.0006210805864797253,-79.99999999765318,-5.182075140355845e-10,-2.159312052507568e-06,6.477593276583567e-12,-1.5706877635076317,200.09307971000317,7641.14339471273,278.95034428815734
28.239968675,26.888000000000034,199.91012530306668,7647.120003029216,299.99999999863235,-0.0006104056570250835,-79.99999999773537,-4.5159956783205605e-10,-2.122211354660201e-06,5.644993969591464e-12,-1.570687630071009,200.0751837816037,7628.593656612345,278.9274728358129
28.44326412999999,27.078000000000088,199.91002409493282,7633.76000302956,299.99999999856095,-0.0005992484998769975,-79.99999999781977,-3.821398204648489e-10,-2.0834263036626682e-06,4.776747151206365e-12,-1.570687490606539,200.0550527544472,7614.475201249416,278.9017424519357
28.614964860999976,27.23599999999999,199.90991120499314,7618.56000302995,299.99999999849314,-0.0005868054719858687,-79.99999999791207,-3.165155652964685e-10,-2.040173263886099e-06,3.956443986034394e-12,-1.5706873350686843,199.45073588471985,7597.483729202568,283.1575263016984
28.821243593999952,27.434000000000083,199.9097948956949,7602.560003030362,299.99999999843413,-0.0005739840204027318,-79.9999999980051,-2.49037205918311e-10,-1.995603576597573e-06,3.1129645190237112e-12,-1.5706871748005335,199.39396374718032,7581.714815151631,283.3822024441311
29.02541278199999,27.637000000000057,199.90968056431691,7586.480003030776,299.99999999839036,-0.0005613796229832701,-79.99999999809452,-1.8420875626839388e-10,-1.951777981481647e-06,2.3026089223368215e-12,-1.5706870172455591,200.23096965270446,7565.416819867893,282.5623094078099
29.236912964999988,27.83699999999999,199.90957094841866,7570.7200030311815,299.9999999983581,-0.0005492955479660239,-79.99999999817844,-1.3436062935833897e-10,-1.9097510087555962e-06,1.679507358814814e-12,-1.5706868661946158,200.22900596252515,7551.234691352211,282.7067119138349
29.412156363999998,28.0,199.90948041388648,7557.440003031524,299.99999999833796,-0.0005393161314353809,-79.99999999824635,-9.349920788148125e-11,-1.875042210800519e-06,1.168739608313104e-12,-1.5706867414519046,200.22693573021766,7536.264666807851,282.85913678131607
29.648866668999972,28.224000000000046,199.90936085431235,7539.520003031985,299.9999999983223,-0.0005261379010262237,-79.99999999833413,-4.0855480750632327e-11,-1.829198771876594e-06,5.106930434663114e-13,-1.5706865767240177,200.0215647945465,7520.265519850866,281.40760077200434
29.85334616700004,28.412000000000035,199.9092638051627,7524.6400030323675,299.9999999983177,-0.0005154421062086159,-79.99999999840375,-9.281025547137583e-13,-1.7920029929267193e-06,1.1600835131861625e-14,-1.570686443026577,200.00799654050397,7505.321993807474,281.4683216596216
30.057411375000015,28.61099999999999,199.90917732656047,7511.120003032715,299.9999999983177,-0.0005059089372813488,-79.99999999846462,2.6114303770226953e-11,-1.75886853468596e-06,-3.264292284581996e-13,-1.5706863238619615,199.7380906321244,7491.423485463375,281.6130401973842
30.226227116000018,28.773000000000025,199.90909593726894,7498.160003033049,299.9999999983253,-0.0004969378125267829,-79.99999999852085,4.951763342751668e-11,-1.727676397076012e-06,-6.189708340306052e-13,-1.5706862117228977,199.7108451965547,7477.276530312221,281.6754645283161
30.395832463000033,28.937000000000012,199.90899890385305,7482.400003033455,299.999999998336,-0.0004862418117268945,-79.99999999858656,7.824368835775801e-11,-1.6904884032726878e-06,-9.78046502797757e-13,-1.5706860780228826,199.680574460004,7461.557691255377,281.7448248960232
30.59876137799995,29.138000000000034,199.90890300460728,7466.480003033865,299.9999999983546,-0.00047567001674844755,-79.99999999865011,1.0438322582550664e-10,-1.6537281639493545e-06,-1.304790703951404e-12,-1.5706859458754399,200.13891134678448,7445.060676880636,280.6096560791168
30.80310521399997,29.335000000000036,199.9088250737609,7453.280003034131,299.99999999837297,-0.0004670797398251046,-79.99999999870074,1.2452833805571663e-10,-1.6238558754614243e-06,-1.5566045930922958e-12,-1.5706858384969742,200.13843181022966,7430.866782398955,280.60610757374707
30.980574785000044,29.50100000000009,199.90873249502485,7437.280003034244,299.99999999840094,-0.00045687427196414583,-79.99999999875966,1.5455696038960143e-10,-1.588365674120009e-06,-1.9319623564996915e-12,-1.570685710928621,200.13792728801658,7415.884338223839,280.6023619291969
31.195043064999936,29.703000000000088,199.90864059350025,7421.04000303436,299.99999999843567,-0.0004467431367131876,-79.99999999881685,1.9808721663584232e-10,-1.5531310365464213e-06,-2.47609054431e-12,-1.5706855842894258,199.275532766864,7400.761290677324,282.98465460901735
31.364759310999943,29.871000000000095,199.90856872294628,7408.080003034452,299.9999999984703,-0.0004388211919217876,-79.99999999886069,2.3940904604402486e-10,-1.5255750809712421e-06,-2.992613400138369e-12,-1.5706854852651118,199.2363780770565,7388.923176351364,283.0889955055988
31.538503053,30.033000000000015,199.90849596432412,7394.720003034546,299.99999999851366,-0.0004308009132399118,-79.99999999890429,2.8253229765267407e-10,-1.497679555431595e-06,-3.531654033311156e-12,-1.5706853850116245,199.18939421373818,7374.717439160191,283.2142045815079
31.776094996999973,30.258000000000038,199.90840003927588,7376.720003034674,299.9999999985824,-0.00042022814545103384,-79.99999999896052,3.498565886501749e-10,-1.4609093014978064e-06,-4.373207655719775e-12,-1.570685252852022,199.8091064714953,7353.309276815883,284.4353135196902
32.04748839399997,30.514999999999986,199.9082790492388,7353.360003034839,299.99999999869533,-0.00040689286904185254,-79.99999999902948,4.2617627914205426e-10,-1.4145457961075421e-06,-5.3272037680169234e-12,-1.5706850861610602,199.79425034907848,7333.6235273428965,284.68394935875483
32.31966292499999,30.774,199.90817614091847,7332.880003034984,299.99999999881044,-0.00039555080333516645,-79.99999999908638,4.740412627845169e-10,-1.3751199062472862e-06,-5.925516048363928e-12,-1.5706849443852335,199.86789592420666,7311.109694371377,283.87703622906173
32.63095872400004,31.069000000000074,199.9080741729611,7312.000003035132,299.9999999989397,-0.0003843118225184993,-79.99999999914115,5.1668244671915e-10,-1.3360600165179206e-06,-6.4585308328222565e-12,-1.5706848038979677,199.86028307117942,7293.066987324733,284.0327044902441
32.79994099299995,31.224000000000046,199.9080138603935,7299.360003035222,299.99999999902076,-0.00037766484798836697,-79.99999999917284,5.406893359463366e-10,-1.3129527396388078e-06,-6.758616939150637e-12,-1.5706847208107826,200.93427861154544,7278.637913044848,282.3253682552923
33.00300663999997,31.416000000000054,199.9079423414329,7284.08000303533,299.9999999991276,-0.0003697825039332818,-79.99999999920966,5.649809867066291e-10,-1.2855608002020234e-06,-7.06226256369112e-12,-1.5706846222814779,200.99164685105907,7262.9256645359565,282.35239456773235
33.240412547000005,31.652000000000044,199.90785964116188,7266.000003035459,299.9999999992567,-0.0003606657318756151,-79.99999999925133,5.91061214909252e-10,-1.2538860712539144e-06,-7.388265405186914e-12,-1.5706845083218228,200.84891123152772,7245.66048239603,284.087443138712
33.40969845799998,31.81000000000006,199.9077991300895,7252.480003035554,299.99999999935915,-0.0003539964166547002,-79.99999999928117,6.064314168041841e-10,-1.2307087974885593e-06,-7.580392921082008e-12,-1.5706844249553802,200.887157175907,7232.261169295129,284.19899988821453
33.57961474000001,31.96900000000005,199.90774357542855,7239.840003035643,299.99999999945493,-0.0003478735756727554,-79.99999999930803,6.178881425590257e-10,-1.2094285028780622e-06,-7.723601985531627e-12,-1.5706843484198645,200.92315430024405,7219.650051082515,284.3039944759823
33.748431212000014,32.13600000000008,199.90768589637014,7226.480003035738,299.9999999995561,-0.00034151519476473063,-79.99999999933547,6.20670560781361e-10,-1.1873332817481077e-06,-7.758382206231524e-12,-1.5706842689401004,199.85726074671413,7206.10492838796,285.1521284441269
33.96207863300003,32.339000000000055,199.90762826202354,7212.880003035834,299.99999999965917,-0.00033516126891123274,-79.99999999936233,6.219422964685775e-10,-1.1652461174597097e-06,-7.774278895057416e-12,-1.5706841895160242,199.83809817275588,7192.734865161492,285.3016080817223
34.13405655199995,32.49700000000007,199.90756512251818,7197.680003035943,299.99999999977433,-0.0003282020250966411,-79.99999999939124,6.21338342266857e-10,-1.1410497332540799e-06,-7.766729459699248e-12,-1.5706841025254725,199.81780951924154,7178.578327627552,285.4598806391762
34.33880631499994,32.696000000000026,199.90750329304305,7182.48000303605,299.9999999998895,-0.00032138768854052263,-79.99999999941889,6.191817847661547e-10,-1.117358518973286e-06,-7.73977248368695e-12,-1.570684017346263,199.35813953422476,7163.013682169417,286.72968195501807
34.50835756899994,32.85400000000004,199.90745285599462,7169.84000303614,299.9999999999852,-0.0003158274521163775,-79.99999999944104,6.170377212340778e-10,-1.0980294169585276e-06,-7.71297168318595e-12,-1.5706839478433041,199.31411448015677,7148.8618242459015,286.94739467559185
34.711881281000046,33.044000000000096,199.90738994635737,7153.760003036254,300.0000000001071,-0.0003088936191122055,-79.99999999946816,6.126681277945104e-10,-1.0739270721508932e-06,-7.658351757998936e-12,-1.5706838611703886,199.26764472499707,7133.923751993297,287.17720254730733
34.880663798,33.204000000000065,199.90733054033353,7138.240003036363,300.00000000022465,-0.00030234558883019357,-79.99999999949316,6.058711198376612e-10,-1.0511659297993e-06,-7.573389152077638e-12,-1.570683779320007,199.37263924449883,7118.450994426159,287.2634683811897
35.088540782999985,33.40000000000009,199.90728249594628,7125.440003036454,300.0000000003216,-0.0002970499457713538,-79.99999999951297,5.983941159281407e-10,-1.0327534200509875e-06,-7.479926597529818e-12,-1.570683713124466,199.33870176834304,7105.054369986402,287.4618961033009
35.25703049899994,33.56700000000001,199.90723265823647,7111.92000303655,300.00000000042405,-0.00029155573988121563,-79.99999999953317,5.885952513045193e-10,-1.0136567182329693e-06,-7.35744078451674e-12,-1.57068364444689,199.30476515484452,7091.657745546646,287.66032382541056
35.46051902600004,33.75800000000004,199.90717744587639,7096.6400030366585,300.00000000053524,-0.000285470219492522,-79.99999999955519,5.762718206991062e-10,-9.924978006600584e-07,-7.203397896033008e-12,-1.5706835683778824,200.68673673786824,7075.903088972283,283.43800294784745
35.66476645800003,33.95100000000002,199.90712338626656,7081.360003036767,300.0000000006421,-0.00027951168172691713,-79.99999999957623,5.639995922695476e-10,-9.71782284079878e-07,-7.049995035067464e-12,-1.5706834938961571,200.72824391369306,7060.970301449727,283.4105820763575
35.868395308000004,34.152000000000044,199.90706990565772,7065.920003036876,300.0000000007501,-0.00027361583815664587,-79.99999999959665,5.456604387379186e-10,-9.512845768642623e-07,-6.8207556102627705e-12,-1.57068342019811,199.9205072733829,7047.716306036594,283.42663987971036
36.03935120599999,34.31200000000001,199.90702399949467,7052.400003036972,300.0000000008402,-0.00026855606964332765,-79.99999999961386,5.216871084633956e-10,-9.336933967893622e-07,-6.521088977308002e-12,-1.570683356951001,199.91355889522643,7034.397782871014,283.40428634572726
36.20904096100003,34.47000000000003,199.90698185348222,7039.760003037061,300.00000000092126,-0.00026391092756686523,-79.99999999962931,4.991207043772783e-10,-9.175420283399667e-07,-6.239008921983594e-12,-1.5706832988867223,199.90456806677943,7017.162047009669,283.37535824291945
36.45595334999996,34.70300000000009,199.90692102405714,7021.120003037194,300.0000000010332,-0.0002572050811840255,-79.99999999965115,4.6477252333119084e-10,-8.942300608461743e-07,-5.809656653083042e-12,-1.5706832150636396,199.77878012077326,7001.534026678364,284.69849672135587
36.62531081899999,34.870000000000005,199.9068793922553,7008.080003037286,300.0000000011092,-0.00025261600051377353,-79.9999999996658,4.3982220171697354e-10,-8.782718934477215e-07,-5.49777762890256e-12,-1.5706831577001292,199.7666160754641,6988.99715185437,284.74199222036754
36.80089849700005,35.03399999999999,199.90683700947847,6994.560003037382,300.0000000011801,-0.0002479436440965014,-79.99999999968041,4.1518113862158987e-10,-8.620237372778756e-07,-5.189764336356042e-12,-1.5706830992956715,199.75369254722136,6975.676722353885,284.78820618806276
36.98109164499999,35.20300000000009,199.9067954106247,6981.040003037478,300.0000000012494,-0.00024335762292384871,-79.99999999969448,3.890929526485464e-10,-8.460730258442866e-07,-4.863662007928918e-12,-1.5706830419704048,199.72666064070316,6959.555225635845,285.2851718743716
37.22476494700004,35.43400000000008,199.9067407470169,6962.880003037606,300.0000000013341,-0.00023733200536005402,-79.99999999971259,3.550636531380469e-10,-8.251125607228725e-07,-4.438295759134659e-12,-1.5706829666501823,199.71075097898125,6943.852708352764,285.36586058975206
37.42724100800001,35.62800000000004,199.90669463835226,6947.200003037718,300.00000000140056,-0.0002322497604340089,-79.99999999972754,3.253470957883221e-10,-8.074343968625063e-07,-4.0668387882254356e-12,-1.5706829031221181,200.22783871582516,6927.0658252405565,285.38883835131435
37.595988896999984,35.78399999999999,199.90665841865749,6934.640003037806,300.0000000014518,-0.00022825802344896137,-79.99999999973905,3.010868147142749e-10,-7.935527775552225e-07,-3.76358527159456e-12,-1.5706828532254038,200.2421910053571,6913.616643791772,285.45463317096056
37.80034815299996,35.976,199.90662237142996,6921.920003037896,300.0000000014963,-0.00022428522599556282,-79.99999999975026,2.779436376345377e-10,-7.797434349156249e-07,-3.474295555261523e-12,-1.5706828035654339,200.25654398602708,6900.167462342987,285.5204279906027
37.93665080300002,36.11200000000008,199.90658474186964,6908.400003037992,300.0000000015435,-0.0002201369472492318,-79.99999999976178,2.5212850853182045e-10,-7.653212956863514e-07,-3.1516064382631328e-12,-1.5706827517119475,199.77925274679905,6886.963277527053,285.2726747334201
38.13981229399997,36.305000000000064,199.90654976066205,6895.600003038083,300.0000000015808,-0.00021628142150115643,-79.99999999977231,2.2934682146286497e-10,-7.519164709866838e-07,-2.8668353470362596e-12,-1.5706827035178739,199.76789283728405,6873.564072944554,285.32191361595324
38.31581287200004,36.466999999999985,199.90650795387558,6880.000003038193,300.00000000162476,-0.00021167323833871278,-79.99999999978465,2.005643454282188e-10,-7.358969238393235e-07,-2.507054393215082e-12,-1.570682645915582,199.75586540121077,6859.376679857202,285.37404890333687
38.48637131299995,36.63600000000008,199.9064724402864,6866.480003038289,300.0000000016563,-0.00020775821489644268,-79.99999999979494,1.771467754248274e-10,-7.222874781768099e-07,-2.214334765563482e-12,-1.570682596977787,199.06285708633104,6845.349751244904,288.0371804675999
38.66677729100002,36.803,199.90643799299517,6853.120003038384,300.00000000168455,-0.0002039609910153143,-79.99999999980474,1.5356062102678757e-10,-7.090835225234233e-07,-1.9195078329650717e-12,-1.5706825495124868,199.01885104763898,6832.704205730234,288.2112805751718
38.877615625999965,37.0,199.90640497937673,6840.080003038476,300.00000000170735,-0.0002003219879670626,-79.99999999981392,1.3199239232417993e-10,-6.964294769531301e-07,-1.6499049716415398e-12,-1.5706825040249468,198.97209521524243,6819.268313620899,288.3962619394634
39.047128864,37.168000000000006,199.90637137024333,6826.560003038572,300.0000000017294,-0.00019661702092025048,-79.99999999982312,1.0891468647334434e-10,-6.835465007626452e-07,-1.3614336459954646e-12,-1.5706824577128566,199.58502380875487,6805.409694522739,286.5523327305134
39.21834159000002,37.32600000000002,199.90633413650258,6811.280003038681,300.0000000017472,-0.00019251330307890258,-79.99999999983308,8.50251170502206e-11,-6.69277225200635e-07,-1.0628140255963575e-12,-1.570682406416382,199.57266817347377,6791.988794320476,286.63140400880087
39.423206497000024,37.51400000000001,199.90630468403913,6798.960003038767,300.00000000176016,-0.00018926762736793138,-79.99999999984087,6.510671872789348e-11,-6.579920755259248e-07,-8.1383404431682e-13,-1.5706823658454336,199.56103987084185,6779.357358835992,286.7058240354212
39.55833868299999,37.64600000000007,199.90627535495366,6786.480003038856,300.00000000176743,-0.00018603485101984166,-79.99999999984847,4.698762985613335e-11,-6.467573501584122e-07,-5.873454315355311e-13,-1.5706823254357278,199.1817782502084,6765.40729097924,286.8561306151229
39.76427710500002,37.83600000000001,199.90624450942127,6773.120003038951,300.0000000017752,-0.00018263522592761408,-79.99999999985633,2.6860272376731264e-11,-6.34941410719203e-07,-3.357534608975343e-13,-1.570682282940413,199.14854964137157,6751.206902356675,286.9435415946554
39.94041764199994,37.999000000000024,199.90620348569888,6754.960003039079,300.00000000177755,-0.00017811333638090242,-79.99999999986656,1.660697276005624e-12,-6.192258992358917e-07,-2.075876938090364e-14,-1.5706822264167912,199.11162969945045,6735.428692776039,287.0406649052429
40.17781780300004,38.21900000000005,199.90617623576236,6742.640003039167,300.00000000177755,-0.0001751103320012407,-79.99999999987318,-1.5190021650847798e-11,-6.087882584359927e-07,1.8987521902474742e-13,-1.570682188879235,198.99565179795,6722.116177497582,286.58979568123243
40.34724041200002,38.38499999999999,199.9061487547545,6730.000003039257,300.0000000017748,-0.00017208102413996724,-79.99999999987978,-3.1901578770397966e-11,-5.982605662363965e-07,3.9876968487750076e-13,-1.570682151012885,198.9621229121414,6709.532568964713,286.64159511014384
40.515905603999954,38.543000000000006,199.90612005308807,6716.560003039327,300.00000000176703,-0.00016891761378337282,-79.99999999988654,-5.5410932704225476e-11,-5.872691922948974e-07,6.926366107681627e-13,-1.570682111470254,198.92649899869792,6696.162484898533,286.6966320033589
40.68522391399995,38.70300000000009,199.90608773307892,6701.120003039293,300.0000000017551,-0.0001653551708393592,-79.99999999989402,-7.63856056413307e-11,-5.748860940595794e-07,9.548200245271954e-13,-1.5706820669397157,200.6316767315719,6681.113911032836,285.61851207555605
40.89541990700002,38.90000000000009,199.90606113126978,6688.160003039264,300.00000000174,-0.00016242288077616016,-79.99999999990001,-8.577165212020547e-11,-5.646969933272294e-07,1.0721456070523613e-12,-1.5706820302860889,200.68818631451072,6666.947404357106,285.61525751142665
41.06465896899999,39.0680000000001,199.90602845946412,6671.920003039227,300.00000000172105,-0.0001588211182666773,-79.99999999990726,-9.233139408265717e-11,-5.521772947554925e-07,1.154142383489479e-12,-1.5706819852640557,200.74155696620193,6653.567925830036,285.61218375641477
