Real_time_s,Simulation_time_s,x_ft,y_ft,alt_ft,vx_fps,vy_fps,vz_fps,roll_rad,pitch_rad,yaw_rad,adsb_x_ft,adsb_y_ft,adsb_alt_ft
0.0,0.0,-199.9999986081284,9794.646701252314,299.73236734411734,0.00010424993942697971,-79.89933523894203,-4.011982797134765,2.196286429634277e-05,0.05017083078896938,-1.5706786954100491,-198.52482771483974,4272.305710669182,221.07582815982133
0.1699413019999838,0.16800000000000637,-199.99996144867808,9778.587407697376,298.918244805193,0.00017352122180324002,-79.89472187355118,-4.102755633539934,8.115597614797876e-05,0.051306955817274374,-1.5706778284301932,-198.52482771483974,4272.305710669182,221.07582815982133
0.3819885829999521,0.3690000000000282,-199.99995236007797,9760.131632400873,297.97128394802684,-0.0002802647372586709,-79.89781870070101,-4.042076888383026,0.00013174470838254462,0.05054748427993601,-1.5706835080369723,-198.52482771483974,4272.305710669182,221.07582815982133
0.625965701000041,0.6009999999999991,-200.00006310869648,9744.071623630494,297.1677417984108,-0.0010267875506512392,-79.9032892737511,-3.932546247934449,0.0001604422748003642,0.049176644554293214,-1.5706928505271698,-200.0312912240496,9791.514874576125,269.5212502084507
0.8366740049999635,0.8020000000000209,-200.00028175028226,9730.807304094635,296.52086231854383,-0.0018161790079513705,-79.90777968933524,-3.8403030030278953,0.00017404076130315014,0.04802223859507287,-1.5707027285124466,-200.01674123859712,9782.189607677901,269.9075602331979
1.0475576379999438,1.0020000000000664,-200.0008376568074,9711.868406046977,295.62400570525125,-0.003105287157229336,-79.91410642027775,-3.7064353179598406,0.00017977996252631126,0.04634702476900332,-1.5707188578041946,-200.0168193248541,9773.735751892658,270.40508466305454
1.2604731010000023,1.2010000000000218,-200.00141075218056,9698.682215009583,295.0184738199973,-0.004051849169902708,-79.91842837399892,-3.612133897342979,0.0001759021153337832,0.04516701978638392,-1.5707306997570925,-200.01708574714274,9766.488693006198,270.8516233320305
1.4297456980000334,1.3690000000000282,-200.00230527524573,9682.85785208333,294.31243631586744,-0.005180098538089529,-79.92350008560733,-3.498229013962987,0.0001644975094530657,0.04374179824457592,-1.5707448131125377,-200.1037256066391,9756.41810416763,271.26821967835
1.6412211849999494,1.5670000000000073,-200.00324286571907,9669.350413830614,293.72763807311173,-0.006099403360427054,-79.92771353519998,-3.400694109385058,0.00015032487470123743,0.042521475106848804,-1.5707563113705891,-200.11048862733662,9749.380776973396,271.72012509307166
1.8158558909999556,1.7340000000000373,-200.00430476206859,9656.161996928104,293.17262531594855,-0.006931276068559458,-79.93171229199362,-3.305468170262572,0.0001336120129840348,0.041330102160101835,-1.5707667148261875,-200.11696803281706,9742.756816852761,272.16002590147053
1.989653804999989,1.900000000000091,-200.00552158022185,9642.733122319536,292.6236220756049,-0.0076934678648223525,-79.93565654556302,-3.208768977070581,0.00011468296387744224,0.04012035752789347,-1.5707762456018917,-200.12308257457585,9729.511179868794,272.31835959935654
2.1599279339999384,2.07000000000005,-200.00711935433094,9626.825456437724,291.99430711921815,-0.00846802321687638,-79.94015083821537,-3.0949036389850266,9.096324211900196e-05,0.03869593303174262,-1.5707859293754924,-200.13042486889447,9721.570039754495,272.8128594404509
2.3706200269999727,2.2660000000000764,-200.0085709448141,9613.475128931783,291.4836123935948,-0.009000896001924368,-79.94376518268959,-3.0001967506517584,7.084776378242238e-05,0.03751123565031268,-1.570792590182875,-200.13784539892717,9713.628253349194,273.3248996277533
2.5492297869999447,2.4329999999999927,-200.01041568947923,9597.48593430569,290.8927223780869,-0.009496573787245702,-79.94789760270803,-2.888111262091577,4.7432843510222055e-05,0.03610921579375937,4.712386522798754,-200.04469267540338,9695.339666408252,272.89623065111476
2.75286607999999,2.636000000000081,-200.01269148935512,9578.697603296798,290.2268478688162,-0.009884211881254039,-79.95247189830071,-2.7587337656961606,2.1918832026256624e-05,0.0344909874146341,4.7123816812233095,-200.04261589779952,9684.011302438501,273.4855955070846
2.992939629000034,2.8700000000000045,-200.0143145815311,9565.665079467914,289.78275838440265,-0.010035803475472154,-79.95546283079918,-2.67075646975139,5.992317529757408e-06,0.03339063658031252,4.712379789884139,-200.36449675730375,9660.976127407539,272.22165912482853
3.135993505999977,3.0,-200.01567381607668,9554.870910776082,289.425707848591,-0.010095825833498953,-79.95782720397813,-2.599099822238144,-5.925202516952245e-06,0.03249444164802739,4.712379042908502,-200.38843475426248,9651.92099159524,272.5279296440612
3.3055300490000263,3.1680000000000064,-200.0177152208456,9538.719055562566,288.90936551556877,-0.010084356469203316,-79.96117364434161,-2.4941649469561407,-2.1415098756285204e-05,0.03118208979849132,4.712379191610639,-200.41385536172066,9642.299496132171,272.86683551780624
3.4853313710000293,3.336999999999989,-200.01970518253663,9522.886402674085,288.4236179107978,-0.009970999979322574,-79.96423317733274,-2.3942100984730117,-3.378035357071447e-05,0.029932069978211417,4.7123806140071345,-200.90048640300145,9609.028885259757,272.27041817788495
3.7289069900000413,3.5650000000000546,-200.02135140089797,9509.612109443358,288.0314572385767,-0.009811673293933693,-79.96663295882813,-2.3127893834784734,-4.202593923763708e-05,0.028913869924707642,4.7123826101480955,-200.95583125311887,9598.541776450998,272.54543089207226
3.8992557870000155,3.7240000000000464,-200.02289058930114,9496.977180429554,287.67066142421237,-0.009615318695195475,-79.96877925542134,-2.2374679841091676,-4.811993492836466e-05,0.027971971104594585,4.712385068818248,-201.01113812024192,9588.054343694088,272.8323079192337
4.071010212000033,3.8920000000000528,-200.02471573014535,9481.622902217046,287.2480116231712,-0.009331904077003622,-79.9712120356799,-2.1489039740881255,-5.34084187901125e-05,0.02686450441464114,4.712388616418528,-201.2588292631997,9553.736328041368,271.043292382596
4.240503839999974,4.051000000000045,-200.02626592765725,9468.18753992138,286.8919104901233,-0.009054822648961226,-79.97318856538082,-2.074163734912567,-5.632332907291876e-05,0.025929925712373212,-1.5707932232109596,-201.33017640407977,9541.044129943419,271.2300091875035
4.444218728999999,4.2409999999999854,-200.02796093332734,9452.992398678374,286.5041198032857,-0.008719814913759501,-79.97525694036841,-1.99296284472845,-5.7865897922409836e-05,0.024914586382240318,-1.5707890314022332,-201.41404917622873,9526.111770427635,271.46445809704204
4.648632723999981,4.434000000000083,-200.0293296562294,9440.276173803722,286.1912790482838,-0.008430391444111368,-79.97685778027983,-1.9277722911547395,-5.795318599940703e-05,0.024099459682255082,-1.570785410388582,-200.76421863016824,9491.796349622196,269.386938367669
4.8174149259999695,4.600999999999999,-200.0309045153449,9425.080364811707,285.8308040244936,-0.008082358598221925,-79.97862309820064,-1.8532305935536342,-5.685291840170692e-05,0.02316742823433452,-1.5707810564972498,-200.79252037560016,9476.96802011912,269.4735890315046
5.019800490999955,4.790000000000077,-200.03241348567505,9409.884235972644,285.4841964645296,-0.007739878485782871,-79.98023375506818,-1.7825059489315787,-5.4702308635528924e-05,0.022283141966270632,-1.5707767724091668,-200.82390069434763,9460.491806436181,269.5832726220433
5.222895971999947,4.9809999999999945,-200.03367181459478,9396.687361154438,285.19385484665014,-0.00745218866121863,-79.98151409822735,-1.7242155733565956,-5.219017407761936e-05,0.021554337393820316,-1.5707731739098554,-200.43057134161657,9427.703294648398,265.3592551566957
5.391649598999948,5.146000000000072,-200.03507008754067,9381.410727304217,284.8695312881295,-0.0071350577282927275,-79.9828666698141,-1.6604236044915164,-4.875849556031562e-05,0.02075675953481219,-1.5707692073518427,-200.4334426467709,9411.76555217614,265.2184439304047
5.595586256000047,5.336999999999989,-200.03621656212027,9368.373405878627,284.6021649454316,-0.006880461632992324,-79.98391734131995,-1.609126244687765,-4.553805669668801e-05,0.020115408859072637,-1.5707660230904321,-198.9564877965508,9380.57602997315,262.5247064044623
5.804418835999968,5.535000000000082,-200.03758824664416,9352.136516374434,284.2805323968377,-0.006586316191481075,-79.985100961366,-1.549303466163931,-4.135069413299855e-05,0.019367478733764237,-1.5707623443153667,-198.88061440151395,9365.714046886053,262.28160701688836
5.981043772000021,5.701000000000022,-200.0386540593345,9339.018863207462,284.02934876905493,-0.006368555312004814,-79.98596117167091,-1.5043402183895063,-3.79465396652894e-05,0.018805336029592223,-1.5707596209407892,-198.7857206779801,9347.136369506,261.98865992535684
6.183309799999961,5.897000000000048,-200.03983955607035,9323.901403038211,283.7487742210429,-0.006139929497851195,-79.9868529721869,-1.4562682225895587,-3.412322438075017e-05,0.018204333495201314,-1.5707567617595215,-198.50953787916657,9323.547147678255,261.34590639398186
6.35318788699999,6.055000000000064,-200.0408585709441,9310.463528560816,283.5067397725242,-0.005955779156407928,-79.98756350053765,-1.4167967724256354,-3.089424857576868e-05,0.017710861109930448,-1.5707544588390272,-198.41812046531,9307.305285103748,261.0880908458129
6.5237343669999746,6.215000000000032,-200.04179543683782,9297.745436803161,283.28362086203714,-0.005797815999291337,-79.98816774877884,-1.3823493813094903,-2.803895085844771e-05,0.017280203078810532,-1.5707524834432482,-198.32667862443859,9291.063332773489,260.83568294524724
6.692715204000024,6.383000000000038,-200.04292296072185,9281.987677867011,283.0144797559586,-0.005622142264327949,-79.98883184836649,-1.3434704085959397,-2.4818438652110242e-05,0.016794145710573912,-1.570750286610651,-197.35209748088823,9267.228348885255,258.6093379987333
6.8966521419999935,6.581000000000017,-200.04398461169797,9266.709735791537,282.7605498411345,-0.005471215733483381,-79.98939209407811,-1.3097785478020971,-2.2066901168328652e-05,0.016372939830349632,-1.5707483992837692,-197.2075636890784,9249.791370198554,258.2470327319046
7.099140777000002,6.771000000000072,-200.04489034587888,9253.351455114333,282.5435576336971,-0.00535324244726211,-79.98981871149456,-1.2835280207841384,-1.9975050589300718e-05,0.016044765386773848,-1.5707469240630023,-197.054978427131,9231.385597719373,257.8693663616545
7.274765298000034,6.934000000000083,-200.04593455521444,9237.59340025286,282.2929482039531,-0.005228438193633583,-79.99025215836862,-1.2562980421093797,-1.7880123430438184e-05,0.01570434803011528,-1.5707453634543596,-198.6744130076987,9215.916619555399,259.3684515808818
7.444416043000047,7.102000000000089,-200.0468012909027,9224.234989127477,282.0844807881572,-0.005133038830953112,-79.99056421283005,-1.2363226197647519,-1.6408520249419926e-05,0.015454625152496317,-1.5707441705644039,-198.62697874856363,9199.464561216755,259.12958757619464
7.625068767000016,7.2690000000000055,-200.0476425304345,9211.036513315448,281.8816106553449,-0.0050466616602597245,-79.9908254931207,-1.219346644740139,-1.5216043955274248e-05,0.015242400647198158,-1.5707430905143038,-198.57953074321065,9183.012467933782,258.8931851308294
7.800738112999966,7.432999999999993,-200.0484799312034,9197.67801756153,281.67895215512107,-0.004965820580014241,-79.99104489383319,-1.2049068943508576,-1.4252368480499507e-05,0.01506188320280253,-1.5707420797128147,-199.0299419125829,9167.988946988167,258.33115499420404
8.005418100000043,7.634999999999991,-200.04948026873055,9181.4398044141,281.43557621178746,-0.004874488832935728,-79.99125485500997,-1.1909240444258942,-1.337397516116584e-05,0.014887078137750488,-1.5707409377762027,-199.00114886786258,9146.872828509415,258.00998273621224
8.246961529000032,7.8700000000000045,-200.050428960565,9165.761497018266,281.2029962586585,-0.0047917738699517235,-79.9914011779548,-1.1810822931361669,-1.2793436991082816e-05,0.014764042836302367,-1.570739903614908,-199.50270774154802,9132.52842986904,258.5630095001535
8.41620219799995,8.031000000000063,-200.0513759490821,9149.843193721399,280.96854178485063,-0.004711526439471974,-79.99149692346485,-1.174597218272892,-1.242608806407185e-05,0.014682970688999758,-1.5707389003423566,-199.50734228473254,9117.323463263543,258.37088912185556
8.585573939000028,8.19900000000007,-200.05212122817835,9137.124540434539,280.78197320435214,-0.0046491758417378445,-79.99153660426273,-1.1718989877996027,-1.2265201782496514e-05,0.014649239212587158,-1.570738120847385,-199.5125443215893,9100.217876001214,258.1548958592703
8.787815411999986,8.389999999999986,-200.05287964379238,9124.005926890211,280.5898493733621,-0.004585785518499081,-79.9915454908293,-1.1712930177257757,-1.2194361255258521e-05,0.01464166378428948,-1.5707373283773847,-199.94049478655543,9088.988778039824,258.16621971831216
8.957418398999948,8.55600000000004,-200.05392133546394,9105.687868150446,280.32143862687104,-0.004497891439809671,-79.99150551734161,-1.1740102283681515,-1.2219705035894959e-05,0.01467563254217562,-1.5707362296126814,-199.97509747804472,9068.430358445918,257.9155240727983
9.194286835999947,8.783000000000015,-200.0546638809395,9092.409286168511,280.126290096159,-0.004434087685636273,-79.99143943471296,-1.1784904484039296,-1.2300497480519511e-05,0.014731641300561944,-1.5707354320265616,-200.00182337462957,9052.544327058313,257.7205852242124
9.363633799000013,8.941000000000031,-200.05533881428985,9080.170606174324,279.9456516381288,-0.0043749238668364145,-79.99135175660214,-1.1844076755360138,-1.240328610678309e-05,0.01480561464850719,-1.5707346924594505,-199.62681702214252,9044.052311723626,257.3380900154619
9.531984233000003,9.103000000000065,-200.05606089601184,9066.892056709125,279.74853599906334,-0.00431019931658292,-79.99122962572658,-1.192603376187722,-1.2530566437095911e-05,0.014908072128023881,-1.5707338833973017,-199.63351095215364,9027.454665279338,257.11612899968475
9.703179516999967,9.269000000000005,-200.05678070718716,9053.4535488832,279.54754053678886,-0.004244017465270375,-79.99107741375899,-1.2027403651048154,-1.266303761395057e-05,0.015034798584798762,-1.5707330561344426,-199.6401553703425,9010.948754158904,256.8931528761615
9.880819540999937,9.432000000000016,-200.0576063315844,9037.775326840296,279.3107196923679,-0.004165903935828805,-79.99086446395441,-1.2167874143746615,-1.2807044861950442e-05,0.015210406616022345,-1.5707320797451598,-198.5513221825357,8999.687171490234,253.04278815912724
10.117760090000047,9.66700000000003,-200.05840018179728,9022.417113562755,279.0758998595468,-0.004088529628580774,-79.9906209266755,-1.232647214705906,-1.2924251597794712e-05,0.015408677199392635,-1.5707311126117012,-198.4961239537933,8982.543269576568,252.595148969878
10.287038037000002,9.826000000000022,-200.05917911003675,9007.05895174593,278.83786756403435,-0.004010401878988378,-79.99034213967279,-1.2505567162689064,-1.300802275480968e-05,0.015632572762554236,-1.570730136075329,-198.46240769956214,8972.604215384126,252.61544247094642
10.490040090999969,10.017000000000053,-200.05997453156456,8991.06092788299,278.58611159867473,-0.003928462925077728,-79.99001678443672,-1.2711421034291275,-1.3053445917635357e-05,0.015889921865205586,-1.570729111914818,-198.40846708786617,8955.890846640661,252.18862973691483
10.659366965000004,10.182999999999993,-200.06058738519638,8978.50252780296,278.38549670908077,-0.0038639087110365704,-79.98973662318552,-1.2886024945808996,-1.3056027939563916e-05,0.016108204533323484,-1.570728305055872,-198.36303258972785,8941.81648189583,251.82612563298295
10.828291276999948,10.340000000000032,-200.0612053418194,8965.624216367072,278.17686273016017,-0.003797663811281246,-79.98942788480485,-1.3075758710852885,-1.3028553139934943e-05,0.01634540279643345,-1.5707274770719062,-198.3498269895373,8933.040193153996,251.29749622597532
11.002489323999953,10.502000000000066,-200.06183134914545,8952.346011658785,277.95849031340595,-0.0037294719334641053,-79.98908757444528,-1.3281779208077042,-1.296809844858196e-05,0.01660296318241947,-1.5707266247593865,-198.30604330664184,8919.250927077432,250.92098119682944
11.171416851999993,10.668000000000006,-200.06242032661498,8939.62778650429,277.7460516492268,-0.0036644224757309525,-79.98874095852815,-1.3488367778612749,-1.2881083745543904e-05,0.016861234875530165,-1.5707258117289982,-198.25951181698045,8904.59989650975,250.5171826565377
11.374909110999965,10.86099999999999,-200.06312139848615,8924.19001770656,277.48369680526423,-0.0035860161340911666,-79.98829459996202,-1.3749851555885102,-1.2739757637401954e-05,0.017188136758304582,-1.570724831762214,-199.02177894855203,8891.03914192916,250.45440245286238
11.578424125999959,11.052999999999997,-200.0637123500423,8910.912007824862,277.2539548584996,-0.003519231166151465,-79.98788923206423,-1.3983114395608087,-1.2589964458348313e-05,0.01747975892915248,-1.570723997051111,-199.0185043044113,8878.301594890316,250.11021517383506
11.747644365000042,11.20900000000006,-200.06426452880208,8898.273966471515,277.0316339807725,-0.0034563749757663188,-79.98748555549187,-1.4211580784156135,-1.2425864800022225e-05,0.01776538609768915,-1.5707232114480085,-199.01478295109828,8863.865776918732,249.7163368789149
11.917025601999967,11.37600000000009,-200.06480341341575,8885.71597741515,276.8071089087983,-0.003394701196845537,-79.98706828692829,-1.4443946619790315,-1.2245229614500188e-05,0.01805588982502715,-1.5707224406267093,-198.55429230349753,8853.981938926734,250.26338055042416
12.089192175999983,11.535000000000082,-200.0653727892992,8872.19821636648,276.56133703629985,-0.0033292659868193867,-79.98660245043929,-1.4699073278814505,-1.2034223903726838e-05,0.018374850875858426,-1.5707216227968734,-198.52654953749092,8839.807823753454,249.91101834381703
12.268141644000025,11.701999999999998,-200.06591806138863,8859.000479901932,276.3171833688959,-0.0032664513023399765,-79.98613167393474,-1.495247862382929,-1.181480645840648e-05,0.01869166179326807,-1.5707208377222583,-198.49716386837315,8824.800024007698,249.53335052689226
12.43748899100001,11.869000000000028,-200.06656202268502,8843.08331501436,276.0171248375897,-0.0031921904126421432,-79.9855447236461,-1.526254027511606,-1.1537092602673266e-05,0.019079307785151264,-1.5707199095931372,-199.6281961204797,8812.716491757335,250.81840437702866
12.642171792999989,12.068000000000097,-200.06708483844508,8829.885755632618,275.76363078622524,-0.0031319244018755553,-79.98504358671057,-1.5522375947101839,-1.1299481638292821e-05,0.019404162354382283,-1.5707191563772316,-199.65898795808272,8799.540220247556,250.55536874154328
12.81017822399997,12.221000000000004,-200.06757311430874,8817.328155784528,275.5184230533094,-0.0030757375697377837,-79.98455572812098,-1.5771195528762592,-1.1069882250242111e-05,0.0197152462085121,-1.5707184541450672,-199.6916943999706,8785.540521326768,250.2714047181251
12.979561229999945,12.389999999999986,-200.06808292863246,8803.97079324225,275.2533222736674,-0.0030171862753361,-79.98402653764377,-1.6036774584794775,-1.0824369230088522e-05,0.02004728550262952,-1.570717722362148,-199.20324057551062,8774.215013760482,250.47877067168682
13.14933389600003,12.55600000000004,-200.06858601909474,8790.5335362728,274.98215860545923,-0.0029595806759247444,-79.98348479115515,-1.6304185377714326,-1.0578142556442002e-05,0.020381617160488284,-1.5707170023989643,-199.20872704731127,8760.372032596215,250.2118934504561
13.352888810999957,12.748000000000047,-200.06915212022236,8775.096800803882,274.6650877375287,-0.002895025789096644,-79.98285269445935,-1.6610734430173613,-1.0298772975599884e-05,0.02076488445124457,-1.5707161955822757,-199.21517001626512,8744.086291078349,249.89225276418676
13.525985842999944,12.905000000000086,-200.06968883314482,8760.140080995405,274.3522271062086,-0.002834108313496137,-79.98223246924137,-1.6906113693424265,-1.0033952425913109e-05,0.021134189463214666,-1.5707154342253107,-199.54339504055199,8733.119336357417,249.54702688543455
13.72811405699997,13.103000000000065,-200.07015306560012,8746.943071395008,274.0716162569873,-0.002781638770027672,-79.9816806048473,-1.7164700876622623,-9.806376169634293e-06,0.021457496651630943,-1.57071477845024,-199.56682613180803,8718.59732634518,249.24539904847538
13.90829996299999,13.270000000000095,-200.0706224187528,8733.346247341879,273.7780691319538,-0.0027288085735518055,-79.98110909053635,-1.7428473259255381,-9.578750941504821e-06,0.021787289118759177,-1.5707141181652653,-199.59284959830953,8702.461882470276,248.90466126673047
14.081720279000024,13.432999999999993,-200.07115248988498,8717.670029759309,273.4340738199928,-0.0026694321803588977,-79.98044868243602,-1.7728370146486085,-9.326001100464175e-06,0.022162250666464583,-1.5707133760605663,-199.57350700007572,8692.55546020907,248.79586416074065
14.286020299000029,13.636000000000081,-200.07168414996093,8701.594042346385,273.0752520823739,-0.0026101565408325734,-79.97977221987975,-1.803040876769278,-9.078071440229753e-06,0.022539893180376008,-1.5707126352098957,-199.5985500800955,8675.61791260551,248.43381925240763
14.49861931299995,13.836999999999989,-200.07211175743163,8688.39743740296,272.77618767161937,-0.0025626825468965837,-79.97921945291849,-1.8273509962917425,-8.883347849392949e-06,0.022843847868658423,-1.5707120418562792,-200.1207576566405,8663.51367374575,247.65997569681798
14.674124247000009,14.0,-200.07261464597798,8672.5616309582,272.41206138968533,-0.002507056337006512,-79.97856132857633,-1.8558799693430572,-8.660033273609383e-06,0.02320055450022896,-1.5707113466058602,-200.17563450768517,8647.662233125215,247.2764666182697
14.877190552999991,14.200000000000045,-200.07310910042705,8656.64597557807,272.0404701813723,-0.002452559551393297,-79.9779080010781,-1.8837745192794315,-8.446703094568699e-06,0.02354933160511051,-1.570710665463868,-200.2222713427722,8634.188610434181,246.94615778202626
15.047550961999946,14.365000000000009,-200.0734117341823,8646.72874813832,271.8061302974207,-0.0024192978858289067,-79.97750625547408,-1.9007224076588844,-8.31928092791716e-06,0.023761239485427955,-1.570710249730113,-199.2939805248724,8623.85489435229,247.51457655333996
15.217821516999948,14.523000000000025,-200.07390077561044,8630.413415772713,271.4161117959212,-0.0023656400683690986,-79.97685543713624,-1.927866350800231,-8.117945999548889e-06,0.024100635914205935,-1.5707095790593861,-199.28980958423412,8611.23932596034,247.2396488739953
15.387866029999941,14.693000000000097,-200.07427437818163,8617.697144940572,271.1083164083396,-0.0023247378514991146,-79.97635882318527,-1.9483223594492205,-7.968007632755602e-06,0.024356411084495842,-1.5707090678141657,-199.2848486375108,8596.25843414682,246.90923945377637
15.591231837999999,14.884000000000015,-200.0746300598089,8605.38083118396,270.80712708228094,-0.0022858522955171933,-79.97588784976035,-1.9675248703434236,-7.82808607509398e-06,0.024596514396663303,-1.5707085817693027,-199.0074590203942,8580.859704082248,246.01200303357626
15.759774025999945,15.038000000000011,-200.0750090888733,8592.02490871709,270.47723386317796,-0.0022444413150973087,-79.9753889551281,-1.9876665910140483,-7.68182360357954e-06,0.024848362856559524,-1.5707080641510132,-198.98560770885135,8565.147069861117,245.6196272983773
16.005090128000006,15.268000000000029,-200.07558774083495,8571.15146906048,269.9551044714601,-0.0021812581492398125,-79.9739084233255,-2.046221600168982,-7.467213305350851e-06,0.025580533650137904,-1.5707072746232194,-198.96374728873772,8549.435365906253,245.19471457459827
16.21771985800001,15.466999999999985,-200.0759537191295,8557.636315667924,269.59832781600784,-0.002141180023147707,-79.96951536983953,-2.211013395594243,-7.3404642166074845e-06,0.027641161254717297,-1.570706774953888,-199.05544461352355,8534.943598314076,244.4325048006634
16.388127949000022,15.637000000000057,-200.07637392871158,8541.802931244889,269.1458546706723,-0.0020950678177354865,-79.96434558583695,-2.390438957842899,-7.19510056362504e-06,0.029884910045952257,-1.5707062000253407,-199.04025160382346,8519.245581455527,243.9228238772554
16.595946942999944,15.83400000000006,-200.07671924177413,8528.529253278528,268.7399378157477,-0.0020571001936168167,-79.96006056118763,-2.52953553803925,-7.074289606036834e-06,0.031624440951592676,-1.5707057265970232,-198.66775540894022,8506.312905353258,241.9697975559163
16.776327689000027,16.00100000000009,-200.07706234763816,8515.096359485482,268.30632713010914,-0.002019310796317603,-79.95582568303544,-2.659871400371779,-6.9528196707228555e-06,0.03325449798398901,-1.570705255331187,-198.63393186127942,8492.195968645132,241.38084079682326
16.945465610000042,16.169000000000096,-200.07753370486347,8496.227505493092,267.6617860045431,-0.0019673022345915083,-79.95014327804219,-2.8253286928416066,-6.783388174496869e-06,0.03532393249952362,-1.5707046066137575,-198.5907034132698,8474.158641005977,240.600537710639
17.19918954000002,16.40000000000009,-200.07791783534842,8480.477797782063,267.0951676704597,-0.0019248571318543496,-79.94572024301318,-2.9476913644577256,-6.642987317593619e-06,0.03685446406669746,-1.5707040770511087,-198.99870705465847,8462.08638414862,240.54609891712533
17.368662538999956,16.56600000000003,-200.07828044571156,8465.288514212112,266.5268460085587,-0.0018847461639428563,-79.94178547034687,-3.052421876546771,-6.508486282662e-06,0.03816451849304506,-1.5707035764839703,-198.98780058442105,8446.417800484403,239.85934760963497
17.60641414600002,16.791000000000054,-200.07863920143268,8449.940061401601,265.9333716270816,-0.0018450402828312652,-79.93818791347705,-3.145126664627661,-6.373665429152871e-06,0.039324200089646724,-1.570703080837709,-198.97688618959074,8430.74987173451,239.15576460555764
17.775734143000022,16.94900000000007,-200.07894692672184,8436.510697512642,265.4002591200943,-0.00181096862346648,-79.93537549123256,-3.2157414721039657,-6.256695711068163e-06,0.04020758463191425,-1.5707026554097103,-198.8702766159553,8419.513181381608,238.53568883952548
17.979337665999992,17.151000000000067,-200.07922934021633,8423.961040125463,264.89181484219773,-0.0017796983370920267,-79.93305176164237,-3.272932503230062,-6.148335247888824e-06,0.04092306210696406,-1.5707022648623559,-198.85597966803994,8406.250550452329,237.91332219423379
18.149692316000028,17.307999999999993,-200.07951038270016,8411.251860088776,264.36825858675684,-0.0017485729546600347,-79.93100066681588,-3.3225962773838478,-6.0396698913369795e-06,0.04154438827460675,-1.5707018760305442,-198.83999330444445,8391.428019309478,237.20767739611443
18.320778116000042,17.466000000000008,-200.07980201921242,8397.823614666473,263.8071118133218,-0.001716289172954089,-79.92918119138625,-3.3660404211256747,-5.926191211227151e-06,0.04208791594026079,-1.570701472623691,-199.64412414515436,8375.701211167843,239.3733455576798
18.523901679999994,17.669000000000096,-200.0802009516142,8379.040504684435,263.0112279324046,-0.0016721429533642026,-79.92723359681531,-3.4119309143756595,-5.769900311352634e-06,0.04266206329788634,-1.5707009208167682,-199.67585684060109,8360.07784972989,238.78977048617034
18.732380613000032,17.871000000000095,-200.08047160368037,8366.012449028456,262.4535974112509,-0.0016422174266911033,-79.92629815803649,-3.433753991172078,-5.663384761764695e-06,0.04293510216902359,-1.570700546647589,-199.98773242606228,8347.649070128542,237.83760786194028
18.912039367000034,18.033999999999992,-200.08074712331168,8352.504963247244,261.87223543365275,-0.0016117741751043575,-79.92567762245774,-3.4481553720365126,-5.554731265517591e-06,0.043115286412427505,-1.570700165912593,-200.03227427322994,8333.579020380666,237.28124502921546
19.091724063000015,18.201999999999998,-200.0810159489906,8339.07747722537,261.2924322705368,-0.0015820964299588416,-79.92540851894762,-3.4543828447858203,-5.448610667743683e-06,0.04319320244429959,-1.570699794662449,-200.07680842455855,8319.508939966952,236.72533419329406
19.261590204999948,18.369000000000028,-200.0813279787373,8323.172316521348,260.6050557324029,-0.0015476865860325215,-79.92552426132835,-3.451708150326602,-5.3255079152940866e-06,0.04315973748499127,-1.5706993641099252,-200.25949009860508,8303.95058616316,237.73681720907018
19.47257778400001,18.568000000000097,-200.08163322490046,8307.267086822176,259.9190580019039,-0.0015140638070536647,-79.9260869228623,-3.4386693441200786,-5.205323903441714e-06,0.042996600773618984,-1.5706989433001874,-200.31153710202875,8289.824115024821,237.27409060565088
19.675346720999983,18.756000000000085,-200.0818648653415,8294.958413450393,259.39044564627204,-0.001488583245574816,-79.92681736461454,-3.421668498874689,-5.114419520179858e-06,0.04278389421661234,-1.5706986243284033,-200.3664702056811,8274.9126233139,236.7905741870569
19.84474347799994,18.911000000000058,-200.08214530576385,8279.772203072132,258.7424112506441,-0.0014577650738348451,-79.9280413875288,-3.3929871934777576,-5.004825332716897e-06,0.04242505167747569,-1.5706982384692108,-199.98560860679964,8262.003623837434,236.0434417906332
20.04818392100003,19.11200000000008,-200.0824299624936,8264.026220434753,258.0769159492492,-0.0014265118128263731,-79.92965559681058,-3.3547861767584757,-4.894146766640031e-06,0.04194711300612971,-1.5706978470912838,-200.01742406122997,8246.313917593623,235.52896742832766
20.250415556000007,19.309000000000083,-200.08270151655597,8248.679543465796,257.4361923992036,-0.001396732701240111,-79.93154077331076,-3.30961490598253,-4.789167350161976e-06,0.04138198080738451,-1.5706974741126407,-200.31729256904973,8229.646637068205,235.69630147771034
20.456519746000026,19.50100000000009,-200.08293448906224,8235.250884000625,256.88306893341337,-0.0013712017414509677,-79.93341054709944,-3.264192232192392,-4.69958932793394e-06,0.04081371675536517,-1.57069715430102,-200.3576265085415,8216.572662942724,235.32144605326923
20.62575963200004,19.668000000000006,-200.0831483387431,8222.701181477374,256.37339512337144,-0.0013477898077177745,-79.93532909564993,-3.2169209567621047,-4.617832144861948e-06,0.04022233958440847,-1.5706968610033485,-200.40135765311294,8202.395659949128,234.9249959327578
20.79561631699994,19.826999999999998,-200.0834022628425,8207.513221778103,255.7669267554451,-0.0013200067864936602,-79.9378375926097,-3.154044070180945,-4.5212835907658315e-06,0.03943575359471073,-1.570696512916399,-200.04677750435735,8188.527638843539,234.55282062533885
20.965830194999967,19.98300000000006,-200.08362114024047,8194.163397790197,255.24403678540082,-0.001296069836217119,-79.94018537523554,-3.0940338240702463,-4.438526441198292e-06,0.03868505200034346,-1.570696212995653,-200.06544574758624,8176.178334567913,234.22604008966343
21.13437916999999,20.149,-200.0838232752164,8181.612595088119,254.76187891235818,-0.001273978722607139,-79.94249754497238,-3.033777559742818,-4.362484570491102e-06,0.037931294746248685,-1.5706959361891695,-200.0857857222099,8162.720359282201,233.88047307140653
21.303939984999943,20.307000000000016,-200.08402573123743,8168.8215865767415,254.28044896325125,-0.0012518585707819157,-79.94493543106833,-2.9689189932480478,-4.286686991142839e-06,0.03711999057033838,-1.5706956590108465,-200.10731795628357,8148.470251184716,233.5277403225765
21.47828477799999,20.466000000000008,-200.0842333104589,8155.470549267935,253.7892060527197,-0.0012291815237168865,-79.94754669996091,-2.8978338670271326,-4.209303083945849e-06,0.03623082766100468,-1.5706953748503096,-200.16668791144903,8136.016550929191,233.71524338354962
21.68225019900001,20.66700000000003,-200.08442622615354,8142.838619984614,253.33559945058028,-0.0012081152573874985,-79.95006490232436,-2.8275945175184525,-4.137683735895064e-06,0.03535227222760768,-1.5706951108732397,-200.1890827434556,8122.551877351358,233.43456339030752
21.852482366000004,20.826000000000022,-200.08461464490856,8130.286241319232,252.89601770500198,-0.0011875370274213833,-79.95259280400286,-2.755284905351623,-4.067924029960815e-06,0.03444785047288496,-1.5706948530150662,-199.79551540341117,8108.899608620199,233.6572603741602
22.021341182000015,20.98300000000006,-200.08485471051304,8113.975549962721,252.34196955403965,-0.001161323691119538,-79.95589195185988,-2.6579467630800515,-3.979367613352118e-06,0.03323042580203381,-1.5706945245547281,-199.7956851822173,8094.992077695553,233.42400381605884
22.225511091000044,21.187000000000012,-200.0850369777595,8101.342293004679,251.926727477447,-0.0011414218350384781,-79.95844032656217,-2.5802548659198727,-3.912308972750639e-06,0.03225875548765184,-1.5706942751892998,-199.79588297929084,8078.397245409896,233.1651176688796
22.428711733,21.377000000000066,-200.08532903203155,8080.63247755961,251.27292298177892,-0.0011095258270448518,-79.96256374271807,-2.4493279810880497,-3.805153724191988e-06,0.030621359127660366,-1.5706938755664024,-200.15476633818471,8060.095259927811,233.62008069220786
22.632726022000043,21.57000000000005,-200.08551301062093,8067.278481707798,250.86946657151344,-0.001089425404968203,-79.96516508886054,-2.3629988311846866,-3.737774119128899e-06,0.02954175583707908,-1.570693623750281,-200.17231150162652,8047.429147151337,233.49011035438494
22.811743588000013,21.73700000000008,-200.08569580308452,8053.76411869714,250.47592173075097,-0.0010694512865102252,-79.96773664083537,-2.2744402557140977,-3.670853660829207e-06,0.028434307995343917,-1.570693373534957,-200.19314269713303,8032.38766802332,233.35258741418238
23.019289107999953,21.934000000000083,-200.08593919025702,8035.37109937671,249.96455277478873,-0.0010428487423249195,-79.97111698469105,-2.152502303638767,-3.581788472489553e-06,0.026909499354615694,-1.570693040317754,-199.67311417273194,8017.631599330465,230.53648217512415
23.256416862000037,22.16700000000003,-200.08612951419974,8020.656130175163,249.57580834061454,-0.0010220431599624398,-79.97370682129736,-2.0542046580663977,-3.5121625473287223e-06,0.025680353585296547,-1.5706927797401713,-199.66258315783165,8001.842866430014,230.27592928264946
23.42549016199996,22.32000000000005,-200.08632207002324,8005.460834954274,249.19334622917944,-0.0010009845475258629,-79.97626114284283,-1.9524129423804295,-3.441694555133263e-06,0.024407557892908355,-1.570692516021209,-198.82300676472886,7985.706233960544,228.58305403065467
23.662895252999988,22.544000000000096,-200.08649002141334,7991.944621336064,248.8693349113953,-0.0009826063919557203,-79.9784230834322,-1.8619091810544752,-3.3802058408169686e-06,0.023275939374912184,-1.5706922858939567,-198.77979318309073,7974.658936530891,228.36553057104138
23.832842445999972,22.703000000000088,-200.08664520453024,7979.227854859629,248.57851593775254,-0.0009656231632812091,-79.98035784100406,-1.7770267907793778,-3.3233436347768094e-06,0.022214635117948474,-1.570692073254257,-198.71496918612024,7958.087593140404,228.0575744004997
24.00206378300004,22.87200000000007,-200.08682902366732,7963.87135964373,248.2452879302338,-0.0009454970612624786,-79.98256093452885,-1.6751495298243153,-3.2559041108374843e-06,0.02094087311902519,-1.5706918212905698,-197.525942840622,7944.118244293178,225.4142224307048
24.20986440699994,23.064000000000078,-200.0870182975788,7947.714606050185,247.91565648680998,-0.0009247636534196615,-79.98471748446387,-1.569030273996121,-3.1863534570051908e-06,0.019614110159081974,-1.570691561754721,-197.4011010672304,7929.1196014140405,225.03669241498247
24.41422509100005,23.254999999999995,-200.08721426446806,7930.597584837397,247.58982382882886,-0.0009032915269354321,-79.98681945801209,-1.4582225930909707,-3.114247183448917e-06,0.018228766723163106,-1.5706912930050745,-197.2368303804518,7909.3840628385005,224.56684423272554
24.65013326999997,23.479000000000042,-200.08736493241778,7917.159620958198,247.35044680975867,-0.0008867776053414649,-79.9883375174152,-1.3726370572996827,-3.0587244361029744e-06,0.01715878070291546,-1.5706910863366286,-196.54482968301923,7898.275353623388,224.12642740409717
24.819922021000025,23.648000000000025,-200.08750585474695,7904.3613301585865,247.13580146858123,-0.000871326097288836,-79.98967665989409,-1.2924629640746614,-3.0067145931045055e-06,0.01615646616163605,-1.5706908929822454,-196.40275830164097,7884.875950522135,223.82753641297634
24.990033755000013,23.807999999999993,-200.0876725775219,7888.923118429852,246.89382092591185,-0.000853038901934881,-79.99115591242762,-1.1976928642385318,-2.945087435983012e-06,0.014971697319123865,-1.5706906641655838,-196.25232689852112,7870.688131251486,223.52594717363377
25.164603175000025,23.966999999999985,-200.08781318043833,7875.644438399026,246.70016410942836,-0.0008376104507373592,-79.9923122305438,-1.1180400138184043,-2.8930304105270943e-06,0.013975933277532635,-1.57069047113725,-197.03854788173055,7855.318534764254,221.6936164306011
25.40160175699998,24.200000000000045,-200.08799887884362,7857.725931366334,246.45959426919768,-0.0008172300810775217,-79.99370840639666,-1.0135951757702013,-2.824187349058176e-06,0.01267025814919456,-1.5706902161798282,-196.9221061757845,7838.770501056019,221.2879108832107
25.60504559200001,24.391000000000076,-200.08815204052513,7842.60696193279,246.27458546745976,-0.0008004153809097105,-79.99474656262964,-0.928378832652257,-2.7673030435531785e-06,0.011604976520340987,-1.5706900058496829,-197.53617756390673,7822.828155676671,223.6656215218179
25.80799811199995,24.58000000000004,-200.08830440795083,7827.247820385905,246.1029021788603,-0.0007836794224621965,-79.99567768975771,-0.8446891304728148,-2.7106439166696126e-06,0.010558792220598814,-1.5706897965224282,-197.4727182823335,7807.826961671407,223.48855049585998
26.010864843000036,24.769000000000005,-200.08843435016945,7813.888431082037,245.96642770010516,-0.0007694059577687657,-79.99639165072736,-0.7744299324443228,-2.662283148738658e-06,0.009680508396552202,-1.5706896180086347,-197.4125963064564,7793.615187074996,223.33365389921119
26.18616702500003,24.934000000000083,-200.08855965054673,7800.7689219668155,245.84369279335118,-0.0007556370608557402,-79.99701183815797,-0.7077920528516332,-2.615549075905703e-06,0.008847500278033573,-1.570689445816424,-197.71760406964165,7778.755380699962,223.57819109316867
26.355256790999988,25.101,-200.08871091209323,7784.609398033294,245.70725793770978,-0.0007390095875669313,-79.99767308597434,-0.6290431858999374,-2.559076893824822e-06,0.007863106479233974,-1.57068923788888,-197.67945903039916,7765.283569690993,223.4766286301778
26.53623788799996,25.270000000000095,-200.08883053246055,7771.5696924936,245.6086015838315,-0.0007258580278822161,-79.99813025923812,-0.5683000713610268,-2.5143557883983708e-06,0.007103797425149012,-1.5706890734377437,-197.639067174238,7751.0192095009525,223.38260966963236
26.746021701000018,25.466000000000008,-200.08897440687605,7755.56996184539,245.5007893663128,-0.0007100360252163017,-79.99860641525176,-0.4972489940957508,-2.460495757845994e-06,0.006215640655973215,-1.5706888756052542,-197.4300578277568,7737.287563542712,222.48278341204008
26.915096715999994,25.634000000000015,-200.08908513903646,7743.010112967348,245.42596551480864,-0.0006978584692922718,-79.99892054896948,-0.4442651955039682,-2.419010757252973e-06,0.005553332788194524,-1.570688723348895,-197.3750137538022,7721.451060468143,222.35595492729112
27.118415811999967,25.82400000000007,-200.0892159242482,7727.890236961903,245.3466937870244,-0.0006834725536762138,-79.99923641183499,-0.38374654860002777,-2.3699813853750762e-06,0.004796840851213013,-1.5706885434887856,-199.0085236457452,7708.793799229191,225.56972313949433
27.286640767999984,25.979000000000042,-200.08932924917715,7714.53030328717,245.2859237570406,-0.0006710019690650527,-79.99946487370964,-0.3332327988817283,-2.3274420429716097e-06,0.00416541375774021,-1.5706883875810314,-199.05090181224026,7695.31649546385,225.6543160977767
27.489409402999968,26.18100000000004,-200.08945829778594,7699.0103396156655,245.2256723623332,-0.0006568001330340167,-79.99967768030493,-0.2781615993293741,-2.2789580168027266e-06,0.0034770199883832034,-1.5706882100350485,-199.0957706671561,7681.046384935274,225.75188912212377
27.658913963000032,26.340000000000032,-200.08956266838183,7686.210343692074,245.1838362700626,-0.0006453117451920563,-79.99981602901785,-0.23565471097372145,-2.239715122240843e-06,0.002945682141129025,-1.5706880664156677,-199.90962225777858,7665.3783886127185,228.4026259540582
27.86635102499997,26.533000000000015,-200.0896893084252,7670.370324503492,245.14118869490977,-0.0006313682167283849,-79.99994735871692,-0.18668041148439204,-2.1920454479200096e-06,0.002333502443469146,-1.5706878921082001,-200.0119455431104,7648.669824766575,228.7030264663135
28.071046188999958,26.721000000000004,-200.08980763175722,7655.250288116422,245.1092523562912,-0.0006183393512433431,-80.00003794413433,-0.14373051202180084,-2.1474654598135056e-06,0.001796628614974303,-1.570687729238517,-200.0899042228991,7635.939482665749,228.93790335558876
28.239968675,26.888000000000034,-200.0899046726655,7642.610248610338,245.08859362752293,-0.0006076524195689172,-80.00009200186723,-0.11064040038124497,-2.1108825592759294e-06,0.0013830025324843129,-1.570687595646798,-200.55641444033958,7622.537240208598,228.90036584339063
28.44326412999999,27.078000000000088,-200.09000422722394,7629.410201826487,245.07241817824692,-0.0005966843564937815,-80.00013107522258,-0.0787589092026729,-2.073301256239534e-06,0.0009844844339291737,-1.5706874585425195,-200.67114861395646,7607.454942282785,229.17366320218235
28.614964860999976,27.23599999999999,-200.09011722139908,7614.130144103206,245.06002442025834,-0.0005842351748611629,-80.00015845615896,-0.04532380121801506,-2.030618669110344e-06,0.0005665463324348174,-1.5706873029254993,-200.7858805902225,7592.372644942435,229.45238064176047
28.821243593999952,27.434000000000083,-200.0902335953546,7598.050082605269,245.05354103836936,-0.0005714085743556502,-80.00017135280298,-0.014018079454938007,-1.986603780569342e-06,0.00017522561607136834,-1.5706871425921536,-200.8601581998515,7576.946789891913,229.491106472021
29.02541278199999,27.637000000000057,-200.0903474140286,7581.970023137285,245.05302513542668,-0.0005588612484708044,-80.00017259157859,0.013319574463343913,-1.943494784161913e-06,-0.00016649432005533713,-1.5706869857508026,-200.97828052262085,7561.078654674378,229.77902326656394
29.236912964999988,27.83699999999999,-200.09045598921432,7566.289968962649,245.05752075250768,-0.0005468903028527007,-80.00016646013542,0.0362185539094539,-1.9023170674822107e-06,-0.0004527309509054557,-1.5706868361148238,-200.58065608728666,7545.5530751311,230.36344045688352
29.412156363999998,28.0,-200.0905643868251,7550.289918668673,245.06642537758478,-0.000534936365261436,-80.00015594803875,0.05587664582324454,-1.861165724766834e-06,-0.0006984565976592596,-1.5706866866917886,-200.66287824719382,7530.432959811634,230.66290460903429
29.648866668999972,28.224000000000046,-200.09066516184336,7535.089876095577,245.07826718824484,-0.0005238228213190942,-80.0001444982245,0.07112529093903833,-1.8228680925289907e-06,-0.0008890642966164952,-1.570686547773692,-200.7537530406885,7513.721258954182,230.9966249325724
29.85334616700004,28.412000000000035,-200.09076229876757,7520.129839167145,245.09251232641364,-0.0005131094967563004,-80.00013358693464,0.08298697891806298,-1.785927640976375e-06,-0.0010373351321936882,-1.570686413858247,-200.09262787726257,7499.565473826103,226.42362640752515
30.057411375000015,28.61099999999999,-200.09084535188987,7507.089810759794,245.10656942713823,-0.0005039455809749125,-80.00012529663398,0.09090920867912332,-1.7543113141595338e-06,-0.0011363628395487811,-1.57068629931014,-200.12793712635926,7486.070282669203,226.44529827083971
30.226227116000018,28.773000000000025,-200.09092990118845,7493.5697847411175,245.1223487052867,-0.0004946163536639779,-80.00011864858766,0.09676866858570583,-1.7220918496561985e-06,-0.001209605973377853,-1.570686182695491,-200.16739865257557,7470.987425053154,226.47018778941484
30.395832463000033,28.937000000000012,-200.0910259945842,7477.889758376926,245.14167377935598,-0.00048401156983984205,-80.00011398281814,0.10066919795489526,-1.6854350784170817e-06,-0.0012583625173197594,-1.5706860501362376,-199.58104965547383,7457.081920990552,225.41343485212974
30.59876137799995,29.138000000000034,-200.09112002688317,7462.209735350569,245.16152482959302,-0.00047363245640789117,-80.00011283738479,0.10158943135574386,-1.6495196151068138e-06,-0.0012698654182421907,-1.570685920397584,-199.58491696651822,7442.048032022048,225.37676792468537
30.80310521399997,29.335000000000036,-200.09119855663835,7448.8497177550535,245.1784219545636,-0.0004649635866108955,-80.00011461033945,0.10012071058879114,-1.6194968831365704e-06,-0.0012515064359943774,-1.5706858120367322,-198.79728108342476,7425.54320001248,224.1991792351436
30.980574785000044,29.50100000000009,-200.0912911710457,7432.7696983176975,245.1982333950338,-0.0004547378813845901,-80.00011977208099,0.09573786351418419,-1.5840503905363237e-06,-0.0011967209309438024,-1.5706856842152286,-198.75677268605475,7411.28913914075,224.09916795057853
31.195043064999936,29.703000000000088,-200.09136746394037,7419.249682924265,245.21405785117778,-0.0004463128438504163,-80.00012623972704,0.08994352305095922,-1.5548177174990423e-06,-0.001124291790276287,-1.570685578901962,-198.71851338908843,7397.82697080004,224.00344182794464
31.364759310999943,29.871000000000095,-200.09143970445047,7406.209668542153,245.22827567029722,-0.00043833599249437275,-80.00013383630093,0.08259180722729996,-1.527114945879049e-06,-0.001032395496385423,-1.5706854791909532,-199.270872631506,7385.5631661219195,223.40493864417226
31.538503053,30.033000000000015,-200.09152701475946,7390.129651019099,245.2439926776369,-0.000428693079017292,-80.00014419213096,0.07131763072161061,-1.4936070034827388e-06,-0.0008914685410676569,-1.5706853586540381,-199.26186223594482,7368.990634448515,223.24868924207314
31.776094996999973,30.258000000000038,-200.09163166905333,7370.369639893903,245.25973431248212,-0.0004171357636182713,-80.00016293007118,0.042716134092762426,-1.4541950331250315e-06,-0.0005339505379510087,-1.5706852141866072,-199.78662225444802,7347.415280275644,225.18680972535026
32.04748839399997,30.514999999999986,-200.0917428561171,7348.769661043561,245.2626387845849,-0.0004048408109898398,-80.00016521005814,-0.031137068152652256,-1.4138152770522473e-06,0.00038921252847685456,-1.570685060499874,-199.8175844739628,7327.70208422803,225.13761199922854
32.31966292499999,30.774,-200.09185586592147,7326.129688960421,245.2444981106939,-0.0003923228117829291,-80.00009762719512,-0.10606106589058777,-1.3715839745971265e-06,0.001325760928998185,-1.5706849040293491,-200.17763125581976,7302.6435823288675,226.88742950237506
32.63095872400004,31.069000000000074,-200.09194628726465,7307.489729528472,245.2139151035182,-0.0003822936307481279,-79.99999404658591,-0.16559506813314004,-1.3370858897080522e-06,0.002069935549370718,-1.570684778670925,-200.21310902985135,7290.02028791989,226.9229539159863
32.79994099299995,31.224000000000046,-200.09200628035072,7294.849771341996,245.18535161678832,-0.0003756374835435096,-79.99990175584199,-0.2047220401615859,-1.3138937114030606e-06,0.002559023058591871,-1.570684695474493,-200.2552375870484,7275.0301459951825,226.957575926424
33.00300663999997,31.416000000000054,-200.09207741109344,7279.569841613144,245.14267235482822,-0.0003677437295160008,-79.99976916828399,-0.2506047369904331,-1.2861255617173623e-06,0.0031325580044950754,-1.5706845968100627,-200.11455894467286,7258.320530131907,227.55520174077543
33.240412547000005,31.652000000000044,-200.0921596492245,7261.48995790167,245.08104610229367,-0.00035861675180401604,-79.99958646131553,-0.3027785775521947,-1.2537071303172018e-06,0.0037847337124208716,-1.570684482732747,-200.14770145655768,7242.514017091833,227.60818426798116
33.40969845799998,31.81000000000006,-200.09221627983032,7248.770064241753,245.0307210746223,-0.00035233330112427144,-79.99944371447032,-0.3380337650258824,-1.2312452176036425e-06,0.004225426297330994,-1.5706844041970642,-200.17587137867991,7229.078509425408,227.64652703881973
33.57961474000001,31.96900000000005,-200.09226323833073,7238.050170963537,244.98402468026097,-0.0003471234845480603,-79.99931580782427,-0.36679719902977703,-1.2125535399115432e-06,0.004584972071978781,-1.570684339080839,-199.9126055464221,7217.010717231817,228.5873335378018
33.748431212000014,32.13600000000008,-200.09233271835487,7221.89036345812,244.90647181788037,-0.0003394180332822967,-79.99911229891448,-0.40844269511521797,-1.1848084502818168e-06,0.005105545979999973,-1.5706842427726637,-199.92688504535556,7202.798988378128,228.66532211833172
33.96207863300003,32.339000000000055,-200.09238732091015,7208.930546763079,244.838285367003,-0.0003333662744615124,-79.99894193713881,-0.44029983379665016,-1.1629577787186527e-06,0.005503765141783788,-1.5706841671337104,-199.94037016056419,7189.376830302713,228.73344867465033
34.13405655199995,32.49700000000007,-200.09245208402072,7193.250804198359,244.74902857260335,-0.00032619256000806243,-79.99873007998373,-0.4769805595279652,-1.137037034566821e-06,0.005962280988782471,-1.5706840774718875,-200.72232293656702,7175.402684378133,230.46970065869786
34.33880631499994,32.696000000000026,-200.09250327390095,7180.611040816242,244.67193735375355,-0.0003205267208637738,-79.99855672817606,-0.5050234190697027,-1.1165590158434624e-06,0.006312822768514878,-1.5706840066564531,-200.78379516382634,7159.60733270038,230.63709230974948
34.50835756899994,32.85400000000004,-200.09256397004629,7165.331361856994,244.57296033900903,-0.00031381239674727784,-79.99834638814008,-0.5371017441459331,-1.0923160885245127e-06,0.006713809701951209,-1.5706839227361975,-200.78138786090946,7144.9876126549025,230.66117080926065
34.711881281000046,33.044000000000096,-200.0926267843276,7149.171742869101,244.4618170590186,-0.0003068674363164496,-79.99812560636012,-0.5688523549065163,-1.0672989757382819e-06,0.007110701195899545,-1.57068383593298,-200.83646833005517,7129.9398559947485,230.8026580150073
34.880663798,33.204000000000065,-200.0926752445918,7136.452072597441,244.36991624754546,-0.0003015139346205404,-79.99795500767061,-0.5922201331024621,-1.0480513762873847e-06,0.007402805669367425,-1.5706837690206754,-200.89154765854332,7114.8921337174,230.93937830598205
35.088540782999985,33.40000000000009,-200.0927332295959,7120.932509500439,244.2528957185176,-0.0002951118058027466,-79.9977525538031,-0.6188164514309192,-1.0250954624074622e-06,0.007735268672638809,-1.5706836890013518,-199.85363267591637,7102.125676450226,228.97106800589822
35.25703049899994,33.56700000000001,-200.09278274159487,7107.412920028707,244.14688345963995,-0.0002896471636738192,-79.9975826890482,-0.6402895320932168,-1.0055686308324901e-06,0.008003690091552622,-1.5706836206990902,-199.8466041776699,7088.722607457089,228.97794919726527
35.46051902600004,33.75800000000004,-200.0928378769239,7092.053418924399,244.02217150643327,-0.00028356660481720745,-79.99739906579468,-0.6627170873499996,-9.83900768573149e-07,0.00828404342240086,-1.5706835446979408,-199.838334208353,7072.954322680138,228.98205581574933
35.66476645800003,33.95100000000002,-200.09289157601592,7076.77394753837,243.8939912108609,-0.0002776474956423959,-79.99722763598454,-0.6829938595297484,-9.628918846697107e-07,0.008537511678307838,-1.5706834707141044,-198.49995924261563,7058.138175048218,225.0354120534831
35.868395308000004,34.152000000000044,-200.09293542262495,7064.054410558746,243.7844333763967,-0.00027281640908417116,-79.99709447028447,-0.6983408272455489,-9.457947884052087e-07,0.008729355653906189,-1.5706834103291039,-198.4163483036577,7043.149723716564,224.8081122814063
36.03935120599999,34.31200000000001,-200.09297850640294,7051.33489295246,243.67252011212494,-0.00026806980491058286,-79.9969705289015,-0.7123294145124907,-9.290488228254033e-07,0.008904219547196121,-1.5706833509995852,-198.34153763851774,7029.739023853938,224.60239867704294
36.20904096100003,34.47000000000003,-200.09304029522227,7032.695631561738,243.5047278714963,-0.00026126629416503664,-79.99680720648571,-0.7303592625737585,-9.051299773491274e-07,0.009129601495829677,-1.5706832659591443,-199.23699464406533,7011.401273003452,225.73478007264853
36.45595334999996,34.70300000000009,-200.09309233723076,7016.6162956797525,243.35680473556184,-0.00025553667550461595,-79.99668436031507,-0.7436346472120681,-8.850483137181209e-07,0.00929555061629576,-1.5706831943409547,-199.20860954031414,6996.34049928427,225.57729940153857
36.62531081899999,34.870000000000005,-200.0931336994357,7003.576850128205,243.23499084879865,-0.00025098420198610384,-79.9965976604823,-0.7528625768521743,-8.691399653590972e-07,0.009410904625253961,-1.5706831374360752,-199.63720359376268,6983.498163841502,226.7488105522146
36.80089849700005,35.03399999999999,-200.09316764829066,6992.697322106316,243.13226360870678,-0.0002472477808954838,-79.9965341984646,-0.7595477907484207,-8.561032578948641e-07,0.009494473417706642,-1.5706830907312752,-199.63550446777873,6970.792004629279,226.67787468488908
36.98109164499999,35.20300000000009,-200.09322560548543,6973.738161633846,242.95125360877935,-0.00024086980150400688,-79.99644328229628,-0.7690243284549324,-8.338987448042263e-07,0.009612935383348958,-1.5706830110064973,-199.63327338873847,6954.115180494294,226.58359323747464
37.22476494700004,35.43400000000008,-200.09327098260368,6958.538846973894,242.80467836090173,-0.00023587788954604715,-79.99638868365105,-0.7746584490295061,-8.165511596233916e-07,0.009683365074484194,-1.5706829486068332,-199.88376475668218,6939.619230882127,228.21839301800676
37.42724100800001,35.62800000000004,-200.09331472460508,6943.579528965084,242.65949588268012,-0.0002310668560236151,-79.99635054124244,-0.7785704894320635,-7.99863146055214e-07,0.00973226781858785,-1.5706828884675748,-199.89626016181072,6924.546494343228,228.23056329690914
37.595988896999984,35.78399999999999,-200.09335098791257,6930.940108895201,242.53633883064668,-0.0002270771540745534,-79.99632982932644,-0.7806872508784775,-7.860416908359765e-07,0.0097587285572186,-1.5706828385947578,-199.90809712067966,6910.267060671095,228.2418753108002
37.80034815299996,35.976,-200.09338931036078,6917.340734641809,242.40353564461782,-0.00022286190072743066,-79.9963193247114,-0.7817593348877192,-7.714569837985433e-07,0.009772130227307926,-1.5706827859020374,-200.83311326079004,6897.839152885509,226.64213447027745
37.93665080300002,36.11200000000008,-200.09342472503292,6904.541323553746,242.27844560390974,-0.00021896631029054116,-79.99632019430815,-0.7816717326960914,-7.579837742957202e-07,0.009771035147881085,-1.5706827372048848,-200.8910714216659,6884.3503377505185,226.5706911356756
38.13981229399997,36.305000000000064,-200.09345995226704,6891.581918108382,242.1518718394281,-0.00021509076389307843,-79.99633117501824,-0.7805531302072718,-7.445872320794329e-07,0.009757051967427119,-1.5706826887579552,-200.95925664824347,6868.481137475303,226.48713094448453
38.31581287200004,36.466999999999985,-200.09349582791194,6878.142531169773,242.02087029123797,-0.0002111442639763215,-79.99635293431254,-0.7783303240360732,-7.309518260286562e-07,0.009729265607422547,-1.5706826394237243,-199.8176296992219,6857.731990901012,225.94667184208427
38.48637131299995,36.63600000000008,-200.09353809367707,6861.983261233015,241.8639546983286,-0.00020649402173483108,-79.99639216387699,-0.7743062371523366,-7.14885769026128e-07,0.009678962218867278,-1.570682581291778,-199.81485493797717,6844.325948595958,225.85272157866447
38.66677729100002,36.803,-200.09357151777084,6848.943842912294,241.73800192534955,-0.0002028168366639469,-79.99643370770062,-0.7700222347785622,-7.021801014649832e-07,0.009625409764777685,-1.5706825353235736,-199.81191627270675,6830.131305377918,225.75421072959819
38.877615625999965,37.0,-200.09360514626647,6835.5844304981465,241.6097393482982,-0.00019911684488948405,-79.99648463802828,-0.764736903499855,-6.893983189416861e-07,0.009559340171993036,-1.5706824890700282,-199.23918631225976,6816.407290047781,227.28255670592625
39.047128864,37.168000000000006,-200.09363659181537,6822.864980801204,241.48849484551,-0.0001956576890255904,-79.99654058458988,-0.7588899534425094,-6.774442376944554e-07,0.009486250078530111,-1.570682445826968,-199.20556533233056,6802.1361079774415,227.2731015305172
39.21834159000002,37.32600000000002,-200.09367345189492,6807.665625220635,241.34490207199028,-0.00019160259982354503,-79.99661596851159,-0.7509399729580056,-6.634331652201123e-07,0.009386871029355563,-1.5706823951339017,-199.18971577639226,6789.16961306376,225.08302779535438
39.423206497000024,37.51400000000001,-200.09370446561655,6794.626165492562,241.22297077839076,-0.00018819034220505254,-79.99668728951579,-0.743339324445685,-6.516457726906625e-07,0.009291858907370627,-1.5706823524767781,-199.15953627850087,6776.035023002995,224.96339063503873
39.55833868299999,37.64600000000007,-200.09373381382983,6782.066673930253,241.10674306923167,-0.00018496190561283766,-79.99676130659324,-0.7353699946462166,-6.404875776065108e-07,0.009192238164039131,-1.5706823121175089,-199.12862902842767,6762.583923066758,224.8423066660586
39.76427710500002,37.83600000000001,-200.0937639349888,6768.947191813871,240.98670328007316,-0.00018164774738762052,-79.99684336831622,-0.7264308780976697,-6.29039875135596e-07,0.009080494696470678,-1.570682270686523,-199.62708755051924,6746.9155322967945,225.87172025868304
39.94041764199994,37.999000000000024,-200.09380544883106,6750.46789691319,240.8201955185174,-0.00017707993566095975,-79.99696614468652,-0.712847795622555,-6.132525561671493e-07,0.008910699530681817,-1.5706822135832241,-199.6238255001121,6730.976958761464,225.805394973699
40.17781780300004,38.21900000000005,-200.09383254107013,6738.148350323096,240.71098376103694,-0.000174099654402995,-79.9970520058259,-0.7031968209744606,-6.029513809378552e-07,0.00879005778821699,-1.5706821763259584,-199.62105218853407,6717.429153726735,225.75096404477745
40.34724041200002,38.38499999999999,-200.0938595204268,6725.668795598306,240.60189451959909,-0.0001711316697086396,-79.99714154166485,-0.6929896932814361,-5.926956975455354e-07,0.008662464011250986,-1.570682139222387,-200.21751435917088,6704.470024815547,226.47838798730749
40.515905603999954,38.543000000000006,-200.09388856975767,6711.989267213138,240.48416032227718,-0.00016793470464536306,-79.9972419195382,-0.681360315736714,-5.816485682418496e-07,0.008517091637426186,-1.5706820992562602,-200.24793299493248,6690.095907868182,226.4679816807325
40.68522391399995,38.70300000000009,-200.09392053725517,6696.629775534433,240.35438853114402,-0.00016441748010577825,-79.9973569560228,-0.6677893185064485,-5.694875765320466e-07,0.008347448382621725,-1.5706820552864804,-200.27835109061675,6675.721772423262,226.45975851464976
40.89541990700002,38.90000000000009,-200.09394715073637,6683.590189337766,240.24628648933214,-0.00016148921741479308,-79.9974558158107,-0.6559023739082833,-5.593708677094328e-07,0.008198856704790689,-1.5706820186794914,-199.07254246071093,6661.790985233961,222.4838213546229
41.06465896899999,39.0680000000001,-200.0939742450602,6670.070601095721,240.136264650895,-0.0001585075358717423,-79.99755888760878,-0.6432739270026221,-5.490611027065062e-07,0.008040996146626175,-1.5706819814047326,-199.04114885256357,6649.854813997376,222.29882558055107
41.23457908900002,39.22500000000002,-200.0940041065996,6654.8710428036575,240.01515629823126,-0.0001552220925983921,-79.99767496820752,-0.6287546662466812,-5.37699055996415e-07,0.0078594999169541,-1.570681940332622,-198.99510424862953,6632.348406157982,222.03045561225736
41.43804055099997,39.41700000000003,-200.09403395926194,6639.35147087231,239.89436294932526,-0.00015193751287909875,-79.9977929139007,-0.6136505172232591,-5.263513061650066e-07,0.007670692642736685,-1.57068189927138,-200.4088181583871,6618.721742547505,224.00681105537285
