Real_time_s,Simulation_time_s,x_ft,y_ft,alt_ft,vx_fps,vy_fps,vz_fps,roll_rad,pitch_rad,yaw_rad
0.0,0.0,-5.121649235062911e-06,4015.8400000000356,280.00000000015297,1.1793723172902315e-05,24.38399999999715,2.9030827905169475e-10,5.393427281445596e-05,-1.1905688735499177e-11,1.5709121699254103
0.1699413019999838,0.16800000000000637,1.4642918789087993e-05,4029.2800000000657,280.0000000005985,0.0001004651961376569,24.38399999979304,7.32675628516774e-10,9.023562388060922e-05,-3.0047393589362984e-11,1.570908533466162
0.3819885829999521,0.3690000000000282,0.0001240042486974724,4045.3599999997,280.00000000144865,0.00028421265030599465,24.383999998343665,1.0700158376048572e-09,0.00012255461564017074,-4.388188487439767e-11,1.5709009978931205
0.625965701000041,0.6009999999999991,0.0004258280235293619,4063.9199999972575,280.0000000024727,0.000567900369692198,24.383999993386855,9.435639051644525e-10,0.00014425617467382211,-3.869602769181017e-11,1.5708893637194523
0.8366740049999635,0.8020000000000209,0.000874073579710438,4079.999999991038,280.00000000305937,0.0008491101853593867,24.383999985215972,4.2675472437847505e-10,0.00015199539459882718,-1.750142531711709e-11,1.5708778311651335
1.0475576379999438,1.0020000000000664,0.0015091348973305244,4095.999999978453,280.00000000313463,0.0011416816674589393,24.383999973272715,-3.6227398582342015e-10,0.00015157461012192563,1.4857036635023205e-11,1.570865832662782
1.2604731010000023,1.2010000000000218,0.00233217996729043,4111.91999995718,280.00000000258973,0.0014303613336482507,24.383999958047628,-1.2722583714534679e-09,0.00014488408052069034,5.217595156110661e-11,1.570853993765408
1.4297456980000334,1.3690000000000282,0.003171763085371893,4125.359999930991,280.0000000016271,0.0016635694655039003,24.38399994325248,-2.0374751134997154e-09,0.00013556326527118626,8.355787225057098e-11,1.5708444297831727
1.6412211849999494,1.5670000000000073,0.004322109778748591,4141.199999889254,279.99999999994446,0.0019183936464225624,24.383999924535903,-2.8537965073853294e-09,0.00012146302167375573,1.1703562170637576e-10,1.5708339793157304
1.8158558909999556,1.7340000000000373,0.0054163778828336265,4154.5599998444795,279.9999999981429,0.0021122402980395497,24.383999908514657,-3.403779139815715e-09,0.00010782998171090517,1.3959068436878797e-10,1.5708260295671892
1.989653804999989,1.900000000000091,0.006604936000681526,4167.839999791342,279.99999999608724,0.002283140461188325,24.38399989311172,-3.829531277169862e-09,9.336670323623888e-05,1.5705099245014956e-10,1.5708190208655306
2.1599279339999384,2.07000000000005,0.00791331259601593,4181.439999728421,279.99999999378394,0.002434281812155166,24.38399987849154,-4.126959520349891e-09,7.81669170013795e-05,1.6924867377135803e-10,1.5708128224825844
2.3706200269999727,2.2660000000000764,0.00951914352523957,4197.119999646192,279.9999999909881,0.0025775105310596493,24.383999863772225,-4.2945578399906425e-09,6.0766088328598634e-05,1.7612196547833205e-10,1.5708069486004916
2.5492297869999447,2.4329999999999927,0.010953934236419263,4210.479999569136,279.99999998857146,0.002673815145486355,24.383999853402173,-4.304782111324785e-09,4.646294932774176e-05,1.765412685153121e-10,1.5708029990994954
2.75286607999999,2.636000000000081,0.012761127309205962,4226.719999468607,279.9999999856836,0.0027602690358411596,24.38399984376886,-4.187356799320914e-09,3.0130431123820107e-05,1.717255979174256e-10,1.5707994535815013
2.992939629000034,2.8700000000000045,0.01490354278879552,4245.439999345999,279.9999999825166,0.0028209699714223852,24.383999836821953,-3.932385914592193e-09,1.3173308350321055e-05,1.6126911486404055e-10,1.570796964204988
3.135993505999977,3.0,0.016110328048523227,4255.839999275996,279.9999999808602,0.002838134779831973,24.383999834830124,-3.759528300382831e-09,4.744281031728549e-06,1.5418013787645674e-10,1.5707962602672072
3.3055300490000263,3.1680000000000064,0.017677577295966224,4269.279999184615,279.99999997884186,0.002844947708839177,24.38399983403619,-3.5070983073864883e-09,-5.04863452935819e-06,1.4382785828711563e-10,1.5707959808650918
3.4853313710000293,3.336999999999989,0.019254348912959827,4282.799999092666,279.9999999769599,0.002835988272450292,24.38399983507986,-3.236686003995091e-09,-1.361758209059444e-05,1.3273811476128568e-10,1.5707963482956115
3.7289069900000413,3.5650000000000546,0.02136724168947171,4301.0399989702955,279.9999999746669,0.0028022708945918524,24.383999838978063,-2.8681672318936847e-09,-2.3146295488558543e-05,1.1762497625183424e-10,1.5707977310616086
3.8992557870000155,3.7240000000000464,0.02282263350365259,4313.759998887022,279.99999997323096,0.00276664091688951,24.383999843046727,-2.621510821539137e-09,-2.8476995232792255e-05,1.0750947361024932e-10,1.5707991922644853
4.071010212000033,3.8920000000000528,0.024338272897310265,4327.199998801553,279.9999999718507,0.0027201763122829572,24.38399984827438,-2.3751352973478723e-09,-3.2999172777396665e-05,9.740549039821255e-11,1.5708010978008842
4.240503839999974,4.051000000000045,0.025747535152869466,4339.9199987234915,279.9999999706645,0.0026695355508726507,24.383999853871064,-2.1533711568590444e-09,-3.631204078958626e-05,8.831083218144883e-11,1.5708031746036033
4.444218728999999,4.2409999999999854,0.0273952423512513,4355.119998634202,279.9999999693901,0.002602585821036613,24.38399986110875,-1.907262687224284e-09,-3.9138127485810046e-05,7.821780101732864e-11,1.5708059202452755
4.648632723999981,4.434000000000083,0.02902478273588282,4370.559998548198,279.99999996824835,0.0025295518372555935,24.383999868794547,-1.674752456006009e-09,-4.0914005593569676e-05,6.868244037063929e-11,1.5708089154052913
4.8174149259999695,4.600999999999999,0.030396868407798993,4383.919998477726,279.99999996737347,0.002463827287616932,24.38399987552413,-1.4876291369513566e-09,-4.1683987186685e-05,6.100841968049195e-11,1.5708116108018175
5.019800490999955,4.790000000000077,0.03190563548109756,4399.039998402451,279.99999996650166,0.002388078474569191,24.383999883060348,-1.287117293530624e-09,-4.1808224999914205e-05,5.278532887276568e-11,1.5708147172984188
5.222895971999947,4.9809999999999945,0.03338256054156749,4414.319998331056,279.99999996574275,0.002311451052500642,24.383999890444553,-1.0951090389504702e-09,-4.128092965611293e-05,4.491097450596876e-11,1.5708178598272464
5.391649598999948,5.146000000000072,0.03461998420682554,4427.519998273054,279.99999996518113,0.0022460834520936133,24.383999896553387,-9.349111905337277e-10,-4.0402977815832946e-05,3.834118070776549e-11,1.5708205405851883
5.595586256000047,5.336999999999989,0.036008497167427524,4442.79999820999,279.9999999646376,0.0021722320216445187,24.383999903244252,-7.535668298924096e-10,-3.901191294135883e-05,3.090415794229423e-11,1.5708235692692585
5.804418835999968,5.535000000000082,0.03739980269055297,4458.639998148879,279.9999999641905,0.002098431696431258,24.383999909707025,-5.713562995730622e-10,-3.72589937545826e-05,2.3431612993483637e-11,1.5708265958574943
5.981043772000021,5.701000000000022,0.03852988076279096,4471.919998100817,279.99999996390665,0.002039138113921677,24.38399991473762,-4.192135188144897e-10,-3.5626516994846965e-05,1.719216159069988e-11,1.5708290275169718
6.183309799999961,5.897000000000048,0.03982336912223199,4487.599998047482,279.9999999636781,0.001972536241265738,24.383999920216326,-2.417319058570452e-10,-3.358955766802423e-05,9.913551936687392e-12,1.5708317588930911
6.35318788699999,6.055000000000064,0.04083546559896442,4500.239998006959,279.99999996357656,0.0019216642302338305,24.38399992427856,-1.0184773381987814e-10,-3.1913169992393464e-05,4.176832047142172e-12,1.5708338451797226
6.5237343669999746,6.215000000000032,0.04183404853759543,4513.039997968001,279.99999996354757,0.0018727008298325886,24.383999928088127,3.813060255755829e-11,-3.0222519846755994e-05,-1.5637493842944172e-12,1.570835853193285
6.692715204000024,6.383000000000038,0.042855594821886944,4526.479997929181,279.9999999635945,0.0018241079256501814,24.383999931771683,1.809554777653846e-10,-2.8486863327928733e-05,-7.421068960896098e-12,1.5708378460126056
6.8966521419999935,6.581000000000017,0.044026023599519654,4542.319997885919,279.9999999637529,0.0017704042781124822,24.38399993573,3.4777962131673947e-10,-2.6528709641746198e-05,-1.4262610584825125e-11,1.5708400484260756
7.099140777000002,6.771000000000072,0.045117174110827156,4557.519997846759,279.99999996400646,0.0017223772073198078,24.383999939169744,5.056681244535409e-10,-2.4767696287310278e-05,-2.0737697002391514e-11,1.570842018040293
7.274765298000034,6.934000000000083,0.04603003929947992,4570.559997814827,279.99999996430256,0.0016837103700703287,24.38399994187037,6.380434422851425e-10,-2.33653942646369e-05,-2.6166474973986242e-11,1.5708436037866456
7.444416043000047,7.102000000000089,0.04694982293868101,4583.9999977833495,279.9999999646788,0.0016461243136612804,24.383999944436734,7.67834453127518e-10,-2.202997954159284e-05,-3.14892692880619e-11,1.5708451452096335
7.625068767000016,7.2690000000000055,0.047844057538636534,4597.359997753455,279.99999996512423,0.0016108912094057203,24.383999946789807,8.912525787220143e-10,-2.082062047534719e-05,-3.65507083793955e-11,1.5708465901368736
7.800738112999966,7.432999999999993,0.04870382228763714,4610.479997725312,279.9999999656268,0.0015781783722122434,24.38399994892898,1.0087414636696764e-09,-1.974720478853544e-05,-4.136898643946111e-11,1.5708479317066977
8.005418100000043,7.634999999999991,0.049739259164749014,4626.639997692151,279.99999996633017,0.0015401703328542227,24.3839999513593,1.1439103693073029e-09,-1.8576688111754286e-05,-4.6912330933150757e-11,1.5708494904354082
8.246961529000032,7.8700000000000045,0.05091303754742317,4645.439997655506,279.99999996725813,0.0014987367802591907,24.38399995394117,1.2904534750357872e-09,-1.7415747376261056e-05,-5.29221370892274e-11,1.5708511896461248
8.41620219799995,8.031000000000063,0.05169908877645059,4658.3199976315245,279.99999996795947,0.0014718579821098843,24.383999955578425,1.3835052254730684e-09,-1.673671611375678e-05,-5.673823598993134e-11,1.570852291959078
8.585573939000028,8.19900000000007,0.05250448593299559,4671.759997607392,279.99999996874016,0.0014449097752377404,24.38399995719017,1.4741788259458167e-09,-1.611881604916514e-05,-6.045680583318693e-11,1.5708533971185135
8.787815411999986,8.389999999999986,0.05340234881728008,4687.039997580995,279.999999969688,0.0014154796998391028,24.38399995891634,1.5675258252998515e-09,-1.5519248825467095e-05,-6.42850130834244e-11,1.5708546040606148
8.957418398999948,8.55600000000004,0.05416795925686251,4700.319997558916,279.9999999705552,0.001390777012085403,24.383999960337807,1.6424510939124174e-09,-1.507523430039322e-05,-6.735773592199206e-11,1.5708556171301828
9.194286835999947,8.783000000000015,0.05519342211124877,4718.4799975299675,279.99999997180583,0.0013581171766179334,24.383999962178734,1.7354556416588807e-09,-1.45692408410659e-05,-7.117189911100714e-11,1.5708569565263504
9.363633799000013,8.941000000000031,0.055892967160016085,4731.119997510635,279.9999999727173,0.0013360293977435294,24.383999963398956,1.7935650727158536e-09,-1.427573150769709e-05,-7.355499608258342e-11,1.5708578623571932
9.531984233000003,9.103000000000065,0.05659844975338456,4744.0799974914535,279.99999997368127,0.0013138393383063391,24.383999964604687,1.8467695670797697e-09,-1.4014637896820071e-05,-7.573693915061456e-11,1.5708587723826113
9.703179516999967,9.269000000000005,0.0573092371418323,4757.359997472412,279.99999997469666,0.0012915162223853759,24.38399996579725,1.892328050205402e-09,-1.378290411963061e-05,-7.760531546660061e-11,1.5708596878647407
9.880819540999937,9.432000000000016,0.057995407371854504,4770.399997454318,279.9999999757163,0.0012699546693421162,24.383999966929736,1.9299916278515418e-09,-1.358382796854265e-05,-7.914991778462476e-11,1.5708605721147948
10.117760090000047,9.66700000000003,0.05896458209924971,4789.199997429291,279.99999997721915,0.0012394035333310332,24.383999968501747,1.974295866391574e-09,-1.3333967148641464e-05,-8.09668569813442e-11,1.5708618250321325
10.287038037000002,9.826000000000022,0.059606998597717904,4801.919997413078,279.99999997825427,0.0012190527810931433,24.383999969527657,1.999803991961347e-09,-1.3183196326026807e-05,-8.201295812193125e-11,1.5708626596266388
10.490040090999969,10.017000000000053,0.06036474134545911,4817.199997394304,279.99999997951454,0.0011949075333480277,24.383999970722833,2.023386836531333e-09,-1.3014564119782885e-05,-8.298010257303803e-11,1.5708636498352997
10.659366965000004,10.182999999999993,0.061011107656624326,4830.47999737861,279.9999999806199,0.0011741703177332488,24.38399997173021,2.0387604057694895e-09,-1.287474980253412e-05,-8.361058050201714e-11,1.5708645002788613
10.828291276999948,10.340000000000032,0.061612034811640404,4843.039997364246,279.9999999816729,0.0011547654872995276,24.383999972656888,2.047317510705943e-09,-1.2745335194782952e-05,-8.396151181029479e-11,1.5708652960806417
11.002489323999953,10.502000000000066,0.06222169133170229,4855.999997349901,279.99999998276047,0.0011349454045846345,24.38399997358747,2.050059046170078e-09,-1.261222520034562e-05,-8.407394371957714e-11,1.5708661089121252
11.171416851999993,10.668000000000006,0.06283553447864493,4869.279997335717,279.999999983875,0.0011148490272018072,24.38399997451456,2.0484260402525985e-09,-1.2474290592746319e-05,-8.400697350429478e-11,1.5708669330745912
11.374909110999965,10.86099999999999,0.06353550271534635,4884.719997319854,279.99999998517075,0.0010917631003517611,24.383999975559135,2.039923434239981e-09,-1.230995396690217e-05,-8.365827758288053e-11,1.5708678798399733
11.578424125999959,11.052999999999997,0.06421740949586688,4900.079997304713,279.99999998645245,0.0010691006783048376,24.383999976563278,2.0240735992967703e-09,-1.2140673332744838e-05,-8.300826812784672e-11,1.570868809237212
11.747644365000042,11.20900000000006,0.06476097276311431,4912.559997292882,279.9999999874841,0.001050916496117011,24.383999977353774,2.0076022663437893e-09,-1.1998197724384887e-05,-8.233277069418258e-11,1.5708695549796
11.917025601999967,11.37600000000009,0.06533265578648269,4925.919997280653,279.99999998857885,0.0010316880842600944,24.38399997817492,1.9856291096103965e-09,-1.1840497262503362e-05,-8.14316407180495e-11,1.5708703435463673
12.089192175999983,11.535000000000082,0.06586717652808997,4938.639997269422,279.999999989609,0.0010136170135404173,24.383999978932806,1.96088305280127e-09,-1.1685379395759637e-05,-8.041679271305355e-11,1.5708710846499974
12.268141644000025,11.701999999999998,0.0664185272820774,4951.999997258039,279.99999999067734,0.0009948880558562905,24.383999979704157,1.930544590708584e-09,-1.151740001414781e-05,-7.917259737554353e-11,1.570871852733901
12.43748899100001,11.869000000000028,0.0669596734568655,4965.359997247057,279.99999999172684,0.0009764295260229382,24.383999980450305,1.8957163337291483e-09,-1.1344597573561069e-05,-7.774427331631016e-11,1.5708726097274235
12.642171792999989,12.068000000000097,0.06759138820257127,4981.279997234527,279.99999999295136,0.0009547972993357324,24.383999981306946,1.8512287767048724e-09,-1.1133099195458698e-05,-7.59198165446357e-11,1.5708734968758389
12.81017822399997,12.221000000000004,0.0680674767387411,4993.5199972252785,279.99999999387353,0.0009384429867375267,24.38399998194184,1.8129679942899348e-09,-1.0966966624450741e-05,-7.435072288558168e-11,1.5708741675743634
12.979561229999945,12.389999999999986,0.06858395036790277,5007.039997215426,279.9999999948694,0.0009206619663233375,24.38399998261967,1.7663902739845095e-09,-1.0780692510329663e-05,-7.244054743674221e-11,1.570874896782887
13.14933389600003,12.55600000000004,0.06908170285816938,5020.3199972060975,279.99999999582036,0.0009034889451645334,24.38399998326203,1.715990471189758e-09,-1.0595526067879987e-05,-7.037362647509997e-11,1.5708756010570584
13.352888810999957,12.748000000000047,0.06964581632971216,5035.679997195744,279.999999996886,0.0008839981741666003,24.383999983976427,1.6550021552717263e-09,-1.037951895627976e-05,-6.787246531811527e-11,1.570876400383308
13.525985842999944,12.905000000000086,0.070098026496211,5048.239997187591,279.9999999977274,0.0008683534919993213,24.383999984538573,1.6022960176066478e-09,-1.0202209842764457e-05,-6.571096039277173e-11,1.5708770419795353
13.72811405699997,13.103000000000065,0.07065696317946343,5064.07999717773,279.99999999875064,0.000849009450431689,24.383999985219763,1.5338760000538255e-09,-9.978614655006466e-06,-6.290502142635167e-11,1.5708778352883375
13.90829996299999,13.270000000000095,0.07111870602684747,5077.439997169763,279.99999999957896,0.0008330203502154551,24.383999985771236,1.4746981233536596e-09,-9.790722644768816e-06,-6.047810723627898e-11,1.5708784910093208
14.081720279000024,13.432999999999993,0.07156098497467521,5090.479997162273,280.000000000356,0.0008177060853934519,24.383999986289602,1.4157678465194354e-09,-9.608483695612524e-06,-5.806134723906149e-11,1.5708791190549674
14.286020299000029,13.636000000000081,0.07210048074025067,5106.7199971533,280.0000000012788,0.0007990291516715506,24.383999986908776,1.339211589410239e-09,-9.38383349791113e-06,-5.492173701232821e-11,1.570879885005345
14.49861931299995,13.836999999999989,0.07262251227748244,5122.799997144815,280.0000000021424,0.0007809677326433309,24.38399998749393,1.2617561575315475e-09,-9.164624559585023e-06,-5.174525115964941e-11,1.5708806257131576
14.674124247000009,14.0,0.07303715774435393,5135.839997138231,280.00000000280346,0.0007666332630231133,24.383999987948826,1.1999220013840077e-09,-8.989679987920038e-06,-4.9209401606371405e-11,1.5708812135769141
14.877190552999991,14.200000000000045,0.07353556273071254,5151.839997130485,280.000000003571,0.0007494169535766004,24.383999988484018,1.1229457005020591e-09,-8.778881303814069e-06,-4.605256514268784e-11,1.5708819196263608
15.047550961999946,14.365000000000009,0.07393830790540523,5165.039997124339,280.00000000416287,0.0007355183900769379,24.38399998890722,1.0583586302706677e-09,-8.608450453837223e-06,-4.340381719621355e-11,1.5708824896133897
15.217821516999948,14.523000000000025,0.07431695025016306,5177.679997118668,280.00000000469976,0.0007224654371525862,24.383999989297457,9.963959711476395e-10,-8.448420633287744e-06,-4.086269764618915e-11,1.5708830249215067
15.387866029999941,14.693000000000097,0.07471688825443436,5191.279997112789,280.00000000523875,0.000708686449994423,24.383999989701824,9.302211719621897e-10,-8.279665753068883e-06,-3.8148836134066066e-11,1.57088359000465
15.591231837999999,14.884000000000015,0.0751570995735823,5206.559997106443,280.0000000058029,0.0006935387142886518,24.383999990137358,8.558644833885522e-10,-8.09458807556159e-06,-3.509943124602161e-11,1.570884211220855
15.759774025999945,15.038000000000011,0.07550516040680597,5218.879997101539,280.00000000622447,0.000681574550023927,24.38399999047472,7.968244797089869e-10,-7.948847189387407e-06,-3.26781712414292e-11,1.5708847018772052
16.005090128000006,15.268000000000029,0.07601388726147594,5237.279997094494,280.00000000679626,0.0006640995636996161,24.383999990956923,7.079027142371905e-10,-7.736897887624676e-06,-2.9031445272474925e-11,1.5708854185351198
16.21771985800001,15.466999999999985,0.07644352058071573,5253.199997088692,280.0000000072379,0.0006493556387952785,24.383999991354017,6.32614872127744e-10,-7.5589647591052884e-06,-2.594385329694919e-11,1.5708860231908417
16.388127949000022,15.637000000000057,0.07680299957350344,5266.799997083954,280.0000000075787,0.0006370270664706765,24.383999991679204,5.698153389681087e-10,-7.410867352537679e-06,-2.336841309506774e-11,1.5708865287917484
16.595946942999944,15.83400000000006,0.0772110208722264,5282.55999707865,280.00000000792767,0.0006230449262590757,24.383999992040476,4.967766912859113e-10,-7.243664553112629e-06,-2.0373061696290996e-11,1.5708871022062998
16.776327689000027,16.00100000000009,0.07754989705909525,5295.919997074366,280.00000000818693,0.0006114381738915215,24.38399999233428,4.380513652532635e-10,-7.1055255612057204e-06,-1.7964706754916587e-11,1.5708875782050096
16.945465610000042,16.169000000000096,0.07788443780832113,5309.359997070211,280.0000000084155,0.0005999848122984744,24.383999992618783,3.802118918399837e-10,-6.969771579031699e-06,-1.5592681071049475e-11,1.570888047913087
17.19918954000002,16.40000000000009,0.07833421089350617,5327.83999706475,280.00000000867897,0.0005845934017391649,24.383999992992635,3.017276125785898e-10,-6.788176363058277e-06,-1.2374001587545363e-11,1.570888679122519
17.368662538999956,16.56600000000003,0.0786502869093494,5341.119997060989,280.0000000088316,0.0005737814837935887,24.383999993249446,2.4717676902124583e-10,-6.661167732514877e-06,-1.0136844237660872e-11,1.5708891225246717
17.60641414600002,16.791000000000054,0.07906937848852469,5359.119997056103,280.000000008991,0.0005594512747624714,24.383999993582453,1.7561245359123705e-10,-6.493450782037734e-06,-7.201955910743493e-12,1.570889710213699
17.775734143000022,16.94900000000007,0.07935739457369204,5371.759997052831,280.0000000090725,0.0005496047620583832,24.38399999380637,1.277946568167087e-10,-6.378663640901505e-06,-5.240924177693301e-12,1.5708901140241012
17.979337665999992,17.151000000000067,0.07971827902724227,5387.919997048814,280.0000000091416,0.0005372654394900023,24.383999994081385,6.987078508527716e-11,-6.235180016966118e-06,-2.8654372457296478e-12,1.5708906200658803
18.149692316000028,17.307999999999993,0.07999313985875886,5400.479997045798,280.0000000091689,0.0005278703901619382,24.383999994286576,2.5289849708256928e-11,-6.126191024871819e-06,-1.0371508017784645e-12,1.570891005361544
18.320778116000042,17.466000000000008,0.0802648963680211,5413.11999704288,280.0000000091732,0.0005185809958101866,24.3839999944859,-1.7464419686674646e-11,-6.018591818050203e-06,7.162231618975691e-13,1.5708913863242444
18.523901679999994,17.669000000000096,0.0806070795648836,5429.359997039273,280.00000000914804,0.0005068806508386791,24.38399999473193,-7.104439949266112e-11,-5.883329782045106e-06,2.9135649251091377e-12,1.5708918661612334
18.732380613000032,17.871000000000095,0.08093991024209074,5445.5199970358435,280.00000000908676,0.000495499466481447,24.38399999496586,-1.2065274643782707e-10,-5.7518832163248795e-06,4.948028042457415e-12,1.570892332909286
18.912039367000034,18.033999999999992,0.08120301121922027,5458.559997033198,280.00000000901497,0.0004865026945776789,24.38399999514703,-1.584276939330954e-10,-5.648037649661293e-06,6.497197536722171e-12,1.5708927018713936
19.091724063000015,18.201999999999998,0.0814691973686803,5471.999997030572,280.00000000891936,0.00047739819016875246,24.38399999532698,-1.952670347994877e-10,-5.5429989271818005e-06,8.007997340566395e-12,1.570893075251665
19.261590204999948,18.369000000000028,0.08172885896016983,5485.359997028054,280.00000000880414,0.00046851639226443186,24.383999995499266,-2.2984279827528282e-10,-5.4405320560110225e-06,9.425966704505073e-12,1.5708934394986314
19.47257778400001,18.568000000000097,0.08203197166271924,5501.27999702517,280.00000000864316,0.0004581470069684072,24.383999995696303,-2.6895820215286903e-10,-5.3208985128533525e-06,1.1030108994918052e-11,1.5708938647522996
19.675346720999983,18.756000000000085,0.08231214169331316,5516.319997022539,280.0000000084685,0.000448562686602152,24.3839999958745,-3.040402839396525e-10,-5.2102901302579684e-06,1.2468842735860442e-11,1.5708942578100629
19.84474347799994,18.911000000000058,0.08253871601914481,5528.719997020486,280.0000000083084,0.00044080991134573484,24.383999996015884,-3.2936943927202446e-10,-5.120800684583533e-06,1.35076040856613e-11,1.570894575755247
20.04818392100003,19.11200000000008,0.08282674225676503,5544.799997017906,280.00000000808194,0.0004309541908139216,24.383999996192056,-3.607983273617057e-10,-5.007020242462562e-06,1.4796518534397873e-11,1.5708949799432665
20.250415556000007,19.309000000000083,0.08310277619039254,5560.559997015478,280.0000000078416,0.00042150643295152114,24.38399999635722,-3.899783007809675e-10,-4.897879929011018e-06,1.5993203864200133e-11,1.5708953674005337
20.456519746000026,19.50100000000009,0.08336597296089789,5575.91999701322,280.00000000759,0.00041249806347831014,24.383999996511278,-4.138793417826188e-10,-4.793745395427431e-06,1.6973397543532532e-11,1.5708957368382632
20.62575963200004,19.668000000000006,0.08359033315691446,5589.279997011357,280.0000000073596,0.00040481668381722345,24.383999996640007,-4.3173663687770764e-10,-4.704888507852746e-06,1.770573418418615e-11,1.5708960518554782
20.79561631699994,19.826999999999998,0.08380005027732153,5601.999997009607,280.00000000713135,0.00039763742306277145,24.383999996758153,-4.4897913286241155e-10,-4.62179445278687e-06,1.8412857594898402e-11,1.570896346280546
20.965830194999967,19.98300000000006,0.08400218646647797,5614.47999700799,280.00000000689863,0.0003907175085043235,24.38399999687002,-4.6215538422900067e-10,-4.541636592090128e-06,1.8953222290704337e-11,1.570896630069697
21.13437916999999,20.149,0.08421343652754329,5627.7599970062865,280.0000000066435,0.00038348334209442137,24.38399999698487,-4.764412006422004e-10,-4.457833744212675e-06,1.9539090799223558e-11,1.5708969267464732
21.303939984999943,20.307000000000016,0.08441086078573254,5640.399997004757,280.00000000639324,0.00037672390006273905,24.383999997090243,-4.866763509911115e-10,-4.379472476338047e-06,1.9958839473789678e-11,1.570897203954566
21.47828477799999,20.466000000000008,0.08460601908723117,5653.119997003244,280.0000000061368,0.000370041138749839,24.383999997192582,-4.967614900164847e-10,-4.3019484113894655e-06,2.0372436108672857e-11,1.5708974780179439
21.68225019900001,20.66700000000003,0.08484780222210295,5669.199997001451,280.0000000058073,0.0003617601625183604,24.383999997316856,-5.057702719786616e-10,-4.205857743968173e-06,2.0741890810744136e-11,1.5708978176249133
21.852482366000004,20.826000000000022,0.08503521194077475,5681.919997000056,280.0000000055404,0.0003553423936666024,24.383999997411216,-5.116538061815809e-10,-4.1313400406643755e-06,2.0983177532588645e-11,1.5708980808208182
22.021341182000015,20.98300000000006,0.08521699846389785,5694.479996998747,280.0000000052769,0.0003491173620427473,24.383999997501157,-5.160405365808905e-10,-4.059010938774556e-06,2.1163079575151793e-11,1.570898336112473
22.225511091000044,21.187000000000012,0.08544848182311618,5710.79999699711,280.00000000493293,0.0003411879499697348,24.383999997613408,-5.196685232837647e-10,-3.9668844788740405e-06,2.1311865180536032e-11,1.570898661301621
22.428711733,21.377000000000066,0.08565932674730617,5725.999996995634,280.00000000460517,0.0003339674676230598,24.383999997713374,-5.217678439711913e-10,-3.882942018116462e-06,2.1397959420674917e-11,1.570898957417207
22.632726022000043,21.57000000000005,0.08586893688462592,5741.43999699423,280.00000000427224,0.000326788811684804,24.38399999781065,-5.194115443752234e-10,-3.79947043361797e-06,2.1301326449757612e-11,1.5708992518174711
22.811743588000013,21.73700000000008,0.08604667883006532,5754.799996993013,280.00000000398416,0.0003207006554306323,24.38399999789149,-5.189965412401387e-10,-3.72865032421176e-06,2.1284307008066344e-11,1.5708995014957987
23.019289107999953,21.934000000000083,0.08625209284908132,5770.559996991701,280.0000000036502,0.00031366519376820143,24.383999997983018,-5.140028150284988e-10,-3.6467891347660097e-06,2.107951184921787e-11,1.5708997900235941
23.256416862000037,22.16700000000003,0.0864892398066141,5789.199996990178,280.0000000032591,0.00030554246989645476,24.38399999808616,-5.076293795819979e-10,-3.5522523799341355e-06,2.0818134134151177e-11,1.5709001231405555
23.42549016199996,22.32000000000005,0.08664159531697507,5801.4399969892265,280.00000000300236,0.00030032596046074896,24.38399999815097,-5.030048905096585e-10,-3.4915345537360698e-06,2.0628481569648016e-11,1.5709003370722119
23.662895252999988,22.544000000000096,0.08685998661966582,5819.35999698793,280.0000000026368,0.00029284728464584086,24.383999998241926,-4.898594881285461e-10,-3.4045047868060492e-06,2.0089382100931438e-11,1.570900643776441
23.832842445999972,22.703000000000088,0.08701169485606466,5832.079996987009,280.00000000238464,0.0002876512239060404,24.38399999830379,-4.822362577911048e-10,-3.3440538482291624e-06,1.977674965227344e-11,1.5709008568694862
24.00206378300004,22.87200000000007,0.08717000946398801,5845.599996986056,280.00000000211674,0.00028222999832863075,24.383999998367145,-4.739654818438854e-10,-3.2809752091180986e-06,1.9437561035758727e-11,1.5709010791966538
24.20986440699994,23.064000000000078,0.08734623597146948,5860.959996985088,280.0000000018229,0.0002761955371932039,24.383999998436252,-4.5823599254284516e-10,-3.2107605375403885e-06,1.8792486862237814e-11,1.5709013266729177
24.41422509100005,23.254999999999995,0.08751780745345039,5876.239996984124,280.00000000153955,0.00027032070268566893,24.383999998502098,-4.4424229043960237e-10,-3.1424109248447506e-06,1.8218598186542923e-11,1.570901567602814
24.65013326999997,23.479000000000042,0.08771437938843697,5894.159996982995,280.0000000012173,0.00026358970875567676,24.383999998575785,-4.2972307369537926e-10,-3.0640989776837665e-06,1.7623157899517318e-11,1.5709018436442357
24.819922021000025,23.648000000000025,0.08785945094638865,5907.679996982243,280.00000000098254,0.000258621413666883,24.383999998628994,-4.1497295028285857e-10,-3.0063298330970594e-06,1.7018248000770086e-11,1.5709020473964976
24.990033755000013,23.807999999999993,0.08799426647042136,5920.479996981556,280.0000000007678,0.00025400529883183744,24.383999998677528,-3.994483060085751e-10,-2.9526383271528426e-06,1.6381574613199163e-11,1.5709022367056715
25.164603175000025,23.966999999999985,0.08812585225384778,5933.199996980873,280.0000000005618,0.00024949987498402716,24.383999998724043,-3.8528279759962655e-10,-2.9002312429834584e-06,1.5800640061221544e-11,1.5709024214753533
25.40160175699998,24.200000000000045,0.08831448737719803,5951.839996979872,280.0000000002732,0.00024303997185508118,24.383999998789303,-3.6630654653082673e-10,-2.825121173794067e-06,1.502241456319396e-11,1.570902686399206
25.60504559200001,24.391000000000076,0.08846546349147584,5967.1199969791505,280.0000000000479,0.00023787085723923863,24.38399999884028,-3.488653490006553e-10,-2.76501872664395e-06,1.4307142368362647e-11,1.5709028983871771
25.80799811199995,24.58000000000004,0.08861169664754455,5982.239996978479,279.99999999983703,0.00023286427299107777,24.383999998888605,-3.278300963268184e-10,-2.706816094913563e-06,1.3444476170646358e-11,1.5709031037096965
26.010864843000036,24.769000000000005,0.0887548488136283,5997.359996977808,279.9999999996385,0.00022796300619077286,24.383999998934932,-3.0815226048703247e-10,-2.649830305367986e-06,1.2637478318441503e-11,1.570903304713095
26.18616702500003,24.934000000000083,0.08887736583983331,6010.559996977222,279.99999999947534,0.00022376773551602053,24.383999998973806,-2.926314949155948e-10,-2.601075047692506e-06,1.2000963985658625e-11,1.57090347676324
26.355256790999988,25.101,0.08899907414368315,6023.91999697663,279.9999999993181,0.000219599760831051,24.383999999011706,-2.778768529393838e-10,-2.5526247630393155e-06,1.1395868767537478e-11,1.5709036476939628
26.53623788799996,25.270000000000095,0.08911993502873496,6037.439996976079,279.9999999991668,0.0002154607112600826,24.383999999048626,-2.624937529317401e-10,-2.504508529570608e-06,1.076500016748134e-11,1.5709038174384522
26.746021701000018,25.466000000000008,0.0892572464123588,6053.119996975529,279.9999999990054,0.00021075890810932183,24.383999999089724,-2.39168566545907e-10,-2.4498383250886054e-06,9.808422640432876e-12,1.5709040102617469
26.915096715999994,25.634000000000015,0.08937256043836803,6066.559996975058,279.99999999887694,0.00020681003197324096,24.383999999123546,-2.199000399154477e-10,-2.403925235902387e-06,9.01821075121661e-12,1.5709041722071286
27.118415811999967,25.82400000000007,0.08950036349970322,6081.759996974525,279.99999999874524,0.00020243429444605972,24.383999999160267,-2.0014301559918672e-10,-2.3530459612031163e-06,8.207965324928795e-12,1.5709043516583094
27.286640767999984,25.979000000000042,0.08960261491833778,6094.15999697409,279.9999999986471,0.00019893378317987175,24.38399999918908,-1.8535370909329677e-10,-2.312341066402411e-06,7.601448486731284e-12,1.5709044952160243
27.489409402999968,26.18100000000004,0.089733238073289,6110.319996973524,279.9999999985294,0.00019446067395868184,24.383999999225175,-1.671314202502774e-10,-2.2603569926819147e-06,6.854143327590924e-12,1.5709046786604666
27.658913963000032,26.340000000000032,0.08983397856243776,6123.039996973078,279.99999999844516,0.00019101151498338744,24.383999999252445,-1.5390432355374792e-10,-2.2202645798915734e-06,6.311693492896316e-12,1.5709048201121982
27.86635102499997,26.533000000000015,0.08995386356634023,6138.4799969726455,279.9999999983517,0.00018690668425331368,24.38399999928426,-1.3564187331024308e-10,-2.1725564950492706e-06,5.562741295342437e-12,1.5709049884533557
28.071046188999958,26.721000000000004,0.09006816155538243,6153.519996972259,279.9999999982739,0.00018299290102778988,24.38399999931395,-1.1418961226296417e-10,-2.1270712564408847e-06,4.6829733541903186e-12,1.57090514895956
28.239968675,26.888000000000034,0.09016769262373521,6166.879996971915,279.9999999982147,0.00017958538085814313,24.383999999339288,-9.660160698250152e-11,-2.0874708141134094e-06,3.961680475004427e-12,1.5709052887036632
28.44326412999999,27.078000000000088,0.0902786718297632,6182.0799969715235,279.9999999981589,0.00017578563689587745,24.38399999936697,-7.797918954568858e-11,-2.043319198386956e-06,3.1979658348800944e-12,1.5709054445330604
28.614964860999976,27.23599999999999,0.09036916774206862,6194.719996971198,279.9999999981213,0.00017268736310972331,24.383999999389125,-6.367257165518838e-11,-2.007313274165046e-06,2.6112442887970557e-12,1.5709055715948153
28.821243593999952,27.434000000000083,0.09048033263453847,6210.559996970791,279.99999999808375,0.00016888079147761947,24.383999999415785,-4.769450777250231e-11,-1.963079827188812e-06,1.955975904349347e-12,1.5709057277042182
29.02541278199999,27.637000000000057,0.0905917661341109,6226.799996970372,279.9999999980569,0.0001650645558181316,24.383999999441915,-3.2373960421650896e-11,-1.9187290607328973e-06,1.3276726032897918e-12,1.570905884209948
29.236912964999988,27.83699999999999,0.08711144603456043,6242.799927454593,280.0002330843125,-0.012498387107348869,24.383986429283333,-0.022485703812256053,0.049894621872259445,0.0009221464039135146,1.5714252188834728
29.412156363999998,28.0,0.0777955094762484,6255.839570193072,279.96605829087406,0.05271602022411805,24.383586764508888,-0.13180864504613968,0.156503164281331,0.0054055610777332406,1.5687507164730219
29.648866668999972,28.224000000000046,0.2045312023610438,6273.75825661529,279.82711756650684,0.4265243399277263,24.378734034600384,-0.2736052954478126,0.2835929813214853,0.011220921774575928,1.5534186973406663
29.85334616700004,28.412000000000035,0.585201308074531,6288.7920730335945,279.6314847583841,0.9501127329746416,24.362402429610285,-0.3874140580706562,0.36066057144523883,0.015888709102900148,1.531933285212252
30.057411375000015,28.61099999999999,1.3842639629590487,6304.689486689597,279.3492805630526,1.6668527390477064,24.321756522007433,-0.5032073434994212,0.422544147417405,0.020638246217914036,1.5024862669077603
30.226227116000018,28.773000000000025,2.4048715017779387,6317.606346373351,279.06424651618124,2.3496770396866347,24.26326343345534,-0.5937350991427333,0.4612717366022078,0.024351776444688472,1.4743727833713698
30.395832463000033,28.937000000000012,3.8236842977190304,6330.645380931645,278.7273063303475,3.1138941160428093,24.174747240719675,-0.6817002870971987,0.4921938762801825,0.027960509164624767,1.4428103170122515
30.59876137799995,29.138000000000034,6.143664065445678,6346.550128088243,278.2509938624599,4.128340789264523,24.019190176600265,-0.7840673364225285,0.52137529112472,0.032160533696186926,1.4006990382854971
30.80310521399997,29.335000000000036,9.08594427016025,6362.024140100946,277.71998794780467,5.185164793369107,23.810135319711343,-0.8780535989814139,0.5427555748068065,0.036017200387159304,1.3564891531938859
30.980574785000044,29.50100000000009,12.103588033614324,6374.947871782037,277.2264375146542,6.109032153352188,23.587126861804183,-0.9521704440442675,0.556573619770101,0.03905891330279988,1.3174828727689083
31.195043064999936,29.703000000000088,16.461084254001985,6390.495751980152,276.5729589711378,7.259640938536987,23.255195784621435,-1.035827428915205,0.5694648849323061,0.042492583983009966,1.2683258808673208
31.364759310999943,29.871000000000095,20.669568207879113,6403.247085844977,275.9884367665241,8.228607681340055,22.927274530544235,-1.099797357562508,0.5776480667083388,0.045118542693125846,1.2263309001750677
31.538503053,30.033000000000015,25.236404369649886,6415.361872012522,275.39226262765595,9.166155175184809,22.56598152405738,-1.1565176870196163,0.5838436259051591,0.04744716600935418,1.1850785078076531
31.776094996999973,30.258000000000038,32.40598101101704,6431.848770678683,274.5159980701376,10.46559698015827,21.989616368358437,-1.227806100890942,0.5840585574601633,0.05037424114640447,1.126702903116031
32.04748839399997,30.514999999999986,41.75872554651322,6450.126047569185,273.4533269438994,11.902696944790726,21.241891587340238,-1.2989623675147077,0.56226892207744,0.053296321209123004,1.0601650181823123
32.31966292499999,30.774,52.37052395936534,6467.8851089266245,272.3253842841585,13.228993370340934,20.438388794747617,-1.3584748368229462,0.5207964050130884,0.05574058972232594,0.9964646182788002
32.63095872400004,31.069000000000074,65.75005902307346,6487.277239486127,270.98502743681934,14.533574664587581,19.52858990093763,-1.4102623691813607,0.45584025315470567,0.05786785405112998,0.9311207980756777
32.79994099299995,31.224000000000046,73.2613785623058,6497.117374117676,270.2625037832645,15.121597025023513,19.075391760438503,-1.4304504880179476,0.4166202717446901,0.05869718720761752,0.9006216409592044
33.00300663999997,31.416000000000054,82.9569367157722,6508.996211279464,269.3550051296234,15.756404878577944,18.55307483008306,-1.4486461444193002,0.36527408102302783,0.059444704138514375,0.8668477309169628
33.240412547000005,31.652000000000044,95.37945184705019,6523.168614745481,268.22711626129313,16.40190587780133,17.983948668396863,-1.4610030350044778,0.30068813544497414,0.05995237094364854,0.8314906194224372
33.40969845799998,31.81000000000006,103.95752566716666,6532.421471035712,267.4682395391867,16.756187382826504,17.654125953016724,-1.4633787024237566,0.25803657516524453,0.06004997400929845,0.8116036255740581
33.57961474000001,31.96900000000005,112.76341632549469,6541.568872026902,266.7043835170112,17.055578845095635,17.365234574042734,-1.4612715173018134,0.2165323347310234,0.05996340159288166,0.7945104363869354
33.748431212000014,32.13600000000008,122.16786889480285,6551.0244949437865,265.9043942371696,17.314305414713733,17.107851431896634,-1.454545767670222,0.1752107868230685,0.05968708102298414,0.7795168656165231
33.96207863300003,32.339000000000055,133.77212663069625,6562.344739363408,264.9385877281633,17.559313805797913,16.857479330080903,-1.440605881388122,0.12889458737853254,0.059114389397385704,0.765125113286345
34.13405655199995,32.49700000000007,142.9064126464688,6571.050054287926,264.194395861537,17.702459372989658,16.708373019579483,-1.425713570924702,0.09631931456069863,0.05850259077600159,0.7566337659368056
34.33880631499994,32.696000000000026,154.5032770442712,6581.917693547063,263.269275483995,17.832338164456758,16.57166898615329,-1.4024830130534538,0.05986651671525644,0.05754828799149609,0.7488877895918008
34.50835756899994,32.85400000000004,163.76302939432176,6590.491247931912,262.5464112450309,17.89997322246251,16.500420665617046,-1.3807724261738952,0.034718657493435695,0.05665647248111024,0.7448527155462024
34.711881281000046,33.044000000000096,174.93594719312844,6600.761600722359,261.69293404307473,17.94621163115368,16.452570694827763,-1.3512444714480945,0.008886639520412477,0.05544361168318633,0.7421204175956962
34.880663798,33.204000000000065,184.3611971965129,6609.393597283759,260.9890910172098,17.96014157425919,16.439597936916137,-1.3237787976810904,-0.009274246887126882,0.05431553239188578,0.7413410595947698
35.088540782999985,33.40000000000009,195.9102093043751,6619.966086489617,260.14727924417207,17.95082243088992,16.45268086290074,-1.2871373191233781,-0.02725494255908145,0.0528106888350268,0.7419957907019668
35.25703049899994,33.56700000000001,205.7411511641553,6628.98592808347,259.4491370874463,17.924404176721715,16.48404498023696,-1.253575685440239,-0.039115316425933556,0.051432437759274245,0.7436782884724171
35.46051902600004,33.75800000000004,216.96290715073147,6639.3277545756855,258.67385017373346,17.877899316992234,16.537512059516075,-1.2127930132263043,-0.04913145054358644,0.04975777691064662,0.7465868656769339
35.66476645800003,33.95100000000002,228.2688337016607,6649.815889531919,257.91699244453514,17.817805659937427,16.60536424836873,-1.1692457585044154,-0.055845796168659846,0.04796974791689483,0.7503073750776851
35.868395308000004,34.152000000000044,240.00016206274844,6660.787303515417,257.1585999140459,17.74580181570583,16.685557160674968,-1.1216756017768335,-0.05969999291716245,0.046016715707190334,0.7547312197504337
36.03935120599999,34.31200000000001,249.30333517872845,6669.5598064081205,256.577722057405,17.68429946503814,16.753314718575407,-1.0823374572182156,-0.06077106992104708,0.044401788571429776,0.7584871198932368
36.20904096100003,34.47000000000003,258.4580294142933,6678.257996700337,256.0246218891329,17.62196117327987,16.821397698229255,-1.0423626458705595,-0.060389979406902945,0.04276084337202254,0.7622757734033561
36.45595334999996,34.70300000000009,271.8993352224143,6691.149200622686,255.24716512422287,17.53030043350909,16.920531236400038,-0.9816544142434113,-0.05769457927245206,0.04026902091175892,0.7678166407158828
36.62531081899999,34.870000000000005,281.49051083927435,6700.434861485998,254.7187590809878,17.46677630699523,16.98861840827658,-0.9370304261007318,-0.05455061037238983,0.03843755067597084,0.7716377865365124
36.80089849700005,35.03399999999999,290.8728508673611,6709.592617199814,254.22367727780548,17.403962302863025,17.055332996551165,-0.892842952236474,-0.02235458688785242,0.03662412308647373,0.7753976997696832
36.98109164499999,35.20300000000009,300.51393484555155,6719.058783309776,253.73858032435058,17.377981625210207,17.0841698425439,-0.8463754634039106,0.006820199291862233,0.03471725491190205,0.776989060002295
37.22476494700004,35.43400000000008,313.68534515661776,6732.006595394993,253.117643751209,17.39380475960591,17.07113802188085,-0.7818303029991337,0.02949990027490575,0.032068748412015326,0.7761525925350565
37.42724100800001,35.62800000000004,324.76548130214803,6742.863498605474,252.63417350495422,17.43414403666543,17.03236030995125,-0.7271725936016415,0.03773242964150555,0.02982613419135913,0.7738577970156583
37.595988896999984,35.78399999999999,333.6963822815566,6751.573301139461,252.27068647085227,17.474621464294607,16.99265755083504,-0.6831178812971468,0.03825282157716889,0.0280186723030972,0.7715321727072674
37.80034815299996,35.976,344.7174361193888,6762.264302218469,251.8541974953461,17.52494088080303,16.942855270315867,-0.6289343475858279,0.03294612649605773,0.02579577346536097,0.7686282865893675
37.93665080300002,36.11200000000008,352.54268166345423,6769.818581620387,251.57971998719754,17.556678849195926,16.91134553656879,-0.5906572009685921,0.026050936154833775,0.024225517330321134,0.7667940127111211
38.13981229399997,36.305000000000064,363.6699118213515,6780.516881219401,251.21960761005613,17.590638316522718,16.877824094756765,-0.5366129366820624,0.012864946676806231,0.022008542288914756,0.764837252126518
38.31581287200004,36.466999999999985,373.0237671264268,6789.483169688368,250.94368174022648,17.605918251255215,16.863256827460674,-0.491597092447791,-0.00035415568215379047,0.020162009333200687,0.7639721547744523
38.48637131299995,36.63600000000008,382.78734155102916,6798.831851006544,250.68116113955642,17.60667561140175,16.863757967136706,-0.44508104968402323,-0.015470106233475714,0.018254010950557748,0.7639655106963971
38.66677729100002,36.803,392.4322637705818,6808.073815222673,250.44701578773575,17.590535032179403,16.881729492540494,-0.3996781485672386,-0.031071399140404014,0.016391735633343032,0.7649557676661335
38.877615625999965,37.0,403.79284453097745,6818.994444415105,250.20264980651518,17.548724708665777,16.926349605073575,-0.34699588812223353,-0.049575614027306356,0.014230956133119347,0.7674635477410005
39.047128864,37.168000000000006,413.45523790356725,6828.334813646563,250.0209275795721,17.49357097753477,16.98418847692618,-0.3029393244292845,-0.06491517568072885,0.012424013738904425,0.7707413275636208
39.21834159000002,37.32600000000002,422.51120446276957,6837.151862038471,249.872117999976,17.425262827558104,17.054935988603855,-0.26235436956715336,-0.07861443140422016,0.010759492451977578,0.7747746237847016
39.423206497000024,37.51400000000001,433.2357760168782,6847.695459064432,249.72224113563033,17.324245128200033,17.158195031315717,-0.2152440602068591,-0.09368565470265997,0.008827382180525032,0.7806990256351345
39.55833868299999,37.64600000000007,440.72644786982346,6855.138460602537,249.63415787161404,17.24153170239207,17.241680976588636,-0.1829690056681451,-0.10397103047248508,0.00750372184714058,0.7855188140738049
39.76427710500002,37.83600000000001,451.44146534410584,6865.919132083507,249.53173462344304,17.1047094896816,17.37784178376036,-0.13778320751864648,-0.11871460533339599,0.005650589343259671,0.7934352029410036
39.94041764199994,37.999000000000024,460.56229992127635,6875.238554939318,249.46599100592678,16.970977427194025,17.508721375595016,-0.10028438332286656,-0.13038599101459075,0.004112725350076353,0.8011091779300257
40.17781780300004,38.21900000000005,472.75268652779687,6887.933316807869,249.40857420192611,16.767620461316103,17.70377621433456,-0.05165092546134325,-0.1445156822719848,0.0021182329251535252,0.8126652746723183
40.34724041200002,38.38499999999999,481.84992538404055,6897.60815813575,249.38802689716755,16.597825092655448,17.863129189227763,-0.016545774765108698,-0.15385529096089867,0.0006785516188843167,0.8222150319635069
40.515905603999954,38.543000000000006,490.4200700439899,6906.899357870694,249.38601819567657,16.424351092662604,18.022760741811975,0.015570113684420519,-0.16166733598675329,-0.0006385371176811266,0.8318830701150152
40.68522391399995,38.70300000000009,499.0049234533889,6916.393789572335,249.40066190776884,16.238001487321142,18.19078268770031,0.04678575323969841,-0.16850311303254933,-0.0019187072406319618,0.8421732104423909
40.89541990700002,38.90000000000009,509.4373532554128,6928.20673003969,249.44069813750596,15.995017339378752,18.404671472285322,0.08333252850493138,-0.17546041371677154,-0.0034175142456325785,0.8554489643031356
41.06465896899999,39.0680000000001,518.2077312073366,6938.390829554034,249.49307825803055,15.777560666871501,18.591269423100957,0.11285672752746644,-0.18017836642918844,-0.004628326286519577,0.8672003497740017
41.23457908900002,39.22500000000002,526.29336081045,6948.002086227379,249.55652108272858,15.566947119514984,18.767798868805812,0.13906472724344632,-0.18363608669563977,-0.005703143862579055,0.8784706680902267
41.43804055099997,39.41700000000003,536.0321382531594,6959.879858216746,249.65197712375718,15.30110021566641,18.984918648001237,0.16926936815817498,-0.18669642879031548,-0.006941876139381552,0.8925476217452823
41.64289570100004,39.621000000000095,546.194535878727,6972.64927840189,249.77356358888122,15.010613647439786,19.215131133877023,0.19917187374926326,-0.18868107162008751,-0.008168227935354162,0.9077486774954089
41.84702027399999,39.81299999999999,555.5791994522622,6984.808424584089,249.90579484271663,14.731369834757862,19.42975727619443,0.22523538764127066,-0.1894742672914602,-0.009237146219685528,0.9221930515358083
42.01603030000001,39.97000000000003,563.1214771116261,6994.851189867692,250.02580438609695,14.499943571806861,19.602832418781848,0.24505831074032966,-0.1894492563257566,-0.01005013205077249,0.9340451454172793
42.185411112,40.13600000000008,570.9664004999601,7005.565693824909,250.16345844078398,14.253162388504228,19.782740004577267,0.2646050610203364,-0.1888366475299597,-0.010851797875030338,0.9465704172588859
42.39844890099994,40.339000000000055,580.3776472144044,7018.79963108678,250.3460219749292,13.945927545369132,20.00020520541524,0.2869714980389553,-0.2000347293177564,-0.011769115372679953,0.962008310632333
42.60435051800005,40.53399999999999,589.2192989798714,7031.650857404238,250.53484827364983,13.630426173635037,20.216260511356626,0.30618501292314243,-0.20830385877196078,-0.012557129562783601,0.9776915747846758
42.77229915099997,40.69900000000007,596.5400133988039,7042.633697844607,250.70380157710616,13.350551548920311,20.401944776944102,0.32074703153227346,-0.21318282756926676,-0.013154374614308162,0.9914670038982382
42.97529945300005,40.88900000000001,604.7787827737724,7055.405760103174,250.907654917278,13.01707656453956,20.61607456236655,0.3356238250625228,-0.21667078487033214,-0.013764534661938835,1.0077212922040508
43.14503592599999,41.048,611.5120757206508,7066.196211896862,251.0850178401136,12.731398099293122,20.793528669682267,0.3465889503562257,-0.21807260145240595,-0.014214263969556867,1.0215148524617925
43.347195521,41.238000000000056,619.3611285184556,7079.211139190618,251.3040445576857,12.384807696472471,21.00161530813003,0.3579787295454737,-0.2182385314708495,-0.014681413302172876,1.0380956157202117
43.58787772200003,41.468000000000075,628.5726820958287,7095.137035506701,251.57792707333374,11.961167339148599,21.24555188672871,0.3694007489106514,-0.21675281805922955,-0.015149888184870335,1.0581462426330892
43.75739733499995,41.634000000000015,635.0221212875094,7106.7441793907965,251.78055016834102,11.654640713543463,21.41511988456608,0.3760932968962836,-0.2147820959886279,-0.015424385029816402,1.0725141270129714
43.96012116400004,41.82600000000002,642.2731240571876,7120.282975728481,252.0190751328142,11.301033255751134,21.603702828402305,0.3822662090500494,-0.2118315536652163,-0.01567756989485213,1.0889513179994867
44.13035650899997,41.98400000000004,648.0732146452939,7131.512056036019,252.21800800718896,11.011720750610827,21.752525366911716,0.38613763416976526,-0.20901881763492258,-0.015836358717079453,1.1022956659921548
44.33350971999994,42.186000000000035,655.2716701273487,7145.978035206248,252.47487699323742,10.6448900787944,21.934310639802586,0.38959975246535133,-0.20509201950786535,-0.01597835992509292,1.1190877995988409
44.50386068499995,42.34500000000003,660.7667902407322,7157.448154095692,252.67841843057917,10.359237185695347,22.07062883302873,0.39115705960819963,-0.2018493136361161,-0.016042234087396242,1.13206989421064
44.67312992500001,42.50100000000009,666.0137140940243,7168.7699402796825,252.87872130092737,10.08189397526708,22.198680432448676,0.3917357905387572,-0.19861460930971062,-0.01606597122210888,1.144599373217953
44.87660302699999,42.70100000000002,672.5348601586018,7183.378524772118,253.1356379207178,9.730673761409353,22.354874501093903,0.3911907328368838,-0.19447384071356452,-0.01604361529090017,1.1603654100403042
45.080702464999945,42.888000000000034,678.42424099904,7197.128506800321,253.3757266456052,9.396114974956502,22.49756136804,0.3901433951375846,-0.21128575797526672,-0.016000657972128626,1.175283625485094
45.35147326399999,43.144000000000005,686.1392034203453,7216.096926556216,253.7024031236206,8.894557826325961,22.700598952187516,0.38614024160154486,-0.226481441367048,-0.015836465892325916,1.1974774691078138
45.523438848999945,43.305000000000064,690.7700593519764,7228.114064335834,253.90571158208277,8.560049599556978,22.828904974978997,0.38223617908485513,-0.23233498379494555,-0.01567633849166967,1.2121723018365405
45.83441190999997,43.599000000000046,698.7613210168793,7250.231560814415,254.27068363287427,7.925982827379764,23.0568723768841,0.3726773621479217,-0.23708786895889689,-0.0152842797089539,1.2398094688204084
46.004170896000005,43.754999999999995,702.7503327005934,7262.0554967641665,254.460230047021,7.58292683936764,23.172060268373148,0.3664689178886141,-0.23714704708490852,-0.015029639085754476,1.254652105342347
46.174102999999945,43.91399999999999,706.6352901695863,7274.166341954964,254.64999253235516,7.2318534862697765,23.284126524457797,0.3594483916602723,-0.23590107517221678,-0.014741691923466584,1.2697673547199824
46.34375848299999,44.081999999999994,710.5418888169354,7287.024671216216,254.84635950753002,6.86166526730307,23.396016206781827,0.3513280683159489,-0.23339848118168607,-0.014408638055376852,1.2856291173305905
46.54678023500003,44.270000000000095,714.6710470354595,7301.485246612822,255.06057191688095,6.450733344307785,23.512781249696584,0.3414867854697812,-0.22954482551269348,-0.014005001423422031,1.3031507597712577
46.68992463799998,44.40000000000009,717.3789405792754,7311.525610408189,255.20507073518417,6.169633379519922,23.588203425499646,0.33427401882039925,-0.22640382760600808,-0.01370917387699363,1.3150877713820022
46.79195539099999,44.50100000000009,719.4006211685269,7319.34794105407,255.31519237966182,5.9534166345371835,23.643781457932484,0.32845813316485256,-0.22376998288748381,-0.013470639488065546,1.3242440619282205
46.962880419000044,44.67100000000005,722.6426565605512,7332.55471889942,255.49612915474148,5.594216462939726,23.731474559145788,0.3182976821920288,-0.21908752308871834,-0.013053917691404793,1.3394091601915266
47.140681247999964,44.83699999999999,725.6159621445233,7345.496549722537,255.66723509249059,5.2498811455814876,23.810152536370186,0.3079612835256521,-0.21434268398608844,-0.012629981881483374,1.3538957835346317
47.35116945599998,45.03600000000006,728.9353747857023,7361.065436088121,255.86482076374864,4.845868515821777,23.89581402018924,0.29510445607242675,-0.20861767276876905,-0.012102676665607218,1.3708343732215167
47.520969942999955,45.202,731.5054993765979,7374.0934864644705,256.02341626260824,4.516426379474996,23.960388629877723,0.2848253220981054,-0.2218596212697604,-0.011681094453527344,1.3846031382563364
47.75669999399997,45.41399999999999,734.5179286710362,7390.782728707932,256.2187177754405,4.039896563118903,24.045469693270817,0.2721745568466847,-0.2664858172913493,-0.011162246428981832,1.4044565253228842
47.92573672599997,45.58100000000002,736.6410566885461,7403.972303160301,256.3660435496583,3.597437821858411,24.115757569630475,0.2610248278865287,-0.2924428385685549,-0.010704963156212527,1.4228308642810412
48.12889863299995,45.76800000000003,738.7162183652517,7418.787002959634,256.52325625411356,3.0526773116788752,24.19089551027382,0.2473694441052922,-0.3113385852282893,-0.010144918625357116,1.4453849752503711
48.308370785999955,45.93299999999999,740.2632993301165,7431.895592961837,256.6547137253353,2.5431935443593443,24.24987898344795,0.23450348432605642,-0.3210851683549433,-0.009617253437732913,1.466420128469368
48.478109952999944,46.101,741.5512473858748,7445.273368740454,256.78116003683607,2.007798502422143,24.300194237995374,0.2208193140815207,-0.32542262862803895,-0.009056034325686942,1.4884751006785284
48.692478024000025,46.30200000000002,742.7011636933274,7461.311698510433,256.9222484761224,1.3587395708453938,24.34526011770187,0.2039425903497166,-0.3245024288243797,-0.008363885201992022,1.5151592205581639
48.87041207100003,46.46600000000001,743.3215227076794,7474.416813782297,257.02895694206336,0.8314372542651672,24.36908041651239,0.18996774957430923,-0.3198361304175184,-0.007790751307509116,1.536807334586101
49.039768539999955,46.63499999999999,743.6663094687375,7487.932237816311,257.13100402536804,0.296927876082112,24.381560111165044,0.17554595454554453,-0.31226764122975836,-0.007199289677838668,1.5587348607242488
49.24206832999994,46.825000000000045,743.7020045389845,7503.131972531669,257.2361099765893,-0.2867866411241177,24.38179200628341,0.15946154682120264,-0.30127631114909814,-0.006539644515986256,1.5826744239996104
49.446608020999975,47.020000000000095,743.3667764957373,7518.728175486441,257.3336214597974,-0.8623476317001705,24.368325552544594,0.14325616011930442,-0.2882555427713116,-0.0058750407045195805,1.6062859320610956
49.616041429000006,47.18700000000001,742.7921685751037,7532.0757603285265,257.4089689685901,-1.3338856385778624,24.347143171298153,0.12970928885415328,-0.2763316024843501,-0.00531946804293101,1.6256440494891329
49.78493245699997,47.339000000000055,742.0465425868022,7544.212888523852,257.471109133716,-1.7443115356463055,24.32124549623262,0.11768933131807192,-0.26524636882955777,-0.004826517236560729,1.642509713001711
49.95948801999998,47.502000000000066,741.0247154815958,7557.212792710534,257.5312092299336,-2.165135113700084,24.287457373689854,0.10516777420972172,-0.2534491322252369,-0.004312996561361344,1.6598238344630456
50.204490003000046,47.73700000000008,739.1662756816191,7575.920500202558,257.6063264387509,-2.7370636123810077,24.229738472988387,0.08781977270862121,-0.23711747754528298,-0.003601540772694732,1.6833987801697985
50.41295586399997,47.932000000000016,737.297308520153,7591.408102716304,257.6586941180641,-3.181560473554575,24.175434679234936,0.07407444412363046,-0.22455830424274997,-0.0030378348699529618,1.701763711730698
50.615409875999944,48.13200000000006,735.0926238110372,7607.25545550843,257.7034794761603,-3.6115747937348655,24.11498106551635,0.06059471230481248,-0.21285621299114302,-0.0024850222211482203,1.7195725368484316
50.81841060900001,48.321000000000026,732.7548578237033,7622.193649591477,257.7378189331458,-3.9958334280816676,24.054322392881552,0.04842968567233827,-0.20304245808875188,-0.001986127150560513,1.7355265252244703
50.98704648099999,48.47500000000002,730.6767088322795,7634.337170233513,257.76031848542084,-4.294854647233008,24.00275327040969,0.03892298922389408,-0.19595700629028057,-0.0015962521519702958,1.7479706646222593
51.18998576599995,48.676000000000045,727.7425731206847,7650.147219159828,257.78265440818456,-4.668793148145719,23.93284552615819,0.027047384168253294,-0.18793805997654414,-0.0011092272045910088,1.7635719289337335
51.397666311999956,48.87300000000005,724.631697903366,7665.5971667125905,257.7971133345342,-5.019368308527035,23.861792516852436,0.01598956385875879,-0.1813837952186316,-0.0006557402871738227,1.7782416474335163
51.602951555000004,49.065000000000055,721.3847556543301,7680.610094094407,257.804471994415,-5.348291001706312,23.790233420819607,0.0057570911553649785,-0.17615254450991025,-0.00023610142215804502,1.7920465801525762
51.738508371999956,49.200000000000045,718.9795755541975,7691.138934585462,257.8058745065169,-5.573290255034102,23.73853176735583,-0.001124052657874374,-0.1730872685821741,4.609772774079913e-05,1.801514422588325
51.840046409000024,49.29000000000008,717.3203088579133,7698.145192856627,257.80511325030994,-5.7206626768514575,23.703447926304218,-0.005562623210889074,-0.17131149618497796,0.0002281257272369969,1.8077271519855544
52.009889673999965,49.44800000000009,714.3035085433231,7710.419956376803,257.8006767808713,-5.975228061045483,23.64055698244387,-0.013083517642806939,-0.1686567512369202,0.0005365613923754012,1.818480936944757
52.214763525999956,49.652000000000044,710.2159807561874,7726.219797823126,257.78934704920164,-6.297218724399645,23.556824819004834,-0.022288649653738488,-0.16596477204484175,0.0009140685614160291,1.8321252256448988
52.41829612799995,49.84100000000001,706.2373746073191,7740.8069812250005,257.77347032890737,-6.589925460664767,23.47661433183897,-0.030297476642953527,-0.16411125692316528,0.001242514755084422,1.8445719123915916
52.59130651299995,50.0,702.7529800944707,7753.0405496012845,257.75620746300206,-6.822872477355016,23.409988922900304,-0.01690525221599526,-0.19989620709218267,0.00069329635725875,1.8545082916721978
