Real_time_s,Simulation_time_s,x_ft,y_ft,alt_ft,vx_fps,vy_fps,vz_fps,roll_rad,pitch_rad,yaw_rad,adsb_x_ft,adsb_y_ft,adsb_alt_ft
0.0,0.0,-7.672360071549305e-14,9800.0,300.0,-2.1563386829989916e-13,-80.0,-1.5882928904084463e-12,3.498720311953664e-15,1.9853661130105582e-14,-1.570680000000003,167044.3881247772,-778901.4576428244,2325418.1028065025
0.034008341000003384,0.033999999999991815,-8.405515197352627e-14,9797.280000000019,300.0,7.043619652036742e-08,-80.00000000000001,-1.5893012009540914e-12,3.4987223384126262e-15,1.9866265015006607e-14,-1.570680000000003,167044.3881247772,-778901.4576428244,2325418.1028065025
0.06788825299997825,0.06700000000000728,1.5108149102684687e-06,9794.640000000038,300.0000000000136,1.7081210376632897e-05,-79.99999999999818,1.4096694126491218e-09,2.1258037929572876e-05,-1.761712431040403e-11,-1.5706797866609614,167044.3881247772,-778901.4576428244,2325418.1028065025
0.10395387299996628,0.09399999999999409,2.218851502774833e-06,9792.480000000052,300.00000000005707,1.9913470175745834e-05,-79.99999999999754,1.650174600221384e-09,2.4736625954312602e-05,-2.0610626595175818e-11,-1.5706797517509101,167044.3881247772,-778901.4576428244,2325418.1028065025
0.17173534500000187,0.160000000000025,5.636471545840452e-06,9784.480000000109,300.0000000004356,-4.326356389371701e-05,-79.9999999999886,4.776329519734519e-09,6.073113002498481e-05,-5.968626100630835e-11,-1.5706805410885991,167044.3881247772,-778901.4576428244,2325418.1028065025
0.2727736179999738,0.2610000000000241,-1.3557165679882522e-06,9776.480000000167,300.0000000011218,-0.00020819645296356356,-79.99999999973011,7.279190680734926e-09,8.5725211276132e-05,-9.095855581182704e-11,-1.5706826028211056,167044.3881247772,-778901.4576428244,2325418.1028065025
0.3735712999999805,0.3620000000000232,-2.8204974013152396e-05,9768.400000000223,300.0000000021044,-0.00046404549150693547,-79.99999999865642,9.807068318296188e-09,0.00010915283068088919,-1.2256072899456422e-10,-1.570685800821729,-2.1548041046383757,9795.04415014505,273.2251352137211
0.4746889459999579,0.4630000000000223,-0.00011017512033288882,9757.6000000005,300.0000000037636,-0.0009213538605399767,-79.99999999469928,1.2265057962837944e-08,0.00013287834488682142,-1.532874694553819e-10,-1.5706915171170817,-2.154896982629543,9789.844150146695,273.22513521372514
0.6176685780000071,0.5939999999999941,-0.00025578974274698504,9747.040000001465,300.0000000056327,-0.0014694545675094197,-79.99999998651276,1.3715440471721906e-08,0.0001496478246133091,-1.7142278670504146e-10,-1.5706983683172067,-2.1550744873432204,9784.644150150523,273.2251352136716
0.7531948409999814,0.7300000000000182,-0.00041993180514757455,9738.880000003044,300.00000000715136,-0.0019426205228876786,-79.99999997642539,1.4138920589170096e-08,0.00015864082873448475,-1.7672138817419192e-10,-1.5707042828518434,-2.155314702844249,9779.844150156634,273.22513521347975
0.8552619639999648,0.8319999999999936,-0.0007140111618194103,9728.080000007008,300.0000000091391,-0.0026157963115295787,-79.99999995725115,1.3797902553969096e-08,0.00016582346825407083,-1.7246667550314346e-10,-1.5707126974967554,-2.0834291964441767,9774.091182135811,273.40079176547033
0.9908734159999995,0.9670000000000414,-0.0009976089819659572,9719.92000001184,300.00000001055,-0.0031467181716489084,-79.99999993813326,1.2962734553549045e-08,0.00016801050000753257,-1.6203272146871235e-10,-1.5707193339858483,-2.082345034026564,9769.665043356406,273.4042887654419
1.0928047259999971,1.0680000000000405,-0.001427882686296217,9709.760000020842,300.0000000121191,-0.0038194001751151903,-79.99999990885078,1.1340352396150817e-08,0.00016724533366823635,-1.417588302873949e-10,-1.5707277424757473,-2.081232421685718,9764.836528328304,273.40810367424206
1.2302517900000112,1.1960000000000264,-0.0018350302810671109,9701.600000030943,300.00000001318904,-0.0043590907265523785,-79.99999988126777,9.708736331960644e-09,0.00016436750937639106,-1.213682155671485e-10,-1.5707344885792844,-2.0801959140283683,9760.008013305092,273.41191858273993
1.3316605669999717,1.2970000000000255,-0.0024583708769199014,9690.800000048861,300.00000001430357,-0.0050601790918970435,-79.99999983999888,7.242321848537962e-09,0.00015773739935659036,-9.054205536631211e-11,-1.570743252156071,-1.937407375295847,9752.64109955021,273.5855324478508
1.467560748999972,1.4329999999999927,-0.0029915792877238433,9682.640000066216,300.0000000149043,-0.005572362596187711,-79.99999980596567,5.283729761720517e-09,0.0001509919184500128,-6.60617166710082e-11,-1.5707496544325386,-1.9299258428511035,9748.09776399883,273.59699377170574
1.5697484539999778,1.535000000000025,-0.003734115023349456,9672.400000093085,300.0000000153583,-0.00618502876602769,-79.99999976094841,2.7683671561969575e-09,0.000140812158981606,-3.462125367208885e-11,-1.5707573127413088,-1.9224956984407315,9743.55442845182,273.608455095344
1.6715599780000048,1.629000000000019,-0.00438058319560687,9664.240000118658,300.00000001548653,-0.006644224850215467,-79.9999997241312,8.041294720458684e-10,0.0001316214838660697,-1.0068465687378646e-11,-1.5707630526827252,-1.9144444555636468,9738.598062405472,273.62095835726865
1.8069963769999617,1.7630000000000337,-0.0052923950087750225,9653.600000157638,300.000000015362,-0.007199608656456956,-79.9999996760799,-1.552323025120703e-09,0.00011859697249046274,1.938764094064219e-11,-1.5707699949700702,-1.8393303687908509,9729.03168768906,273.3150053464731
1.9408806069999969,1.8969999999999914,-0.006032801885093177,9645.520000191462,300.0000000150663,-0.007585265884678358,-79.99999964044474,-3.1931244867554173e-09,0.00010814798688403605,3.9898573384229436e-11,-1.5707748156805383,-1.8280145181093272,9724.214190208302,273.3073502797458
2.0425582219999683,1.9990000000000236,-0.006818981453720401,9637.360000229259,300.00000001461103,-0.007941517012036147,-79.99999960587466,-4.6616154104472536e-09,9.72956049714062e-05,5.825600336736804e-11,-1.570779268816977,-1.8177562233472706,9719.834647047015,273.3003911280726
2.1472286919999988,2.093999999999994,-0.00786353771801166,9627.040000282099,300.0000000138417,-0.008341105212707775,-79.9999995652114,-6.283277742863503e-09,8.33825480201212e-05,7.852875885368607e-11,-1.5707842636688794,-1.8024147002055146,9713.265332310097,273.2899524004064
2.2831300199999873,2.230000000000018,-0.009017391852910835,9616.16000034325,300.00000001283655,-0.00870229598405636,-79.9999995267379,-7.653019636840655e-09,6.877584821957335e-05,9.565282167543895e-11,-1.5707887785557233,-1.7891542281944284,9707.571926208766,273.28090550298185
2.419398151999985,2.3660000000000423,-0.010208321267219744,9605.360000408926,300.0000000116821,-0.00899876626886041,-79.99999949393957,-8.772469950209162e-09,5.460351877746131e-05,1.0964825135497498e-10,-1.570792484438991,-1.568177564510618,9694.17095138571,273.30640991267535
2.5210663180000097,2.466000000000008,-0.011114838214333917,9597.360000460263,300.00000001074784,-0.009178892514490005,-79.99999947347567,-9.410032240968383e-09,4.445409958402043e-05,1.176194059446386e-10,-1.570794736021778,-1.5450310518086272,9688.843847806542,273.3006015558684
2.621837884999991,2.5670000000000073,-0.011991889829147286,9589.760000510865,300.0000000098125,-0.009319453964188856,-79.99999945722489,-9.902304253969599e-09,3.517415982630601e-05,1.237742381020822e-10,4.712388814134555,-1.5197924839634434,9683.03246208526,273.2942651665908
2.759667886999978,2.694999999999993,-0.013258955408729827,9578.96000058517,300.00000000842147,-0.009472384755897487,-79.99999943926349,-1.0424959253022773e-08,2.2665745453672526e-05,1.3030925313404704e-10,4.712386902490639,-1.4924592857131396,9676.736794221568,273.28740074484915
2.895553298999971,2.8310000000000173,-0.014228572656418859,9570.800000642752,300.0000000073369,-0.009552385214339333,-79.99999942975116,-1.071018742433971e-08,1.3820757554254785e-05,1.3387577791205735e-10,4.712385902477351,-1.1205212755389067,9658.298363034843,273.4428847630091
2.9986767089999944,2.93100000000004,-0.015503224745172066,9560.160000719075,300.0000000058952,-0.009613303053695607,-79.99999942245414,-1.095182546964707e-08,3.1545079600051433e-06,1.3689749363928078e-10,4.712385140994067,-1.0708121731538434,9651.112676616265,273.4461875118488
3.1339617129999624,3.066000000000031,-0.016427241369210546,9552.48000077465,300.00000000483914,-0.009628988412879425,-79.99999942056772,-1.1096187518804923e-08,-3.906175316142465e-06,1.387027148316478e-10,4.712384944919073,-1.0287467951798117,9645.032480415473,273.44898214547726
3.2394993569999997,3.1620000000000346,-0.01740982304850191,9544.320000833754,300.0000000037087,-0.009621584412231871,-79.99999942145857,-1.1164083433621332e-08,-1.0805080753032442e-05,1.3955198584493072e-10,4.71238503746141,-0.9866752690182975,9638.952284213945,273.45177677910533
3.341194057999985,3.26400000000001,-0.01871718921461632,9533.440000912255,300.0000000021949,-0.00957739472189671,-79.99999942676111,-1.123270615256631e-08,-1.9041876347664618e-05,1.4041027444635604e-10,4.712385589821295,-1.1411151998043,9612.614547670632,276.71849262431357
3.511272087000009,3.434000000000026,-0.020016666908130632,9522.56000098984,300.00000000067945,-0.009497622164796085,-79.99999943627161,-1.1257158495921495e-08,-2.6166809372238247e-05,1.4071618241458348e-10,4.712386586967262,-1.1034009403742437,9604.357852728086,276.9102573107987
3.613544289999993,3.5360000000000014,-0.021209425553617257,9512.480001060449,299.9999999992709,-0.009395888160429793,-79.99999944828498,-1.1276384827593465e-08,-3.178772715106834e-05,1.409565432819828e-10,4.712387858631827,-1.068571084154001,9596.736288163802,277.08727086755414
3.7491904589999763,3.6610000000000014,-0.02246261695957853,9501.760001133696,299.99999999777157,-0.0092626339352433,-79.99999946382474,-1.1286338634175334e-08,-3.677798494267806e-05,1.410808825788438e-10,-1.5707957828795953,-1.0279143254366006,9587.84446283631,277.2937866837698
3.88395292499996,3.7959999999999923,-0.02370599892564396,9490.960001205176,299.99999999626095,-0.009107205122806297,-79.99999948167006,-1.1264989246538086e-08,-4.08306531348603e-05,1.4081381805757572e-10,-1.570793840028708,-0.58107147390117,9560.028823064837,275.4247902789895
3.9846412829999736,3.896000000000015,-0.024603951032771444,9483.040001256048,299.9999999951532,-0.008981868791262355,-79.99999949584044,-1.1253274558692742e-08,-4.3215026266113144e-05,1.4066718098090835e-10,-1.5707922733312247,-0.5350409770530654,9552.808174004947,275.49032698198073
4.086097316999997,3.9960000000000377,-0.02552478669427167,9474.800001307482,299.9999999940007,-0.008843227227217374,-79.99999951128633,-1.1244945806154843e-08,-4.520375912510508e-05,1.405628484430193e-10,-1.570790540317871,-0.48439092468643874,9544.86546003728,275.56241735527163
4.225556365999978,4.128000000000043,-0.02667470109515453,9464.320001370505,299.99999999253487,-0.008657127013869509,-79.99999953164189,-1.1217742554094509e-08,-4.704837416284372e-05,1.4022250401150805e-10,-1.5707882140725369,-0.42450785210943603,9535.478616254777,275.6476150691627
4.327557116999969,4.230000000000018,-0.027553000549131457,9456.160001417787,299.9999999913935,-0.008506733005683205,-79.99999954777562,-1.1201719262264912e-08,-4.8012198355587666e-05,1.400219639298699e-10,-1.5707863341529165,-0.37381775298303976,9527.535902282909,275.71970544245886
4.462337878999961,4.364000000000033,-0.02868320427044973,9445.440001477331,299.9999999898963,-0.008304169735494298,-79.99999956905899,-1.1156091421973683e-08,-4.86932716159705e-05,1.3945132011351736e-10,-1.570783802118238,-0.11202212060404676,9496.465169906625,275.3254324308824
4.598354696999991,4.4979999999999905,-0.029777895754305037,9434.800001533658,299.9999999884158,-0.008100110580531882,-79.99999958998096,-1.1098763820102153e-08,-4.8791530302720886e-05,1.3873446152740804e-10,-1.5707812513841968,-0.047889571704139156,9486.857321230933,275.3831251939545
4.706170869999994,4.593999999999994,-0.03055105048428945,9427.120001572603,299.9999999873506,-0.007952356756203684,-79.99999960480511,-1.1046615749573448e-08,-4.854696312915357e-05,1.380824399862656e-10,-1.5707794044649077,0.016265094516563453,9477.249472553105,275.44081795703926
4.841359729999965,4.728000000000009,-0.03134927495699936,9419.040001612035,299.99999998623616,-0.007797494936441495,-79.9999996200495,-1.0974700198012063e-08,-4.804167068931031e-05,1.371833535575859e-10,-1.5707774686951632,0.07509254531408127,9468.442277929966,275.49370298988106
4.94314386100001,4.830000000000041,-0.032391854722081725,9408.240001662316,299.99999998475704,-0.007592841460829756,-79.99999963973549,-1.0839038418546978e-08,-4.702491492663354e-05,1.354874201248352e-10,-1.5707749105303135,0.6055294939901774,9442.057495303166,274.8015843260935
5.044011957999999,4.930000000000007,-0.03314636748959884,9400.240001697875,299.99999998367383,-0.007443913456942122,-79.99999965373202,-1.0717885294505895e-08,-4.6056254501962894e-05,1.339729139699351e-10,-1.5707730489325074,0.696272292863461,9430.862413461185,274.8305725036149
5.178255272999991,5.064000000000021,-0.034112360681907435,9389.760001742421,299.99999998227196,-0.007253368887326558,-79.99999967123546,-1.05360331356131e-08,-4.455968386865256e-05,1.3169968111879124e-10,-1.5707706671276673,0.7940208806667922,9418.80617147527,274.86179054098034
5.320302897999966,5.194999999999993,-0.035082105901614404,9378.960001785896,299.9999999808543,-0.007063338743085866,-79.99999968823961,-1.0303163350148024e-08,-4.281000872981134e-05,1.2878875934051225e-10,-1.5707682917526826,0.8848107811246937,9407.611089629196,274.8907787185713
5.45634378799997,5.331000000000017,-0.03603346338339073,9368.080001827517,299.99999997945935,-0.006879368494132815,-79.99999970427149,-1.0031524130542746e-08,-4.089046822930317e-05,1.2539325224588792e-10,-1.570765992125832,1.0566192381756574,9385.985820941853,276.3939874479047
5.558124369999973,5.432999999999993,-0.03672396428531909,9360.000001857008,299.9999999784485,-0.006748044932821229,-79.9999997154567,-9.815413035380192e-09,-3.9394913126447084e-05,1.2269186895294028e-10,-1.570764350581915,1.1298161234848785,9376.948891639211,276.4650019639636
5.659343705999959,5.533999999999992,-0.03735469445404486,9352.480001883448,299.99999997752747,-0.00663011081184333,-79.99999972531786,-9.59335693799378e-09,-3.796942153010747e-05,1.1991618334032455e-10,-1.5707628764057433,1.239632824797732,9363.393497683537,276.57152373810345
5.831557643999986,5.696000000000026,-0.03824813818283382,9341.600001920098,299.99999997623394,-0.006466961089065771,-79.99999973867303,-9.236632930269426e-09,-3.5881197024176167e-05,1.154571721567613e-10,-1.5707608370343102,1.3275040174807573,9352.549182517592,276.6567411574633
5.933060054999999,5.798000000000002,-0.039119821239536494,9330.720001955076,299.9999999749911,-0.0063126489527564845,-79.99999975099857,-8.853204577689312e-09,-3.3796727053530167e-05,1.1066436857870305e-10,-1.5707589081323672,1.8366182104896236,9334.56973272312,275.2404122192438
6.068555102999994,5.932000000000016,-0.03995234789296493,9320.080001987692,299.9999999738269,-0.0061704476428002045,-79.99999976209324,-8.459749382867469e-09,-3.179418248354139e-05,1.057462362202236e-10,-1.5707571306154602,1.9499735104410771,9322.452868772958,275.2707261306849
6.169554962999996,6.032000000000039,-0.040547757356556545,9312.320002010521,299.9999999730126,-0.006072081157813799,-79.99999976961999,-8.162542913164685e-09,-3.037174693595827e-05,1.0203120037460681e-10,-1.5707559010338414,2.045901469125619,9312.200137737322,275.2963763634852
6.304777872999978,6.163000000000011,-0.041157795216122645,9304.240002033532,299.9999999721949,-0.005974328175044161,-79.99999977697998,-7.839998829970318e-09,-2.8935169965039503e-05,9.799944551333855e-11,-1.570754679120915,2.141840117982514,9301.947406700905,275.32202659632685
6.4066957459999685,6.265000000000043,-0.04195808963532933,9293.44000206317,299.99999997115435,-0.005850741932777299,-79.99999978611402,-7.392017957366912e-09,-2.7098306581503752e-05,9.23997474145305e-11,-1.57075313429183,2.8168218902990687,9286.814081905906,276.06608322912075
6.541689391999967,6.400000000000034,-0.042551907753863596,9285.280002084786,299.9999999704093,-0.005762601540343266,-79.99999979251167,-7.046623443383661e-09,-2.5782708909784297e-05,8.808236144587298e-11,-1.5707520325360562,2.955150426266549,9274.401296148233,276.12646928981945
6.643562274999965,6.5020000000000095,-0.04332429819436975,9274.480002112408,299.9999999694776,-0.0056524814753262185,-79.99999980036826,-6.57473743257165e-09,-2.4146173232628297e-05,8.218384385706582e-11,-1.5707506560339919,3.0713141167875215,9263.97834627468,276.1771751423628
6.747774649000007,6.593999999999994,-0.043847818540774706,9267.040002130807,299.999999968873,-0.005580883328009682,-79.99999980539519,-6.2413638329916814e-09,-2.3093382899170206e-05,7.801671178390198e-11,-1.570749761056212,3.1874866044069656,9253.55539640053,276.22788099495153
6.883712151999987,6.729000000000042,-0.044397956814991923,9259.12000214992,299.999999968265,-0.005507966456424213,-79.9999998104488,-5.887688539363705e-09,-2.2040986687028362e-05,7.359580588518961e-11,-1.5707488495944095,3.303667237019257,9243.132446525824,276.27858684758644
6.984681330000001,6.829000000000008,-0.045142227183621784,9248.24000217536,299.9999999674851,-0.005413193800192871,-79.99999981691785,-5.39131741298023e-09,-2.0708958473772585e-05,6.739121284433036e-11,-1.570747664934859,2.8090401898362036,9232.850153498535,279.0221854525713
7.086142504000009,6.93100000000004,-0.04568675444019854,9240.160002193652,299.9999999669513,-0.005346547007854433,-79.9999998213998,-5.0130978664025835e-09,-1.9806863762894926e-05,6.26634994165421e-11,-1.570746831848953,2.931103683897414,9219.55399916145,279.20254214394845
7.2211334059999785,7.064999999999998,-0.04637787157833732,9229.760002216568,299.9999999663209,-0.005265125010050084,-79.99999982680009,-4.532407378495637e-09,-1.8755511172849982e-05,5.6654902623614364e-11,-1.570745814072783,3.0270184101500006,9209.10702075325,279.34425097293564
7.362758548999977,7.196000000000026,-0.0469128865017072,9221.600002234127,299.9999999658691,-0.005204242856223351,-79.9999998307839,-4.1692627374791434e-09,-1.801111755642699e-05,5.211562020964681e-11,-1.5707450530448548,3.114219571590255,9199.609767654501,279.4730771811436
7.464383252000005,7.2970000000000255,-0.047431445335913786,9213.600002250892,299.99999996546194,-0.005146945923101724,-79.99999983449081,-3.805967635225718e-09,-1.7351109944421995e-05,4.757445279669997e-11,-1.5707443368323042,2.5203898194975,9190.84423701852,278.2255555558726
7.565939023999988,7.398000000000025,-0.04795456827338089,9205.440002267691,299.9999999650846,-0.005090693178102597,-79.99999983809022,-3.452722311555194e-09,-1.674451377254356e-05,4.315890568411566e-11,-1.5707436336721274,2.592891124169005,9180.457530974369,278.3200853183081
7.6672652789999916,7.499000000000024,-0.0486382468855101,9194.640002289318,299.99999996464095,-0.005019283503168556,-79.99999984260249,-2.9782289641296255e-09,-1.6040336494687666e-05,3.7227761570332325e-11,-1.5707427410500951,2.685174132530996,9167.238086917632,278.4403959251041
7.805442235999976,7.628000000000043,-0.04928263943035632,9184.320002309449,299.99999996427664,-0.004953920930062315,-79.99999984667679,-2.5374917565965754e-09,-1.5467187270106997e-05,3.171856446452224e-11,-1.5707419240169989,2.7576887591560753,9156.85138087266,278.53492568763255
7.941449957999964,7.76400000000001,-0.04978629434522357,9176.160002324978,299.9999999640278,-0.004903891097338295,-79.99999984975925,-2.189990774363169e-09,-1.5075042477313053e-05,2.737481531027723e-11,-1.570741298643357,2.8368022551197947,9145.520428823196,278.63804906498285
8.042561589000002,7.864000000000033,-0.050440280262484594,9165.440002344892,299.99999996375635,-0.0048401259774960405,-79.9999998536426,-1.7410013333187994e-09,-1.4638046985176572e-05,2.1762461359320308e-11,-1.570740501578534,2.8666076439440262,9138.780673923122,277.6661755087686
8.14456426199996,7.966000000000008,-0.05092761840537189,9157.360002359566,299.9999999635899,-0.004793314511609138,-79.9999998564611,-1.4117770155042492e-09,-1.4361179515998035e-05,1.764716658613901e-11,-1.5707399164346416,2.9508903208622272,9126.614728048049,277.73654229086816
8.283910429999992,8.093999999999994,-0.051538461392035946,9147.120002377782,299.9999999634291,-0.0047353095387860445,-79.99999985991559,-1.0086768864804876e-09,-1.4069032091973427e-05,1.2608425248651666e-11,-1.5707391913718167,2.9897926326677973,9120.999676105554,277.7690192672398
8.41891424299996,8.229000000000042,-0.05201528142645557,9139.040002391854,299.99999996333634,-0.0046903767746295025,-79.99999986256269,-7.004046166582846e-10,-1.3879509152121084e-05,8.755028324459091e-12,-1.5707386297118333,3.106508592618686,9104.15452027755,277.8664501964165
8.519800392999969,8.330000000000041,-0.052645577854430976,9128.240002410259,299.9999999632608,-0.004631287767916302,-79.99999986600533,-2.9978690996780845e-10,-1.3675263779659486e-05,3.747314542442402e-12,-1.570737891098728,2.9613217682100337,9098.125855014845,278.11846953738905
8.620560706999981,8.430000000000007,-0.05311194019071505,9120.160002423678,299.9999999632405,-0.0045876679129407336,-79.9999998685187,2.3831531031878408e-12,-1.3554556125816797e-05,-2.980642957521292e-14,-1.5707373458501985,3.025626948465899,9087.945870307314,278.18459854979307
8.755332353999961,8.564999999999998,-0.0535511135492384,9112.480002436241,299.9999999632491,-0.004546584880815209,-79.99999987086419,2.7721229900250603e-10,-1.3462048275029608e-05,-3.465166814850041e-12,-1.5707368323120123,3.0899371512924425,9077.765885599507,278.25072756222966
8.862458739999965,8.661000000000001,-0.05416209905517624,9101.680002453539,299.99999996330575,-0.004489301141570719,-79.9999998740993,6.461703217025022e-10,-1.3362265572156937e-05,-8.077137837218741e-12,-1.5707361162649587,3.1542524939143455,9067.58590089141,278.31685657469905
8.96355811899997,8.763000000000034,-0.054618621911238056,9093.520002466277,299.99999996338187,-0.004446309049152171,-79.99999987650034,9.26227389139944e-10,-1.3306438699784612e-05,-1.1577848688858151e-11,-1.5707355788636184,2.833870679986057,9062.764888931453,281.9509106436122
9.065561935000005,8.865000000000009,-0.05507076705216996,9085.360002478763,299.99999996348646,-0.004403507966002908,-79.99999987886774,1.199161104937762e-09,-1.3263927753453558e-05,-1.4989518013219804e-11,-1.5707350438499197,2.8897192904904037,9051.862138141101,282.1556842457509
9.167818855999997,8.967000000000041,-0.055666847510916405,9074.480002495073,299.9999999636656,-0.004346659437572304,-79.99999988197676,1.5453274691773513e-09,-1.3223511971940242e-05,-1.9316595554982896e-11,-1.5707343332431618,2.9455738847839705,9040.959387350425,282.3604578479239
9.306509516999995,9.093999999999994,-0.056212154147729156,9064.400002509794,299.99999996387356,-0.004294153204948377,-79.99999988481241,1.8541840094360754e-09,-1.3198034326734929e-05,-2.3177301165641293e-11,-1.5707336769151672,3.01074517657925,9028.239511427559,282.5993603838345
9.476049999999987,9.262,-0.05678487372697405,9053.680002525063,299.9999999641376,-0.004238423719449239,-79.99999988778445,2.1686291690060362e-09,-1.3178169504462783e-05,-2.7107864967356376e-11,-1.5707329802965448,1.5894924781775381,9022.733634076789,279.61223330466356
9.577294096999992,9.363,-0.057215831700900534,9045.520002536432,299.9999999643659,-0.004196060154658552,-79.99999989001773,2.3977064941400926e-09,-1.3165511406349763e-05,-2.997133136138831e-11,-1.5707324507519713,1.5901542773831971,9013.698478204144,279.68461651350714
9.678552687999968,9.463999999999999,-0.05763830134984873,9037.440002547439,299.9999999646143,-0.004154152494086959,-79.9999998922049,2.6215490254745663e-09,-1.3153279763177608e-05,-3.276936315327301e-11,-1.570731926906225,1.5910122582855182,9002.069069654879,279.7777830199688
9.819905958999982,9.593999999999994,-0.05817581815184455,9027.040002561327,299.9999999649691,-0.004100269310390142,-79.99999989498478,2.893180970998861e-09,-1.3135523195251975e-05,-3.616476299319742e-11,-1.5707312533664677,1.5918105618387985,8991.3342309937,279.863782872116
9.954955428000005,9.730000000000018,-0.05859268833889064,9018.880002571987,299.99999996527026,-0.004058039802922239,-79.9999998971381,3.0910735589663538e-09,-1.3118489310808469e-05,-3.863842095819752e-11,-1.5707307254976701,1.5926148067727257,8980.599392332222,279.94978272428955
10.056804597999985,9.831999999999994,-0.05913780116081393,9008.080002585759,299.9999999656998,-0.00400222946798876,-79.99999989994971,3.3432278768021945e-09,-1.3089806598052992e-05,-4.17903510038629e-11,-1.5707300278685654,1.2744063655233262,8974.106581336735,284.4416687355821
10.191817454999978,9.966000000000008,-0.05966746139756133,8997.440002598933,299.99999996615554,-0.003947363196110005,-79.99999990267577,3.5839084004744094e-09,-1.3052971699815163e-05,-4.479885882542584e-11,-1.5707293420402642,1.2644887649659173,8964.411119599352,284.66777234739254
10.29222366199997,10.064999999999998,-0.06004129619554603,8989.840002608107,299.99999996650104,-0.0039082658606780065,-79.99999990459537,3.749974229623763e-09,-1.3020535487848366e-05,-4.687468264883294e-11,-1.570728853323645,1.2536751471215062,8953.834252249218,284.9144308330256
10.436257728999976,10.194999999999993,-0.06043859108812617,8981.680002617803,299.99999996688905,-0.0038663875297857667,-79.99999990663035,3.913763656963261e-09,-1.2979907154426871e-05,-4.892205164212733e-11,-1.5707283298445982,1.2437678777867753,8944.138790511342,285.14053444487587
10.537502980999989,10.297000000000025,-0.06095785504810899,8970.880002630267,299.9999999674272,-0.0038111569782228083,-79.99999990928063,4.129233315739838e-09,-1.291590673565814e-05,-5.161542388550116e-11,-1.570727639462822,1.261832802317401,8937.394252328337,283.3381755859513
10.67210673400001,10.43100000000004,-0.06146967463017473,8960.080002642377,299.99999996799545,-0.003756195339580202,-79.99999991188014,4.331526021694159e-09,-1.2840022482929119e-05,-5.414408423478088e-11,-1.5707269524424605,1.2529423559825412,8927.858203839105,283.4942885753213
10.773688193999988,10.532000000000039,-0.0618290958332454,8952.400002650787,299.999999968416,-0.0037173046047130538,-79.99999991369671,4.4665134029440234e-09,-1.2778725088430894e-05,-5.583142763620997e-11,-1.5707264663083658,1.2440566238316704,8918.32215534966,283.65040156470656
10.914404652999963,10.663000000000011,-0.06220693403484184,8944.24000265952,299.99999996887726,-0.003676181894550037,-79.999999915597,4.606733762511491e-09,-1.2706994920324659e-05,-5.758418312395649e-11,-1.5707259522745711,1.234368783927302,8907.919193360918,283.8207066440527
11.01491932099998,10.76400000000001,-0.06269693508819059,8933.520002670692,299.9999999695052,-0.003622501217851387,-79.99999991804579,4.781802175987864e-09,-1.2602834897070814e-05,-5.97725396518726e-11,-1.5707252812662267,1.2285981578816372,8902.47593436653,278.72036206890755
11.149390492999999,10.899000000000001,-0.06318692833995539,8922.640002681726,299.99999997016243,-0.003568463571247621,-79.99999992047447,4.936731421152798e-09,-1.24860462521922e-05,-6.170915648607531e-11,-1.5707246057957542,1.2182445091737713,8891.375925166065,278.6911637955134
11.25119216600001,11.001000000000033,-0.06354961190998908,8914.4800026898,299.9999999706697,-0.003528259477951983,-79.99999992225777,5.042991087228889e-09,-1.239151897338129e-05,-6.303740317229785e-11,-1.5707241032446655,1.2094889746257416,8881.983609688523,278.66645756419297
11.388745724999978,11.128000000000043,-0.06399193725773947,8904.400002699495,299.99999997131044,-0.0034790250736187345,-79.99999992441404,5.172312734078865e-09,-1.2266938135288185e-05,-6.465392464213539e-11,-1.570723487814695,1.1983521500262415,8870.029753625906,278.6350132698004
11.523248698999964,11.262,-0.06445904483080377,8893.60000270959,299.9999999720154,-0.0034268062084017196,-79.99999992666795,5.298672014345153e-09,-1.2125213451104468e-05,-6.623341652677782e-11,-1.5707228350789668,1.1896070108459285,8860.637438147922,278.6103070385034
11.625123239000004,11.364000000000033,-0.06480731436313493,8885.440002717005,299.9999999725591,-0.0033877473133514598,-79.99999992833153,5.3890407501422636e-09,-1.2012865001073337e-05,-6.736302627378721e-11,-1.5707223468428362,0.9354698202369974,8855.059436520307,283.7389519687597
11.761504884999965,11.5,-0.06526549999143509,8874.560002726668,299.99999997329786,-0.0033362277438589933,-79.99999993049666,5.492565034821435e-09,-1.1856836661773418e-05,-6.86570804074864e-11,-1.5707217028482843,0.9185962932052916,8845.82532210179,283.8858348152001
11.865364160000013,11.593999999999994,-0.0655714380394119,8867.200002733034,299.9999999738056,-0.0033017697218922252,-79.99999993192624,5.555340438865886e-09,-1.1747687650996523e-05,-6.944177326125836e-11,-1.5707212721230484,0.900193953773751,8835.751742735922,284.046070647689
11.999920516999964,11.725999999999999,-0.06590043683469854,8859.200002739804,299.9999999743635,-0.003264657175594298,-79.99999993344937,5.620404316543051e-09,-1.1626361319006058e-05,-7.025507196180015e-11,-1.570720808216255,0.8833298037816584,8826.517628317024,284.19295349414375
12.102582316999985,11.828000000000031,-0.06633873399597484,8848.400002748693,299.99999997512583,-0.0032151565612331566,-79.99999993545413,5.701954479802794e-09,-1.1458766950801207e-05,-7.127444921798353e-11,-1.5707201894586165,0.9900910260749366,8821.736566890926,283.2245001836168
12.204123143000004,11.92900000000003,-0.06666229084844034,8840.320002755181,299.9999999757035,-0.0031785866348256423,-79.99999993691551,5.753062846715588e-09,-1.1331039518380253e-05,-7.191330388522373e-11,-1.570719732334561,0.9773811562025801,8812.62785551002,283.33396363972673
12.304317052999977,12.03000000000003,-0.0669727026069689,8832.480002761333,299.99999997626844,-0.00314349332984275,-79.9999999383022,5.7961045926863764e-09,-1.1205598715254683e-05,-7.245132571500262e-11,-1.570719293668267,0.9646755418081576,8803.519144128953,283.44342709584134
12.446701259999998,12.162000000000035,-0.06728904707857039,8824.40000276752,299.9999999768555,-0.003107732318290364,-79.99999993969945,5.8375300804676864e-09,-1.1075183577424719e-05,-7.296914424536667e-11,-1.5707188466556352,0.9508196891451645,8793.582368076697,283.56284177524304
12.548021505999998,12.262,-0.06770627275213603,8813.60000277555,299.9999999776454,-0.003060575673455537,-79.99999994151749,5.888410815549268e-09,-1.0899708097480758e-05,-7.36051532622219e-11,-1.5707182571975853,0.9807730885826109,8786.31234943974,282.5407806609818
12.683557083999972,12.398000000000025,-0.06812019431885817,8802.720002783439,299.99999997844753,-0.003013820905184873,-79.99999994329255,5.920539948735553e-09,-1.0722335811519464e-05,-7.400676716806334e-11,-1.5707176727629846,0.9695891776352166,8777.298080324385,282.6110024238828
12.785558659000003,12.5,-0.06842349019478848,8794.640002789123,299.9999999790456,-0.0029795911608519678,-79.99999994457475,5.942600936524788e-09,-1.059067969842038e-05,-7.428252927012041e-11,-1.5707172448911777,0.9573931790617836,8767.464332198368,282.68760798341276
12.924432191999983,12.628000000000043,-0.06880584184064385,8784.320002796216,299.99999997981416,-0.0029364954861498946,-79.99999994616834,5.959550986313614e-09,-1.0423163350405898e-05,-7.449440452368862e-11,-1.5707167061952347,0.9452017996833888,8757.630584072183,282.76421354294376
13.025800812,12.729000000000042,-0.0691013582840488,8776.240002801596,299.99999998041693,-0.0029032202153181715,-79.99999994738285,5.971031880552647e-09,-1.0292802598100496e-05,-7.463791537284833e-11,-1.5707162902543383,0.9340304357986993,8748.616314956364,282.8344353058471
13.127560812000013,12.831000000000017,-0.06939352716836011,8768.160002806877,299.9999999810197,-0.0028703605099493186,-79.99999994856859,5.973907390433861e-09,-1.0163414521631766e-05,-7.467385890340991e-11,-1.5707158795080076,1.0859093114876703,8743.021875678303,284.5661351342506
13.262561173999984,12.965000000000032,-0.06968239048666641,8760.080002812058,299.9999999816224,-0.002837913502189697,-79.99999994972622,5.970551049351506e-09,-1.0035176636809874e-05,-7.463190426547177e-11,-1.5707154739203943,1.0802121271968896,8734.098048823133,284.6925726570097
13.364084451999986,13.066000000000031,-0.07004656841751083,8749.76000281848,299.9999999823923,-0.002797076371155302,-79.99999995116447,5.960240477570461e-09,-9.873421188194953e-06,-7.450302163211246e-11,-1.5707149634562327,1.0740012937477308,8724.36296498098,284.8305045000174
13.469235946999959,13.162000000000035,-0.07033083601604505,8741.600002823408,299.999999983001,-0.0027652427838851536,-79.99999995227118,5.950707386158004e-09,-9.747265728343585e-06,-7.43838575710339e-11,-1.5707145655363695,1.0677949601632573,8714.627881138678,284.9684363430217
13.605102060999968,13.298000000000002,-0.0707048362802785,8730.720002829827,299.99999998380787,-0.0027234298139679923,-79.99999995370558,5.927269069582744e-09,-9.581768214578287e-06,-7.409087806742722e-11,-1.570714042874215,0.1810890667452679,8707.298811724673,280.6301396377209
13.707052971999985,13.399000000000001,-0.07097621571169954,8722.720002834409,299.99999998439995,-0.0026931413320471294,-79.99999995473098,5.904300455869102e-09,-9.462176145934607e-06,-7.380376998445266e-11,-1.5707136642681672,0.14196397447525563,8697.596024668223,280.6016845871281
13.842270954000014,13.533999999999992,-0.07124992518946906,8714.560002839033,299.9999999850008,-0.0026626355209329973,-79.99999995575213,5.869798155977465e-09,-9.34211733522399e-06,-7.337249082401732e-11,-1.570713282945503,0.10610304763313656,8688.701803199685,280.5756007907472
13.946561354999972,13.628000000000043,-0.0715863586380896,8704.400002844599,299.9999999857453,-0.0026252064698680908,-79.99999995698917,5.828758823511151e-09,-9.195518854229257e-06,-7.285949865435244e-11,-1.5707128150823326,0.07024551704956337,8679.80758173104,280.5495169943613
14.04795915799997,13.729000000000042,-0.07185316683119775,8696.240002848917,299.99999998633973,-0.002595561365510681,-79.99999995795653,5.79782232569875e-09,-9.080036674053533e-06,-7.247279200999851e-11,-1.5707124445184997,0.03113216893247511,8670.10479467421,280.52106194375193
14.183327751999968,13.864000000000033,-0.07220166607863834,8685.440002854531,299.99999998711866,-0.002556897390359344,-79.99999995920167,5.738739894777475e-09,-8.930446274116095e-06,-7.173426109744624e-11,-1.570711961218775,-0.23655099712352215,8663.279783418704,276.40725113682004
14.284386336000011,13.965000000000032,-0.0724589965280936,8677.360002858659,299.99999998769624,-0.0025283890817512852,-79.99999996010777,5.684938404731517e-09,-8.82093292512849e-06,-7.106174208149936e-11,-1.5707116048648904,-0.28015498970727654,8654.45760309834,276.2442099816551
14.423245758999997,14.093999999999994,-0.07269839985972486,8669.760002862397,299.99999998823506,-0.0025019036733229826,-79.99999996094049,5.640386332735332e-09,-8.719872448655652e-06,-7.050484084193231e-11,-1.5707112737972615,-0.33168273603370607,8644.031389992331,276.0515249800879
14.524555913999961,14.194999999999993,-0.07303433114827582,8658.960002867609,299.99999998899347,-0.002464774277915692,-79.99999996209313,5.56650374361902e-09,-8.579288690159169e-06,-6.958130798106257e-11,-1.5707108096797828,-0.38320584073036307,8633.605176886176,275.8588399785107
14.660170027999982,14.330000000000041,-0.07336527953611789,8648.16000287267,299.9999999897409,-0.002428243799192236,-79.9999999632103,5.488185231914809e-09,-8.442289148042173e-06,-6.86023261106867e-11,-1.5707103530487636,-0.04751491406711636,8627.326152781616,276.431580344916
14.762122671999975,14.43100000000004,-0.07360484492599317,8640.240002876271,299.99999999028245,-0.0024018300931949598,-79.99999996400767,5.429203103285055e-09,-8.344073536274204e-06,-6.786504917620273e-11,-1.5707100228774138,-0.0784973227918826,8618.538542684619,276.29253798842905
14.863713941000015,14.531000000000006,-0.07383703860880003,8632.480002879758,299.99999999080575,-0.002376245303281075,-79.99999996477169,5.359012038406341e-09,-8.249612055297188e-06,-6.698766053831747e-11,-1.5707097030675143,-0.10947659532904329,8609.75093258753,276.1534956319329
15.003137209999977,14.662000000000035,-0.07407855290058235,8624.320002883316,299.9999999913511,-0.002349659646921577,-79.99999996555695,5.291519156710227e-09,-8.15217559692153e-06,-6.614399922434444e-11,-1.5707093707467887,-0.14608436135889824,8599.365575199947,275.9891728469708
15.137914333999959,14.798000000000002,-0.07447508821769738,8610.720002889093,299.9999999922417,-0.0023060362132680205,-79.99999996682631,5.165425575866231e-09,-7.993774976110365e-06,-6.456782896076995e-11,-1.5707088254538286,-0.24009436722597932,8588.819020853673,275.034865749763
15.273558191000006,14.932999999999993,-0.07478016812927805,8600.080002893485,299.9999999929239,-0.0022725024952136227,-79.99999996778593,5.055933719433263e-09,-7.873260847399286e-06,-6.319918039369125e-11,-1.5707084062823249,-0.2729104017238914,8580.05581936683,274.869424305498
15.374358833999963,15.033000000000015,-0.07499534827688613,8592.480002896515,299.999999993401,-0.002248861544587231,-79.99999996845396,4.983052540710759e-09,-7.788925165817251e-06,-6.22881654066914e-11,-1.5707081107704215,-0.30572347206425315,8571.292617879904,274.7039828612234
15.480341769000006,15.128000000000043,-0.07521945277457369,8584.480002899656,299.9999999938968,-0.002224255027180175,-79.99999996914181,4.899018198773255e-09,-7.701675775271131e-06,-6.123773589894476e-11,-1.5707078031889363,-0.3415162724068615,8561.732761712265,274.52350128563853
15.614949827999965,15.262,-0.07552031568193819,8573.600002903791,299.9999999945578,-0.002191221908934207,-79.99999997005337,4.787624054244746e-09,-7.585323868302493e-06,-5.984530877117889e-11,-1.570707390274932,-0.3743232847252639,8552.96956022518,274.35805984134146
15.716127300999972,15.364000000000033,-0.0758145436755374,8562.800002907794,299.9999999951982,-0.0021589258568076156,-79.99999997093143,4.665906047642518e-09,-7.472371488101959e-06,-5.83238333913956e-11,-1.570706986574257,-0.1968528965978583,8542.715145587757,278.1891623485508
15.851274248999971,15.499000000000024,-0.07603182962386981,8554.720002910715,299.999999995666,-0.0021350791233463572,-79.99999997157141,4.574375778779444e-09,-7.389439237803751e-06,-5.717970482458501e-11,-1.5707066884900724,-0.222389166706753,8533.984321829725,278.1575173284073
15.991466797999976,15.628000000000043,-0.07630584852511522,8544.400002914344,299.9999999962507,-0.0021050132156512406,-79.99999997236816,4.453550336598788e-09,-7.285397572722958e-06,-5.566938654711284e-11,-1.5707063126662062,-0.25256480856198266,8523.666075570132,278.1201186682224
16.12675091,15.762,-0.07651561863645275,8536.400002917087,299.99999999669365,-0.002081993193925835,-79.99999997297058,4.361253770325082e-09,-7.206067703600705e-06,-5.4515679272219326e-11,-1.5707060249159186,-0.2804159399167864,8514.141540561192,278.08559682803815
16.228213600999993,15.863,-0.0767951804239532,8525.600002920688,299.9999999972759,-0.0020513123838080283,-79.99999997376318,4.233253499350471e-09,-7.100765851486308e-06,-5.291567565000817e-11,-1.5707056414057732,0.10477832928615666,8505.792785969772,280.6526887506278
16.36255718299998,15.997000000000014,-0.07700163572696118,8517.520002923307,299.99999999770006,-0.0020286534241552015,-79.99999997434098,4.138075795687733e-09,-7.023250240425664e-06,-5.172595418802923e-11,-1.5707053581687647,0.09190292209491109,8496.28505953028,280.71283980109206
16.466439665999985,16.093999999999994,-0.07726400199502985,8507.120002926627,299.99999999823194,-0.0019998565963489246,-79.999999975066,4.002753773199078e-09,-6.924985234848737e-06,-5.003442869779538e-11,-1.5707049982084005,0.08010320354087104,8487.569643627341,280.76797826400446
16.567399405999993,16.194000000000017,-0.07746527826152781,8499.040002929096,299.9999999986337,-0.0019777580767164154,-79.99999997561537,3.908323959208965e-09,-6.849764167097888e-06,-4.885405587323375e-11,-1.5707047219768935,0.06830610596046152,8478.854227724345,280.8231167269043
16.70293376500001,16.329000000000008,-0.07766433029553801,8490.960002931564,299.9999999990245,-0.0019558997081263268,-79.99999997615278,3.8027402536646725e-09,-6.7754596305771395e-06,-4.7534259406651036e-11,-1.5707044487472746,-0.5391048750806843,8470.134721396676,280.56512153898404
16.80455989699999,16.43100000000004,-0.077928894017405,8480.080002934743,299.99999999953496,-0.0019268392680171732,-79.999999976858,3.664971336675676e-09,-6.67679833261474e-06,-4.581214775828567e-11,-1.5707040854917587,-0.5652723273726125,8463.006010955009,280.6015346482082
16.940561780999985,16.567000000000007,-0.0781742796578009,8469.84000293768,299.9999999999992,-0.0018998826923981964,-79.99999997750271,3.533182104270543e-09,-6.585353616137469e-06,-4.4164782188031867e-11,-1.5707037485345507,-0.6117881905739322,8450.332747947521,280.6662690645869
17.077123986999993,16.69300000000004,-0.07836360735295128,8461.84000293993,300.0000000003489,-0.0018790770907166224,-79.9999999779941,3.4223660283502924e-09,-6.514797745747049e-06,-4.27795811080799e-11,-1.5707034884645195,-0.6408579258143093,8442.411958567767,280.7067280748099
17.17878317200001,16.795000000000016,-0.07855459230752175,8453.68000294212,300.00000000069446,-0.0018580819568869962,-79.99999997848447,3.3242199273182588e-09,-6.443620418977822e-06,-4.1552754722407384e-11,-1.570703226025337,-0.38148370637201806,8433.594987722316,283.1609693818576
17.280017630999964,16.896000000000015,-0.07880224781110184,8442.960002944994,300.00000000113334,-0.0018308505061174942,-79.99999997911233,3.1796562681768942e-09,-6.351261347356069e-06,-3.9745708825619124e-11,-1.5707028856321905,-0.40344460823449707,8424.881264852002,283.2881788824026
17.38110414299996,16.997000000000014,-0.07898833073903025,8434.800002947131,300.00000000145354,-0.0018103823544338845,-79.99999997957815,3.0653308436250965e-09,-6.281801257805774e-06,-3.831664090374554e-11,-1.5707026297802855,-0.42739921230083855,8415.375385357049,283.42695288298256
17.52073530299998,17.128000000000043,-0.0791633473471831,8427.040002949067,300.0000000017473,-0.0017911303806934758,-79.99999998001152,2.9708334401959225e-09,-6.216409596856923e-06,-3.713542325106342e-11,-1.570702389130605,-0.4513510226047378,8405.869505862043,283.5657268835463
17.65617493999997,17.263000000000034,-0.07940207810024448,8416.320002951743,300.0000000021379,-0.0017648583467118775,-79.99999998059542,2.825551557234231e-09,-6.127110001879514e-06,-3.531939957371666e-11,-1.5707020607301696,-0.47530004616472965,8396.363626366981,283.70450088409564
17.756730456000014,17.362000000000023,-0.07957794934598449,8408.320002953687,300.0000000024175,-0.0017455002568165798,-79.99999998102012,2.7126954897104768e-09,-6.061224470874749e-06,-3.390869862660343e-11,-1.5707018187540376,-0.055439626595298636,8388.728033672445,283.01632697897367
17.858160771999962,17.464,-0.0798123240770744,8397.520002956182,300.0000000027779,-0.001719693923687071,-79.99999998157901,2.5804565411621527e-09,-5.9732799001728875e-06,-3.225571163579781e-11,-1.5707014961748635,-0.06260712744945114,8380.026578480594,283.1164952124343
17.95971097399996,17.564999999999998,-0.0799785727539098,8389.760002957973,300.000000003025,-0.0017013872333990424,-79.99999998197046,2.4765394079010402e-09,-5.910796514216416e-06,-3.095674737619371e-11,-1.5707012673412275,-0.06977242719147005,8371.325123288705,283.21666344588306
18.068615900999987,17.661,-0.0801498074611413,8381.680002959838,300.0000000032714,-0.0016825249758635683,-79.99999998236936,2.3606430101298068e-09,-5.8463350550413115e-06,-2.950804230368042e-11,-1.570701031563,-0.07758651466431205,8361.832626715672,283.32593788235846
18.20455881999999,17.797000000000025,-0.08037738941592562,8370.800002962147,300.0000000035869,-0.0016574494100143825,-79.99999998289282,2.230003687294603e-09,-5.760514459707347e-06,-2.7875050642831196e-11,-1.5707007181184167,0.4406377638779796,8351.782632235962,284.713681057249
18.34061163399997,17.932000000000016,-0.0805442017472494,8362.720002963862,300.00000000380817,-0.0016390665402362156,-79.99999998327156,2.127589909757574e-09,-5.697490706449308e-06,-2.6594878332628292e-11,-1.5707004883325375,0.44844364081449234,8345.44246902202,284.8181286656517
18.442878814999972,18.033000000000015,-0.08075293569217708,8352.480002966036,300.0000000040742,-0.0016160596332260846,-79.99999998373963,1.986722889452536e-09,-5.618480935087964e-06,-2.4834040460734237e-11,-1.5707002007461899,0.4630829248469376,8333.554662995813,285.0139679313898
18.581435065999983,18.161,-0.0809683305154158,8341.76000296816,300.0000000043335,-0.001592318834438619,-79.9999999842157,1.8545314935337247e-09,-5.536808666888617e-06,-2.318164789520463e-11,-1.570699903986195,0.4747977063381046,8324.044418174783,285.17063934396134
18.683792188999973,18.262,-0.0811301682695303,8333.600002969739,300.00000000451894,-0.001574475319675297,-79.99999998456886,1.7579221351552343e-09,-5.475344079144393e-06,-2.1974030830606422e-11,-1.570699680942254,-0.14086157873940358,8315.89893066622,283.3793498806558
18.81890303299997,18.398000000000025,-0.08128862938376007,8325.520002971303,300.0000000046932,-0.0015570015502280455,-79.99999998491084,1.6548957269052203e-09,-5.4150634724958375e-06,-2.068620064121706e-11,-1.5706994625201283,-0.15380337774805078,8305.507849006004,283.4713010964877
18.91976856399998,18.49799999999999,-0.08149769190766958,8314.720002973394,300.0000000049103,-0.0015339466511214105,-79.99999998535623,1.5088355120661119e-09,-5.335412302989298e-06,-1.8860447844335285e-11,-1.5706991743338796,-0.16466828111644946,8296.782513260736,283.5485120410675
19.025638002999983,18.593999999999994,-0.08164446037033708,8307.040002974738,300.00000000505196,-0.0015177628425501525,-79.9999999856649,1.423617492363308e-09,-5.279412468759481e-06,-1.7795222517531936e-11,-1.570698972036265,-0.175531166145729,8288.057177515431,283.6257229856356
19.16067947099998,18.72800000000001,-0.08179570674771261,8299.040002976137,300.0000000051918,-0.0015010815882212489,-79.99999998597964,1.3352724264055945e-09,-5.221655424191517e-06,-1.6690909116842413e-11,-1.5706987635205794,-0.18540484701859317,8280.125054110573,283.6959147534146
19.26202598599997,18.83000000000004,-0.08199874491832289,8288.16000297804,300.0000000053677,-0.0014786851043380566,-79.99999998639674,1.2036416330357543e-09,-5.1440047266526785e-06,-1.5045524093001923e-11,-1.570698483564521,0.012606576510362231,8269.626441520695,285.57317943853946
19.363919328999998,18.932000000000016,-0.08214903299747198,8280.000002979468,300.00000000548664,-0.00146210653364171,-79.99999998670147,1.1004792761312072e-09,-5.086455250547291e-06,-1.3755994553503009e-11,-1.5706982763323794,0.008845810681946186,8260.870661893508,285.71096875762447
19.500001103999978,19.06800000000004,-0.08233378417826112,8269.840002981107,300.00000000562164,-0.0014417303190875316,-79.99999998707129,9.89848354936555e-10,-5.015648003810771e-06,-1.237310794491612e-11,-1.5706980216296893,0.004403681591869014,8250.522922334061,285.8738106801665
19.637799986000005,19.194999999999993,-0.08247888512187307,8261.76000298237,300.000000005719,-0.0014257238453920435,-79.99999998735815,9.088262051790437e-10,-4.959978196280971e-06,-1.136033099392148e-11,-1.5706978215487597,0.0009884674965607717,8242.563122672913,285.99907369749627
19.739448729999992,19.295000000000016,-0.08262237510951762,8253.680002983632,300.0000000058085,-0.0014098955584005016,-79.99999998763867,8.228568358508663e-10,-4.904905484021993e-06,-1.0285713806456557e-11,-1.5706976236951657,-0.16234081984060791,8232.131168644695,287.0688358090432
19.874374101,19.42900000000003,-0.0828102904262152,8242.960002985308,300.0000000059131,-0.0013891663862156244,-79.99999998800129,7.016547187709919e-10,-4.832717357858436e-06,-8.770687247219161e-12,-1.5706973645805036,-0.1723465013804447,8222.579237251734,287.25285535919454
19.97577018300001,19.531000000000006,-0.08299132147782973,8232.480002986904,300.0000000059988,-0.001369195792980709,-79.99999998834559,5.804927652338813e-10,-4.763123266979336e-06,-7.256162734997515e-12,-1.5706971149480786,-0.1815165009988067,8213.823300141481,287.4215399468241
20.083142340999984,19.628000000000043,-0.08312912243428036,8224.400002988015,300.0000000060537,-0.001353997905928939,-79.99999998860423,5.09362498478297e-10,-4.71013457393149e-06,-6.367034333965726e-12,-1.5706969249744835,-0.19151809303021664,8204.271368748452,287.605559496955
20.184258285,19.72800000000001,-0.08326539366436606,8216.320002989127,300.00000000610237,-0.0013389662862191912,-79.9999999888572,4.3665678083956247e-10,-4.657703370705204e-06,-5.458212793839936e-12,-1.57069673707923,-0.2006843809705339,8195.515431638141,287.7742440845647
20.28541942800001,19.83000000000004,-0.08344517982923533,8205.520002990614,300.0000000061558,-0.001319135700275748,-79.99999998918669,3.329422596122088e-10,-4.588516362087176e-06,-4.1617811911237276e-12,-1.5706964891968962,-0.38858047470511153,8186.163174113907,288.9633901784484
20.45580858699998,19.999000000000024,-0.08362230311889927,8194.7200029921,300.0000000061952,-0.001299598067432051,-79.99999998950645,2.2413049495715e-10,-4.520330246532568e-06,-2.801634046826519e-12,-1.5706962449764763,-0.4050833774357452,8176.592421422066,289.1845236623316
20.561224857000013,20.093999999999994,-0.08374535805328394,8187.120002993146,300.00000000621424,-0.0012860291139356972,-79.99999998972572,1.4497638288875347e-10,-4.472953360435139e-06,-1.812207584278721e-12,-1.5706960753645505,-0.422959242790768,8166.224106005867,289.42408493652846
20.696283053000002,20.229000000000042,-0.0839167642505868,8176.400002994473,300.00000000622987,-0.0012671253917208819,-79.9999999900274,5.1538115643025995e-11,-4.406970620175821e-06,-6.442291632883373e-13,-1.570695839068014,-0.4367083115087282,8158.248478762611,289.6083628397496
20.797031392000008,20.329000000000008,-0.08404429242780534,8168.320002995434,300.00000000623305,-0.0012530612162980081,-79.99999999024892,-9.353135777942999e-12,-4.3578771015036365e-06,1.1691153916214172e-13,-1.5706956632658144,-0.12265772476607283,8146.917074610912,289.0456017465794
20.931820886999958,20.463000000000022,-0.08421254403557848,8157.520002996719,300.00000000622674,-0.0012345071940070011,-79.99999999053738,-9.56620478082344e-11,-4.293104957986413e-06,1.1957730181433432e-12,-1.5706954313405266,-0.12662316375669494,8138.114210460622,289.22129276054085
21.033338605999973,20.564999999999998,-0.08433188745188025,8149.760002997642,300.00000000621475,-0.0012213490060666641,-79.99999999073935,-1.6101362270925186e-10,-4.247175686780907e-06,2.0126677580991888e-12,-1.5706952668631713,-0.13094729238236616,8128.511085933008,289.4129556848527
21.175557260000005,20.696000000000026,-0.08445480855264641,8141.680002998603,300.0000000061975,-0.0012077943095614287,-79.99999999094513,-2.3175301451408215e-10,-4.199862995480477e-06,2.8969102143226494e-12,-1.5706950974294576,-0.1345852818736791,8120.428456122241,289.5742719794745
21.27754575299997,20.797000000000025,-0.08461698216941009,8130.880002999888,300.0000000061629,-0.0011899130358946901,-79.9999999912131,-3.2761770093320153e-10,-4.137465195198559e-06,4.095218866674696e-12,-1.5706948739135282,-0.3687486672328037,8109.635924321823,287.94373983689286
21.413541564000013,20.932000000000016,-0.08477793161280892,8120.0000030010315,300.0000000061138,-0.0011721667033431247,-79.9999999914751,-4.0229880954958275e-10,-4.0755487183610835e-06,5.028732796182587e-12,-1.5706946520843625,-0.38585075022370635,8096.820429636503,288.10823581045037
21.586134039,21.093999999999994,-0.08496650810838771,8107.040003002331,300.0000000060426,-0.0011513792618692614,-79.99999999177697,-4.765759520141e-10,-4.0030251394928955e-06,5.957197162068827e-12,-1.5706943922413332,-0.39974383961572124,8086.407840204647,288.2418887889567
21.68786135199997,21.196000000000026,-0.08508353025448422,8098.88000300315,300.0000000059919,-0.0011384777553836126,-79.99999999196163,-5.273929131468469e-10,-3.958051972392121e-06,6.592409223835191e-12,-1.5706942309724963,-0.4114979294394345,8077.597187608435,288.35497977076307
21.823883228,21.33000000000004,-0.08523639685785649,8088.080003004234,300.0000000059179,-0.0011216255684160183,-79.99999999219969,-5.96039884898619e-10,-3.899302610867947e-06,7.450496436401039e-12,-1.5706940203201505,0.29948626602451256,8068.773705448939,288.67891822037086
21.925681486999963,21.432999999999993,-0.08535039497417889,8079.920003005052,300.0000000058545,-0.0011090583876049531,-79.99999999237492,-6.481463628296115e-10,-3.855503531395022e-06,8.10182745849717e-12,-1.5706938632303844,0.31339402147790996,8059.167532406259,288.8100091001813
22.061231846999988,21.569000000000017,-0.08545320719294787,8072.480003005799,300.00000000579263,-0.0010977246616883309,-79.99999999253126,-6.994577906673469e-10,-3.816009103419231e-06,8.743220351443385e-12,-1.5706937215588042,0.32846262771661566,8048.760844943333,288.95202421996953
22.19778635399996,21.694000000000017,-0.0855995163589805,8061.760003006874,300.00000000569577,-0.001081601362628716,-79.99999999275087,-7.744865224868399e-10,-3.7598381538997444e-06,9.681079558488382e-12,-1.5706935200175582,0.3423739167201101,8039.15467190061,289.08311509976954
22.29940079299996,21.795000000000016,-0.08574260627154677,8051.120003007743,300.0000000055904,-0.0010658294085100935,-79.99999999296257,-8.16436661621684e-10,-3.7049249977807927e-06,1.0205456354737204e-11,-1.5706933228681237,0.20700654516973682,8031.368854231216,283.22261109828725
22.401205991999973,21.89500000000004,-0.08585093353819898,8042.96000300841,300.00000000550534,-0.0010538891767596368,-79.99999999312074,-8.468045016899246e-10,-3.6633606242180596e-06,1.0585054398536356e-11,-1.5706931736152212,0.2147270900565375,8022.57617258912,283.1385299082065
22.502490383999998,21.997000000000014,-0.08595804721847675,8034.800003009077,300.00000000541814,-0.0010420824672562946,-79.99999999327542,-8.760043323961767e-10,-3.6222682731580013e-06,1.0950052324947308e-11,-1.5706930260313463,0.22244904722170306,8013.783490947005,283.05444871812193
22.64341882399998,22.128000000000043,-0.08609384831063334,8024.320003009932,300.0000000053021,-0.0010271160749238588,-79.99999999346898,-9.18326508358754e-10,-3.570190639185616e-06,1.1479079576445561e-11,-1.5706928389514352,0.23087450778036908,8004.191474610135,282.9627237834796
22.744467643999997,22.229000000000042,-0.08619722127623951,8016.240003010593,300.00000000520794,-0.001015722476367624,-79.99999999361444,-9.505281936558283e-10,-3.5305506963936696e-06,1.1881600683160876e-11,-1.570692696531447,0.2385992369437114,7995.398792967989,282.87864259338653
22.880243936,22.36500000000001,-0.08629944753658005,8008.160003011253,300.0000000051106,-0.0010044549524221417,-79.99999999375672,-9.851118775783529e-10,-3.4913622867824377e-06,1.2313896770388622e-11,-1.5706925556873923,-315716.0456250273,1554667.5932842444,-4588006.379356894
22.981563246000007,22.466000000000008,-0.08643332508952643,7997.440003012129,300.00000000497636,-0.0009896997297188818,-79.99999999394065,-1.0317964828268245e-09,-3.4400458125992977e-06,1.2897454385833452e-11,-1.5706923712471017,-329206.1269640161,1620743.8051605888,-4784057.310540306
23.12097811000001,22.593999999999994,-0.08655936204816521,7987.200003012965,300.000000004842,-0.0009758111838043216,-79.99999999411126,-1.076997747898832e-09,-3.3917467596500406e-06,1.3462470246986737e-11,-1.5706921976402701,-339805.4765860637,1672660.828777728,-4938097.327898735
23.255769471999997,22.72800000000001,-0.08665757151824317,7979.120003013625,300.0000000047321,-0.0009649870630472916,-79.99999999424259,-1.114321116054859e-09,-3.3541290981969666e-06,1.3929012383221193e-11,-1.5706920623387557,-350404.82620680076,1724577.8523948668,-5092137.345257165
23.356944410999972,22.829000000000008,-0.08675469160618536,7971.0400030141345,300.0000000046191,-0.0009542830113676854,-79.99999999437102,-1.131772252840073e-09,-3.316924395700711e-06,1.4147151628181702e-11,-1.5706919285381042,-574031.4891096742,2819175.4483217997,-8339362.649824149
23.458068379999986,22.930000000000007,-0.08685168171163629,7962.8800030146485,300.00000000450495,-0.0009435932746711125,-79.99999999449788,-1.1377280300211883e-09,-3.2797751330223645e-06,1.4221598876669364e-11,-1.5706917949163905,-591896.7821454109,2906656.3520688913,-8598905.48067137
23.559124397999994,23.031000000000006,-0.08697371420796667,7952.480003015304,300.0000000043566,-0.0009301433644864902,-79.9999999946554,-1.1506830334078212e-09,-3.233035108557181e-06,1.4383536462575508e-11,-1.5706916267925064,-609762.0751799406,2994137.2558160285,-8858448.311518725
23.666026259999967,23.128000000000043,-0.08706732758917364,7944.400003015813,300.00000000423887,-0.0009198273004713577,-79.9999999947747,-1.1581872140765172e-09,-3.1971893476439065e-06,1.4477338752297593e-11,-1.5706914978417013,-629251.485761653,3089570.9689947153,-9141585.94517036
23.801402087999975,23.262,-0.08718992567082895,7933.6800030164895,300.00000000408266,-0.0009063157098858584,-79.99999999492893,-1.1742735429072762e-09,-3.150244004839981e-06,1.467841790454987e-11,-1.5706913289468125,-780658.9358386394,3829695.1759678763,-11337308.857766768
23.935792928000012,23.39500000000004,-0.0872802410299465,7925.680003016993,300.0000000039661,-0.0008963618629289718,-79.9999999950411,-1.1849871428270967e-09,-3.115662847289853e-06,1.481233793369079e-11,-1.5706912045237207,-803052.1533354714,3939304.1802710714,-11662498.496592239
24.038197606999972,23.497000000000014,-0.08740148455469518,7914.800003017679,300.0000000038044,-0.0008829982780989296,-79.99999999518968,-1.2027921019523981e-09,-3.0692395964513536e-06,1.5034899962667694e-11,-1.570691037478904,-825445.3708311176,4048913.18457421,-11987688.13541754
24.144394508999994,23.593999999999994,-0.08748596975800912,7907.1200030181635,300.00000000368806,-0.0008736882969262492,-79.9999999952919,-1.2145004252107317e-09,-3.036891601503648e-06,1.518125403165135e-11,-1.5706909211041347,-847838.5883256445,4158522.1888774056,-12312877.77424301
24.24527782499996,23.694999999999993,-0.08757476845630789,7898.9600030186775,300.00000000356437,-0.0008639006925072883,-79.9999999953982,-1.2278432155127611e-09,-3.002898114308389e-06,1.53480389382987e-11,-1.5706907987590748,-870231.8058190222,4268131.193180601,-12638067.41306848
24.381138249000003,23.831000000000017,-0.08766257237277617,7890.800003019192,300.00000000343914,-0.0008542226551044441,-79.99999999550211,-1.2438436991279964e-09,-2.969278311200002e-06,1.5548045011826915e-11,-1.5706906777836025,-959882.8933198629,4705250.005514717,-13934930.984248575
24.483056621999992,23.932999999999993,-0.08777811605354112,7879.920003019878,300.000000003268,-0.0008414869360733997,-79.99999999563708,-1.2612124651983661e-09,-2.9250349204792123e-06,1.5765154623865533e-11,-1.5706905185871083,-991362.6834140215,4859261.9037566865,-14391856.353896787
24.619128794000005,24.069000000000017,-0.08788444717036571,7869.760003020449,300.0000000031081,-0.0008297696671909541,-79.99999999575942,-1.2767542913103395e-09,-2.884325564576381e-06,1.5959427482045423e-11,-1.5706903721212422,-1020593.9170713252,5002272.952124239,-14816144.197141584
24.756403938000005,24.194000000000017,-0.08799504198483564,7859.040003020926,300.00000000293943,-0.0008175799374584289,-79.99999999588495,-1.2646424587808238e-09,-2.8419808695919668e-06,1.5808029609899434e-11,-1.5706902197496144,-1047576.5942921243,5134283.150617373,-15207794.513982963
24.85849889100001,24.295999999999992,-0.08807813800841557,7850.880003021288,300.000000002811,-0.0008084205249296177,-79.99999999597804,-1.2495950184118507e-09,-2.8101621213334514e-06,1.561993663083436e-11,-1.5706901052569533,-1089547.5347868933,5337555.706925949,-15810960.95342288
24.994561541999985,24.432000000000016,-0.0881603031985529,7842.72000302165,300.0000000026826,-0.0007993636494966654,-79.99999999606905,-1.2369737888707447e-09,-2.778699326757439e-06,1.546217128570442e-11,-1.570689992046006,-1114930.51608039,5461669.111062039,-16179186.105188737
