Real_time_s,Simulation_time_s,x_ft,y_ft,alt_ft,vx_fps,vy_fps,vz_fps,roll_rad,pitch_rad,yaw_rad
0.0,0.0,-2.3157474869019766e-14,4000.0,280.0,-6.572520305780927e-14,24.384,-1.4552694460064566e-12,-3.305244105915335e-15,5.968132570564537e-14,1.5709126535897957
0.034008341000003384,0.033999999999991815,-3.048902286347424e-14,4002.720000000006,280.0,-6.394885031191049e-14,24.384000000000004,-1.4656644370774549e-12,-3.30524306076414e-15,6.010452132916112e-14,1.5709126535897957
0.06788825299997825,0.06700000000000728,-1.3602257502593083e-06,4005.360000000012,280.00000000001654,-4.630167692809563e-06,24.38399999999957,-5.913444548395443e-10,1.8895440917138715e-05,2.4251331374520362e-11,1.5709128434752793
0.10395387299996628,0.09399999999999409,-1.9929607859543954e-06,4007.520000000017,279.9999999999695,-5.387809248638086e-06,24.38399999999941,-6.781222013023561e-10,2.198742215909094e-05,2.7810133526145727e-11,1.5709128745474725
0.17173534500000187,0.160000000000025,-4.432444720114954e-06,4012.8000000000284,279.99999999983345,2.5744328322494893e-06,24.38399999999988,-1.2240117532219265e-09,4.224784639438824e-05,5.019733246623237e-11,1.570912548012839
0.2727736179999738,0.2610000000000241,-2.5126385613002472e-06,4020.8800000000465,279.9999999994581,3.881934016632509e-05,24.38399999996911,-1.9726622862195887e-09,6.990428423861253e-05,8.089986711405043e-11,1.5709110615922777
0.3735712999999805,0.3620000000000232,1.469096592573812e-05,4028.9600000000646,279.9999999988676,0.00010059680454650048,24.3839999997925,-2.533929250522138e-09,9.046222550692435e-05,1.039177053937146e-10,1.5709085280688448
0.4746889459999579,0.4630000000000223,5.489881378940076e-05,4037.0399999999822,279.9999999981022,0.0001841137187821438,24.383999999304926,-3.0990799854201116e-09,0.00010863244673476424,1.2709482022311893e-10,1.5709051029994565
0.6176685780000071,0.5939999999999941,0.00015268367445673314,4047.519999999546,279.99999999681404,0.00031898603180901527,24.383999997913552,-3.8330394376626405e-09,0.00012655518538656679,1.571948636931936e-10,1.5708995718196272
0.7531948409999814,0.7300000000000182,0.0003197888761486649,4058.399999998277,279.9999999951058,0.0004833653163709727,24.383999995209123,-4.6369692312659925e-09,0.0001398071480250185,1.9016442722808238e-10,1.5708928305438967
0.8552619639999648,0.8319999999999936,0.0004950701119641204,4066.559999996444,279.99999999355964,0.0006185570051206518,24.383999992154433,-5.262718318205256e-09,0.00014647636261101704,2.1582670982974068e-10,1.5708872862656986
0.9908734159999995,0.9670000000000414,0.0007986225625893249,4077.359999992215,279.99999999114857,0.0008081299193938745,24.38399998660856,-6.115195040424996e-09,0.00015151653175915397,2.5078720677018055e-10,1.570879511786244
1.0928047259999971,1.0680000000000405,0.001081514048320684,4085.4399999873103,279.9999999890688,0.000954713522728295,24.383999981309927,-6.749806173598278e-09,0.00015275297567732515,2.768129270317972e-10,1.5708735003196637
1.2302517900000112,1.1960000000000264,0.0015108042298155673,4095.679999978356,279.9999999861037,0.001142644443792273,24.383999973227624,-7.524117897592892e-09,0.00015158600402073906,3.0856783854405975e-10,1.570865793178846
1.3316605669999717,1.2970000000000255,0.0019050489255259286,4103.75999996878,279.99999998352007,0.0012902991454555853,24.383999965861417,-8.094624769418207e-09,0.00014887731937697344,3.319646109921099e-10,1.5708597377857791
1.467560748999972,1.4329999999999927,0.0025127982284284234,4114.639999951862,279.99999997973305,0.0014852601222474842,24.38399995476549,-8.78111939969783e-09,0.00014304543901230888,3.6011809970127283e-10,1.570851742338624
1.5697484539999778,1.535000000000025,0.0030252650986488986,4122.799999935825,279.9999999766895,0.0016267460649323595,24.383999945736925,-9.217211528772368e-09,0.0001373065401084125,3.780024561861762e-10,1.5708459399292793
1.6715599780000048,1.629000000000019,0.003539572226742947,4130.319999918282,279.99999997375147,0.0017521756842781642,24.383999937046454,-9.551446061903987e-09,0.00013114166184366606,3.917095821152645e-10,1.5708407959977364
1.8069963769999617,1.7630000000000337,0.004337916506653082,4141.03999988859,279.9999999694007,0.0019218222084253609,24.383999924265936,-9.903741108266783e-09,0.00012127059348584449,4.061573781021909e-10,1.5708338387086835
1.9408806069999969,1.8969999999999914,0.005208956894045603,4151.759999853227,279.99999996491516,0.0020787897318854847,24.38399991138935,-1.0109203977424746e-08,0.0001104036429624342,4.1458351377301247e-10,1.5708274013917234
2.0425582219999683,1.9990000000000236,0.005917067349769381,4159.91999982253,279.99999996145567,0.002189063742542287,24.38399990173891,-1.0159347393801871e-08,0.0001016747793756063,4.1663992209354985e-10,1.57082287899911
2.1472286919999988,2.093999999999994,0.006609357539024592,4167.519999791014,279.9999999582309,0.002284065254037842,24.383999893025127,-1.0123840253268357e-08,9.331308066869725e-05,4.151837566644277e-10,1.57081898293929
2.2831300199999873,2.230000000000018,0.007649655084821439,4178.399999741301,279.9999999536588,0.00240673213292342,24.383999881226295,-9.952429837088871e-09,8.115639730557908e-05,4.0815413079349624e-10,1.570813952308822
2.419398151999985,2.3660000000000423,0.008742200938944216,4189.279999686439,279.99999994919625,0.0025137192024990225,24.383999870431833,-9.642131737960884e-09,6.899718532583136e-05,3.9542865108623676e-10,1.5708095647151203
2.5210663180000097,2.466000000000008,0.00957482530289396,4197.279999643124,279.9999999460215,0.0025821753542800002,24.38399986327868,-9.338223698771757e-09,6.01786638606245e-05,3.8296523040308927e-10,1.570806757293739
2.621837884999991,2.5670000000000073,0.01043761529607042,4205.359999597075,279.99999994292546,0.002642661975598251,24.383999856798347,-8.985734559049739e-09,5.145884770610364e-05,3.6850947607067305e-10,1.5708042767067898
2.759667886999978,2.694999999999993,0.011558291770757734,4215.599999535762,279.9999999391913,0.0027068850487876,24.383999849753472,-8.465584370930896e-09,4.07853785142918e-05,3.471778563115082e-10,1.570801642885981
2.895553298999971,2.8310000000000173,0.01277610517467295,4226.4799994676105,279.99999993548374,0.002761020136230604,24.3839998436838,-7.84793403485535e-09,2.9993751887735527e-05,3.2184770856759327e-10,1.5707994227784927
2.9986767089999944,2.93100000000004,0.013685849740425146,4234.479999415887,279.9999999329468,0.0027917024310062763,24.38399984019032,-7.351697308668445e-09,2.2485983776949866e-05,3.0149679225039967e-10,1.5707981644818934
3.1339617129999624,3.066000000000031,0.014928250896247532,4245.279999344408,279.9999999297886,0.0028216039618577373,24.383999836748583,-6.648283161183026e-09,1.2980781767829606e-05,2.7264942720616484e-10,1.5707969382047178
3.2394993569999997,3.1620000000000346,0.015818876028491996,4252.959999292757,279.9999999277404,0.0028351257386458255,24.383999835180163,-6.132602931021965e-09,6.69509143072503e-06,2.51501123158972e-10,1.5707963836695868
3.341194057999985,3.26400000000001,0.016769110286847987,4261.119999237432,279.99999992574374,0.0028432326915852767,24.38399983423622,-5.579231064092191e-09,4.5804896732667177e-07,2.2880706725400204e-10,1.5707960511990848
3.511272087000009,3.434000000000026,0.018356294190896513,4274.719999144793,279.99999992283824,0.002843130186714443,24.383999834248165,-4.645207768182091e-09,-8.907841007884706e-06,1.9050230530378616e-10,1.5707960554023845
3.613544289999993,3.5360000000000014,0.019307444541800264,4282.879999089342,279.999999921346,0.0028356450229746594,24.383999835119763,-4.091153394249256e-09,-1.3899810871130438e-05,1.6778025824427972e-10,1.5707963623724295
3.7491904589999763,3.6610000000000014,0.020468617795719946,4292.87999902193,279.9999999197717,0.00281947403190405,24.38399983699496,-3.4297953321730754e-09,-1.93724258453477e-05,1.4065763399293875e-10,1.570797025552562
3.88395292499996,3.7959999999999923,0.021714085021500778,4303.679998950101,279.9999999183731,0.002794774917678853,24.383999839838363,-2.7291595154749594e-09,-2.452323632197347e-05,1.1192420880448424e-10,1.5707980384752953
3.9846412829999736,3.896000000000015,0.02262899475358941,4311.679998897776,279.99999991753543,0.002772065099996283,24.383999842430676,-2.2319950426985522e-09,-2.7840334167417395e-05,9.153524543595488e-11,1.5707989698160765
4.086097316999997,3.9960000000000377,0.023536074902660412,4319.679998846347,279.9999999168594,0.002746045981387352,24.383999845374742,-1.7505508266421547e-09,-3.074993138198474e-05,7.179097756809111e-11,1.5708000368729638
4.225556365999978,4.128000000000043,0.02471967744945692,4330.239998780012,279.99999991620365,0.002707335588908965,24.383999849703457,-1.1435425795277302e-09,-3.3997160563855926e-05,4.6897265876201435e-11,1.5708016244053042
4.327557116999969,4.230000000000018,0.025622435915100755,4338.399998730079,279.99999991587396,0.002674552853524532,24.38399985332127,-6.974156854325121e-10,-3.607808821234243e-05,2.8601379169099174e-11,1.5708029688415304
4.462337878999961,4.364000000000033,0.02679119772876053,4349.11999866637,279.99999991566216,0.0026283053452099336,24.383999858350077,-1.4362978487416559e-10,-3.826301376394361e-05,5.890342328343989e-12,1.570804865474804
4.598354696999991,4.4979999999999905,0.027939105428692598,4359.839998604904,279.99999991568745,0.002579195817274261,24.38399986359406,3.753581524014351e-10,-3.988357168538679e-05,-1.5393612413542668e-11,1.5708068794809589
4.706170869999994,4.593999999999994,0.02874793645628204,4367.519998562295,279.99999991584394,0.002542650063282434,24.38399986743227,7.250377236877599e-10,-4.0722613905884774e-05,-2.9734146433013295e-11,1.5708083782405162
4.841359729999965,4.728000000000009,0.02985756707026872,4378.239998504841,279.9999999162375,0.002490288627053603,24.38399987283606,1.1833122206964227e-09,-4.149347041667958e-05,-4.852821271862434e-11,1.5708105256090978
4.94314386100001,4.830000000000041,0.03068669679356453,4386.399998462706,279.9999999166703,0.002449726917691889,24.383999876944817,1.5114599776754062e-09,-4.179614499309035e-05,-6.198571635764342e-11,1.570812189065016
5.044011957999999,4.930000000000007,0.03148629160316751,4394.399998422739,279.9999999171971,0.0024096155518135956,24.383999880941605,1.8153030769732696e-09,-4.1878250520186506e-05,-7.444647385400826e-11,1.5708138340521343
5.178255272999991,5.064000000000021,0.032537075696086756,4405.119998371259,279.9999999180562,0.002355701796489735,24.383999886209732,2.198322630001766e-09,-4.169062928857826e-05,-9.01542973473946e-11,1.570816045082142
5.320302897999966,5.194999999999993,0.03354136267903809,4415.599998323132,279.99999991905327,0.0023032069696503287,24.383999891224672,2.5432665600171665e-09,-4.1219831777220186e-05,-1.0430062051192059e-10,1.5708181979211988
5.45634378799997,5.331000000000017,0.03456028001872952,4426.479998275423,279.99999992023896,0.0022493048065583654,24.383999896256473,2.87508580897811e-09,-4.048386379918202e-05,-1.1790869402529807e-10,1.5708204084758308
5.558124369999973,5.432999999999993,0.03530874366140145,4434.6399982411,279.99999992122434,0.0022094823418828497,24.38399989989738,3.1064538885851153e-09,-3.979089918088e-05,-1.2739721482743016e-10,1.5708220416150054
5.659343705999959,5.533999999999992,0.03603677488785395,4442.7199982082975,279.99999992227464,0.0021706976446613873,24.383999903380904,3.32147735391316e-09,-3.900496118727919e-05,-1.3621543477182864e-10,1.5708236321948235
5.831557643999986,5.696000000000026,0.037177820920488054,4455.679998158079,279.9999999241042,0.0021100972108319366,24.383999908700336,3.6413609422251117e-09,-3.7578104183032005e-05,-1.4933402095880207e-10,1.5708261174489138
5.933060054999999,5.798000000000002,0.03787996252202429,4463.83999812787,279.99999992533907,0.0020730492690864285,24.383999911878178,3.825479985880426e-09,-3.660158863310083e-05,-1.5688483507908437e-10,1.5708276368035332
6.068555102999994,5.932000000000016,0.03878369857301179,4474.559998089778,279.9999999270552,0.0020258296455554934,24.383999915846918,4.051327619204517e-09,-3.5251150140972746e-05,-1.6614695981054337e-10,1.5708295733039155
6.169554962999996,6.032000000000039,0.03944472600483308,4482.55999806249,279.99999992839776,0.001991721660532742,24.383999918656766,4.206108200089611e-09,-3.420984488826465e-05,-1.7249458891826662e-10,1.5708309720894464
6.304777872999978,6.163000000000011,0.04029390987060873,4493.039998028094,279.99999993023175,0.0019485643503649609,24.383999922143733,4.396368084581676e-09,-3.2822262303259366e-05,-1.8029724220018834e-10,1.570832741992332
6.4066957459999685,6.265000000000043,0.040942470777346064,4501.199998002317,279.9999999317155,0.0019161466862825164,24.383999924712732,4.532962056970557e-09,-3.17359236374068e-05,-1.8589902950406673e-10,1.5708340714569602
6.541689391999967,6.400000000000034,0.04178439528788178,4511.999997969513,279.99999993374547,0.0018748833211630618,24.3839999279204,4.698687794945815e-09,-3.0306030530482226e-05,-1.9269552531107925e-10,1.5708357636882175
6.643562274999965,6.5020000000000095,0.04240856082742215,4520.15999794564,279.9999999353275,0.0018449350890433055,24.383999930204734,4.811413833548251e-09,-2.924144485671589e-05,-1.9731847671122847e-10,1.570836991880208
6.747774649000007,6.593999999999994,0.04296290444740626,4527.519997924772,279.99999993678773,0.0018188374153490436,24.383999932165363,4.906742240509356e-09,-2.8299251938890792e-05,-2.0122794260358785e-10,1.5708380621588753
6.883712151999987,6.729000000000042,0.04376246129182577,4538.319997895134,279.9999999389795,0.0017820640467573344,24.38399993488061,5.03301698844982e-09,-2.6955871812971223e-05,-2.0640653350387293e-10,1.570839570253127
6.984681330000001,6.829000000000008,0.044344344314089554,4546.319997873971,279.9999999406395,0.0017559433513634807,24.38399993677562,5.118825940972186e-09,-2.5996614903041733e-05,-2.0992560179903445e-10,1.5708406414759215
7.086142504000009,6.93100000000004,0.04492916585508343,4554.4799978530145,279.999999942361,0.0017302453964304202,24.383999938612654,5.199724055025374e-09,-2.5052969444816436e-05,-2.1324327405527143e-10,1.5708416953619184
7.2211334059999785,7.064999999999998,0.04568456989393619,4565.199997826399,279.9999999446601,0.0016979071009311105,24.38399994088588,5.295909383594253e-09,-2.387243584319444e-05,-2.171878829363425e-10,1.5708430215716063
7.362758548999977,7.196000000000026,0.0464095287448969,4575.679997801344,279.99999994694804,0.0016677797841626362,24.383999942965108,5.377129405756526e-09,-2.278784747765173e-05,-2.205187569583099e-10,1.5708442571079484
7.464383252000005,7.2970000000000255,0.046959772605400275,4583.759997782602,279.9999999487343,0.0016454818539975034,24.383999944480014,5.432389392863934e-09,-2.1999327423895333e-05,-2.2278499696802144e-10,1.5708451715572262
7.565939023999988,7.398000000000025,0.0475027129120639,4591.8399977643885,279.99999995053787,0.0016239590703608915,24.383999945922906,5.479693543532805e-09,-2.125393860709783e-05,-2.247249640707934e-10,1.570846054217356
7.6672652789999916,7.499000000000024,0.048038601662840845,4599.919997746624,279.9999999523555,0.0016031674682352092,24.38399994729874,5.519866043536649e-09,-2.0551764321567334e-05,-2.2637245865390595e-10,1.570846906891365
7.805442235999976,7.628000000000043,0.04871312930716614,4610.23999772458,279.99999995469636,0.001577634344148045,24.383999948964096,5.5614631320491704e-09,-1.9718687341205118e-05,-2.280783764282301e-10,1.5708479540175613
7.941449957999964,7.76400000000001,0.049412805862408746,4621.1199977020815,279.99999995718196,0.0015518161771262296,24.38399995062086,5.594774464248816e-09,-1.8913409937947195e-05,-2.2944449120805544e-10,1.570849012833509
8.042561589000002,7.864000000000033,0.04991999327859863,4629.119997686012,279.9999999590183,0.0015335178095864288,24.383999951778524,5.613316685765992e-09,-1.836925187567773e-05,-2.3020491724551491e-10,1.5708497632587157
8.14456426199996,7.966000000000008,0.05043122022848084,4637.279997670001,279.9999999608983,0.00151539624286452,24.383999952911452,5.626417438290209e-09,-1.785407665660046e-05,-2.3074218593086655e-10,1.5708505064332319
8.283910429999992,8.093999999999994,0.05106422073978067,4647.51999765044,279.9999999632616,0.0014933848566841754,24.383999954269463,5.635725560062324e-09,-1.726320053644556e-05,-2.311239170748892e-10,1.5708514091311891
8.41891424299996,8.229000000000042,0.05172201320402734,4658.319997630425,279.99999996575883,0.0014709678950012293,24.38399995563207,5.635405524612163e-09,-1.6702741755835865e-05,-2.311107926415728e-10,1.5708523284619955
8.519800392999969,8.330000000000041,0.05220770581383767,4666.3999976158275,279.9999999676236,0.0014546724065400323,24.38399995660966,5.629118422195132e-09,-1.6323019697627745e-05,-2.3085295568537364e-10,1.5708529967481244
8.620560706999981,8.430000000000007,0.05268330245721819,4674.399997601696,279.99999996946906,0.0014389096813803692,24.383999957544916,5.617228628577641e-09,-1.597821863285474e-05,-2.303653496208395e-10,1.5708536431853626
8.755332353999961,8.564999999999998,0.05331724890154165,4685.199997583089,279.99999997195215,0.0014181613020981735,24.383999958760484,5.593836348181343e-09,-1.5558783734148898e-05,-2.294060208808034e-10,1.5708544940867666
8.862458739999965,8.661000000000001,0.05376246940476537,4692.879997570171,279.9999999737125,0.0014037495318547394,24.383999959594398,5.57077802141758e-09,-1.5290434947426807e-05,-2.284603876470849e-10,1.570855085120666
8.96355811899997,8.763000000000034,0.05423061934182592,4701.039997556747,279.99999997557353,0.001388707481870443,24.383999960455704,5.543187144922256e-09,-1.5030157795310598e-05,-2.273288722877024e-10,1.5708557020026512
9.065561935000005,8.865000000000009,0.05469376510774147,4709.199997543602,279.99999997742503,0.001373925582955019,24.383999961293075,5.510445533775592e-09,-1.4793059794343636e-05,-2.259861227321561e-10,1.5708563082157105
9.167818855999997,8.967000000000041,0.05515199132572043,4717.359997530737,279.99999997926545,0.0013593811693315737,24.38399996210825,5.472874637825477e-09,-1.457769952326587e-05,-2.2444532178957902e-10,1.570856904689378
9.306509516999995,9.093999999999994,0.05571571619325795,4727.519997515089,279.99999998153686,0.0013415734776304339,24.38399996309451,5.419805445534749e-09,-1.4336786733278218e-05,-2.2226892805112555e-10,1.5708576349917098
9.476049999999987,9.262,0.056450178481755243,4740.959997495042,279.99999998450545,0.0013184719337786914,24.383999964354576,5.34278400032925e-09,-1.4058692005879287e-05,-2.1911024051806148e-10,1.5708585823975583
9.577294096999992,9.363,0.056885635215451105,4749.039997483307,279.9999999862713,0.0013047987373489016,24.383999965090073,5.2896127677455854e-09,-1.3910126124300581e-05,-2.1692966196759232e-10,1.570859143142171
9.678552687999968,9.463999999999999,0.05731657762959813,4757.119997471797,279.9999999880184,0.0012912720775765227,24.38399996581014,5.231549755045962e-09,-1.3774051669588976e-05,-2.145484690498485e-10,1.5708596978772416
9.819905958999982,9.593999999999994,0.057864657720061906,4767.519997457316,279.99999999023726,0.0012740599656711213,24.383999966715542,5.150878023443926e-09,-1.3614429578132862e-05,-2.112400813589156e-10,1.5708604037545435
9.954955428000005,9.730000000000018,0.05843025320111733,4778.39999744258,279.9999999925215,0.0012562681094716289,24.38399996763867,5.060066362264295e-09,-1.3463030768699957e-05,-2.0751585007873068e-10,1.5708611334074474
10.056804597999985,9.831999999999994,0.05884925692149122,4786.559997431793,279.9999999942066,0.0012430541433563628,24.38399996831588,4.988055871664811e-09,-1.3358079550900052e-05,-2.0456266412448738e-10,1.5708616753187934
10.191817454999978,9.966000000000008,0.05939300154514732,4797.2799974179725,279.99999999638385,0.0012258528378331108,24.383999969186704,4.888989797234129e-09,-1.3229082798371837e-05,-2.0049991522399515e-10,1.5708623807529185
10.29222366199997,10.064999999999998,0.05978986903818078,4805.19999740802,279.999999997964,0.0012132529567286541,24.383999969816877,4.8133705598872606e-09,-1.3138928708707189e-05,-1.9739873273654434e-10,1.570862897480331
10.436257728999976,10.194999999999993,0.06030480149788815,4815.599997395297,280.0000000000013,0.0011968396028941158,24.383999970628025,4.711658041121871e-09,-1.3025499397003319e-05,-1.9322745180876046e-10,1.5708635706001637
10.537502980999989,10.297000000000025,0.060703965249522804,4823.759997385525,280.00000000157064,0.0011840590306865623,24.383999971251974,4.627086073695112e-09,-1.2939250981711204e-05,-1.897591133840715e-10,1.570864094737808
10.67210673400001,10.43100000000004,0.06122186167435999,4834.479997373004,280.0000000035885,0.0011673984023052382,24.3839999720553,4.511263986007144e-09,-1.2828305416015666e-05,-1.8500919197890996e-10,1.5708647779984928
10.773688193999988,10.532000000000039,0.0616073905458991,4842.55999736383,280.00000000507356,0.0011549348359251813,24.383999972648805,4.4233222159826716e-09,-1.2745567867557904e-05,-1.814026562528537e-10,1.57086528913557
10.914404652999963,10.663000000000011,0.06210127682287368,4853.039997352177,280.00000000695445,0.001138890799792184,24.383999973403448,4.303836593296898e-09,-1.2638384951068543e-05,-1.7650249142576086e-10,1.5708659471094988
11.01491932099998,10.76400000000001,0.062477378435048816,4861.11999734343,280.0000000083719,0.0011266116623419524,24.38399997397387,4.209801334471149e-09,-1.2555258758554276e-05,-1.7264605866772268e-10,1.5708664506830539
11.149390492999999,10.899000000000001,0.06297375437005864,4871.919997332026,280.00000001021596,0.0011103245432985344,24.38399997472094,4.0807827724959805e-09,-1.244272761922527e-05,-1.6735494322917324e-10,1.5708671186259342
11.25119216600001,11.001000000000033,0.06334402635015376,4880.079997323623,280.0000000115713,0.0010981148920661938,24.38399997527385,3.981163974951098e-09,-1.2356212560621434e-05,-1.6326952674614834e-10,1.570867619349825
11.388745724999978,11.128000000000043,0.0637993121505967,4890.2399973134325,280.0000000132119,0.0010830342269854641,24.383999975948328,3.8549372983737955e-09,-1.2246201547049948e-05,-1.580929078859482e-10,1.5708682378154262
11.523248698999964,11.262,0.06427293523928765,4900.959997302961,280.0000000148847,0.0010672643947470528,24.383999976643654,3.7173940844636677e-09,-1.2127217635163362e-05,-1.5245219217601178e-10,1.5708688845441172
11.625123239000004,11.364000000000033,0.06462882914716073,4909.119997295218,280.00000001611795,0.001055362570358833,24.383999977161682,3.612502627788498e-09,-1.203440001901194e-05,-1.4815054129870507e-10,1.5708693726438756
11.761504884999965,11.5,0.06509717838331422,4919.999997285138,280.0000000177063,0.0010396340991535842,24.383999977837355,3.4697342611686074e-09,-1.1907478935037987e-05,-1.4229553944819257e-10,1.5708700176763302
11.865364160000013,11.593999999999994,0.06541676053461393,4927.519997278348,280.00000001876646,0.001028860321040092,24.383999978294323,3.3696303445857995e-09,-1.181760158981514e-05,-1.381902279544054e-10,1.5708704595143486
11.999920516999964,11.725999999999999,0.06585997599097732,4938.079997269042,280.0000000202034,0.0010138702607121622,24.383999978922205,3.2274809047802974e-09,-1.1688495678865548e-05,-1.323606085803345e-10,1.5708710742642045
12.102582316999985,11.828000000000031,0.06619804588337841,4946.239997262035,280.00000002127183,0.0010023959915030313,24.383999979396606,3.116308088212573e-09,-1.158651661308686e-05,-1.278013559602548e-10,1.5708715448297124
12.204123143000004,11.92900000000003,0.06652902179384783,4954.3199972552475,280.000000022292,0.000991132348086766,24.383999979857048,3.005500854841751e-09,-1.1483688792559071e-05,-1.2325709608253357e-10,1.5708720067573512
12.304317052999977,12.03000000000003,0.06685627546079687,4962.39999724861,280.0000000232762,0.0009799680187087367,24.383999980308282,2.8939167618935884e-09,-1.137910397323501e-05,-1.1868097680030706e-10,1.570872464612072
12.446701259999998,12.162000000000035,0.06727840355400365,4972.959997240165,280.00000002450685,0.0009655308815679687,24.383999980884226,2.747726243173993e-09,-1.1239991013833037e-05,-1.1268563071721452e-10,1.570873056686273
12.548021505999998,12.262,0.06759405347168061,4980.959997233942,280.00000002539565,0.0009547102590693412,24.38399998131029,2.6377571626111527e-09,-1.113293706874957e-05,-1.0817574388711441e-10,1.5708735004454035
12.683557083999972,12.398000000000025,0.06801767903254519,4991.839997225698,280.0000000265481,0.0009401575169999958,24.38399998187572,2.4873092737982426e-09,-1.0985334943059878e-05,-1.0200580093040122e-10,1.5708740972606208
12.785558659000003,12.5,0.06833115242689669,4999.99999721968,280.0000000273683,0.0009293692185443248,24.38399998228929,2.3741998177387467e-09,-1.0873291411234432e-05,-9.7367125720533e-11,1.5708745396941264
12.924432191999983,12.628000000000043,0.06871940552694568,5010.2399972123,280.00000002834446,0.0009159900213190281,24.383999982795554,2.2309800574565014e-09,-1.0731309415063721e-05,-9.149361190905408e-11,1.5708750883816842
13.025800812,12.729000000000042,0.06902183462285327,5018.319997206642,280.0000000290713,0.0009055530361642991,24.383999983185383,2.1189999902568056e-09,-1.0618473791183723e-05,-8.690125347209906e-11,1.570875516407656
13.127560812000013,12.831000000000017,0.0693237653527204,5026.479997201055,280.00000002976884,0.0008951238366619809,24.383999983570458,2.0061821642579535e-09,-1.0503920472730134e-05,-8.227453813959421e-11,1.5708759441143345
13.262561173999984,12.965000000000032,0.06971512810118911,5037.199997193908,280.00000003062615,0.0008815937901931353,24.383999984063387,1.8577223321497886e-09,-1.0352796498255948e-05,-7.618612632651349e-11,1.570876498988295
13.364084451999986,13.066000000000031,0.07000619755170699,5045.279997188676,280.0000000312306,0.0008715236057100585,24.383999984425387,1.7468929273502208e-09,-1.023861859404121e-05,-7.164095712927724e-11,1.5708769119715886
13.469235946999959,13.162000000000035,0.07027975278276483,5052.959997183803,280.00000003177,0.0008620578445609481,24.38399998476188,1.6414336870332308e-09,-1.0130026257892792e-05,-6.731602104181184e-11,1.5708773001671794
13.605102060999968,13.298000000000002,0.0706622474170496,5063.8399971770805,280.0000000324786,0.0008488145482053305,24.383999985226474,1.4916685415807636e-09,-9.976345560308904e-06,-6.117407767057759e-11,1.570877843281375
13.707052971999985,13.399000000000001,0.07094249303091979,5071.919997172226,280.0000000329606,0.0008391095675732183,24.38399998556238,1.3811019787836913e-09,-9.862481711670036e-06,-5.663968772230151e-11,1.5708782412874764
13.842270954000014,13.533999999999992,0.07131208310534494,5082.719997165906,280.00000003354904,0.000826310793970258,24.383999985999463,1.23516296374613e-09,-9.710889671177446e-06,-5.065465583997604e-11,1.5708787661715724
13.946561354999972,13.628000000000043,0.07156606454305647,5090.23999716162,280.00000003392034,0.0008175186466178063,24.383999986295816,1.1348776664433538e-09,-9.605907053737386e-06,-4.654190571809269e-11,1.570879126741925
14.04795915799997,13.729000000000042,0.07183597740627426,5098.319997157092,280.00000003428454,0.0008081737507604488,24.383999986607336,1.0268442853037503e-09,-9.493707094989813e-06,-4.211140281580925e-11,1.5708795099807702
14.183327751999968,13.864000000000033,0.07219194217593816,5109.119997151224,280.00000003471575,0.000795852957530944,24.383999987012587,8.85483011488432e-10,-9.344921441002817e-06,-3.631410636808336e-11,1.5708800152626523
14.284386336000011,13.965000000000032,0.07245470237889831,5117.199997146954,280.0000000349984,0.0007867612900123931,24.38399998730762,7.824426665565752e-10,-9.234586852775717e-06,-3.208837034857103e-11,1.5708803881164772
14.423245758999997,14.093999999999994,0.07278592573670666,5127.519997141633,280.00000003530926,0.0007753061320159902,24.38399998767452,6.517222296207735e-10,-9.095039014283683e-06,-2.6727459920328266e-11,1.5708808578982265
14.524555913999961,14.194999999999993,0.0730419034824276,5135.599997137583,280.0000000355149,0.0007664602078744512,24.383999987954176,5.514353845214681e-10,-8.986971556499282e-06,-2.2614646304855185e-11,1.5708812206739922
14.660170027999982,14.330000000000041,0.07337949851736739,5146.399997132319,280.0000000357385,0.0007547965744767694,24.383999988318013,4.202895851344697e-10,-8.844199179359504e-06,-1.723629153884261e-11,1.5708816990054215
14.762122671999975,14.43100000000004,0.07362870532038712,5154.47999712847,280.0000000358673,0.0007461921342016687,24.383999988582854,3.2326141200310585e-10,-8.738728725872785e-06,-1.3257117671637542e-11,1.5708820518778135
14.863713941000015,14.531000000000006,0.07387264200885396,5162.479997124758,280.00000003596506,0.0007377747818695567,24.383999988838998,2.3010730750640503e-10,-8.635492707079698e-06,-9.436821291540184e-12,1.5708823970776358
15.003137209999977,14.662000000000035,0.07418803464417491,5172.959997120019,280.0000000360443,0.0007268989993887196,24.383999989165638,1.1068129010598162e-10,-8.502096297741551e-06,-4.539100627144548e-12,1.5708828430989057
15.137914333999959,14.798000000000002,0.07451056678484945,5183.839997115224,280.0000000360744,0.0007157833807870748,24.383999989494463,-1.1379084979970528e-11,-8.365887207980785e-06,4.666563834031072e-13,1.5708832989559747
15.273558191000006,14.932999999999993,0.0748258463195757,5194.63999711064,280.00000003604936,0.0007049258049253268,24.38399998981076,-1.2709649566405067e-10,-8.23299984492511e-06,5.212285250051705e-12,1.5708837442305823
15.374358833999963,15.033000000000015,0.07505629468309885,5202.639997107326,280.000000035998,0.0006969956684444791,24.38399999003873,-2.1098634586983792e-10,-8.136091402522257e-06,8.652649950871658e-12,1.5708840694494388
15.480341769000006,15.128000000000043,0.07527280301952106,5210.2399971042505,280.0000000359243,0.0006895504604583843,24.383999990250413,-2.8893264784924854e-10,-8.04526101122511e-06,1.1849266781598197e-11,1.5708843747811359
15.614949827999965,15.262,0.07557429388226575,5220.959997100012,280.00000003578043,0.0006791865848324389,24.383999990541284,-3.956779688904173e-10,-7.919109915219892e-06,1.622694578109796e-11,1.5708847998088502
15.716127300999972,15.364000000000033,0.07580075268565262,5229.11999709686,280.00000003563775,0.0006714060866000453,24.38399999075677,-4.750224302414844e-10,-7.824641786857956e-06,1.948090182617439e-11,1.5708851188909674
15.851274248999971,15.499000000000024,0.07609649041298724,5239.919997092806,280.000000035411,0.0006612513796277631,24.383999991034276,-5.76416540963118e-10,-7.701687079219304e-06,2.3639125038886033e-11,1.5708855353405708
15.991466797999976,15.628000000000043,0.07637488458688078,5250.239997089051,280.00000003515413,0.0006516996612865562,24.38399999129143,-6.695444971941734e-10,-7.586407452367015e-06,2.745834912524711e-11,1.570885927061309
16.12675091,15.762,0.07665982971906432,5260.959997085252,280.0000000348448,0.0006419270072338945,24.383999991550667,-7.625524728108819e-10,-7.468860246204905e-06,3.127265274427803e-11,1.5708863278427312
16.228213600999993,15.863,0.07687177664412416,5269.039997082483,280.00000003458416,0.0006346610911010857,24.38399999174086,-8.290510233604766e-10,-7.38172068332341e-06,3.39997915948346e-11,1.5708866258215797
16.36255718299998,15.997000000000014,0.07714927330174505,5279.759997078882,280.00000003420615,0.0006251521363390283,24.383999991986506,-9.153846459789102e-10,-7.268047492578807e-06,3.754037666900271e-11,1.5708870157885622
16.466439665999985,16.093999999999994,0.07734753921124045,5287.519997076355,280.0000000339095,0.0006183603354575089,24.383999992159694,-9.745423831889532e-10,-7.187100926143076e-06,3.9966465104019293e-11,1.5708872943237078
16.567399405999993,16.194000000000017,0.07754969233597168,5295.519997073812,280.00000003358383,0.0006114389735826047,24.383999992334232,-1.033174010806766e-09,-7.104815900550019e-06,4.237097751558035e-11,1.5708875781722138
16.70293376500001,16.329000000000008,0.0778190207635657,5306.319997070463,280.00000003311334,0.000602218914734725,24.383999992563684,-1.1090571644497412e-09,-6.995529840459619e-06,4.548298365727007e-11,1.5708879562914306
16.80455989699999,16.43100000000004,0.07801981951672285,5314.479997067995,280.00000003273607,0.0005953463732520577,24.38399999273244,-1.1640306906970276e-09,-6.914300004363458e-06,4.773747550338583e-11,1.570888238137788
16.940561780999985,16.567000000000007,0.07828399146979073,5325.359997064789,280.00000003220504,0.0005863069945340363,24.383999992951473,-1.2332876483848946e-09,-6.807751873174162e-06,5.05777380460442e-11,1.5708886088472225
17.077123986999993,16.69300000000004,0.0785251283123288,5335.439997061898,280.00000003168475,0.000578059702238224,24.38399999314839,-1.2940042723894864e-09,-6.710821690899952e-06,5.306775723169083e-11,1.5708889470727976
17.17878317200001,16.795000000000016,0.07871787223664654,5343.599997059634,280.0000000312472,0.0005714675244598201,24.38399999330378,-1.3395701195842523e-09,-6.633528384348063e-06,5.4936435474264996e-11,1.5708892174212994
17.280017630999964,16.896000000000015,0.0789065571452146,5351.679997057441,280.0000000307999,0.0005650144519746376,24.383999993454168,-1.3833762901417743e-09,-6.558021634612249e-06,5.673294850153107e-11,1.5708894820650239
17.38110414299996,16.997000000000014,0.07909311155909153,5359.759997055275,280.0000000303384,0.0005586353461769882,24.383999993601144,-1.4261913395270737e-09,-6.483510409838822e-06,5.848881515357483e-11,1.5708897436753377
17.52073530299998,17.128000000000043,0.07933193370510891,5370.239997052562,280.0000000297186,0.0005504702663291306,24.38399999378685,-1.476535282108254e-09,-6.388326275573848e-06,6.055344550265254e-11,1.570890078529339
17.65617493999997,17.263000000000034,0.0795744083078375,5381.039997049841,280.0000000290562,0.0005421796852067117,24.3839999939726,-1.5246716342636442e-09,-6.29187339437223e-06,6.252754147165811e-11,1.57089041853021
17.756730456000014,17.362000000000023,0.07974989180286172,5388.95999704789,280.0000000285576,0.0005361807611328886,24.38399999410525,-1.5580456171949726e-09,-6.222187552946753e-06,6.389622527446038e-11,1.5708906645490814
17.858160771999962,17.464,0.0799286721744036,5397.11999704593,280.0000000280329,0.0005300682970147101,24.38399999423889,-1.5897498831529034e-09,-6.1512753864949545e-06,6.519643315334336e-11,1.5708909152242865
17.95971097399996,17.564999999999998,0.08010368833043666,5405.19999704404,280.0000000275024,0.0005240847544827013,24.38399999436823,-1.6187066773822149e-09,-6.081932530458148e-06,6.63839658440701e-11,1.5708911606123532
18.068615900999987,17.661,0.08026819466850492,5412.879997042267,280.00000002699056,0.0005184613650874641,24.38399999448844,-1.644801034646939e-09,-6.016816417956433e-06,6.74541085605094e-11,1.5708913912303601
18.20455881999999,17.797000000000025,0.08049825185193328,5423.7599970398505,280.0000000262519,0.0005105956597836729,24.383999994654417,-1.6768455000080731e-09,-5.925845932519473e-06,6.876826821679868e-11,1.5708917138068617
18.34061163399997,17.932000000000016,0.08072316226076935,5434.559997037508,280.0000000255029,0.0005029053095303028,24.38399999481424,-1.7062371784570242e-09,-5.836978506158852e-06,6.997363575840063e-11,1.5708920291919652
18.442878814999972,18.033000000000015,0.08088920979131109,5442.639997035793,280.00000002493516,0.0004972275509181083,24.383999994930676,-1.7259671315600048e-09,-5.771406507594958e-06,7.078277108533062e-11,1.5708922620396806
18.581435065999983,18.161,0.08109693936674045,5452.87999703369,280.0000000242071,0.0004901256712248584,24.383999995074465,-1.747655733308417e-09,-5.689409407313267e-06,7.167223160289883e-11,1.5708925532913125
18.683792188999973,18.262,0.08125876724556266,5460.9599970320505,280.0000000236263,0.0004845914663217321,24.38399999518507,-1.7635592034879512e-09,-5.6255705262226214e-06,7.232444095369204e-11,1.5708927802518187
18.81890303299997,18.398000000000025,0.08147379489680069,5471.839997029944,280.0000000228369,0.00047723705424303903,24.383999995330132,-1.7795010811764913e-09,-5.540735902062474e-06,7.297822545500077e-11,1.5708930818599298
18.91976856399998,18.49799999999999,0.0816298129103835,5479.839997028419,280.0000000222525,0.0004719008419069955,24.383999995433985,-1.789945111337784e-09,-5.47918389837642e-06,7.340654044311895e-11,1.5708933007006618
19.025638002999983,18.593999999999994,0.08177793963322834,5487.519997027004,280.00000002168855,0.0004668337840303169,24.383999995531525,-1.7969259528943724e-09,-5.420742984186331e-06,7.36928283368909e-11,1.5708935085032354
19.16067947099998,18.72800000000001,0.08198205876719027,5498.2399970250535,280.00000002089666,0.00045985215145131824,24.3839999956642,-1.8055833035234235e-09,-5.340211652056453e-06,7.404787073524816e-11,1.570893794823473
19.26202598599997,18.83000000000004,0.08213538835173914,5506.3999970236255,280.0000000202927,0.0004546063920384417,24.383999995762558,-1.8089787785189638e-09,-5.27970924122475e-06,7.418712095277902e-11,1.5708940099546855
19.363919328999998,18.932000000000016,0.0822869687433275,5514.559997022198,280.00000001968874,0.00044941987267299637,24.3839999958587,-1.8125487303332448e-09,-5.219871874268884e-06,7.43335265531296e-11,1.5708942226564342
19.500001103999978,19.06800000000004,0.08248638915439767,5525.439997020397,280.0000000188785,0.00044259582845566214,24.383999995983526,-1.81156253353343e-09,-5.1411202506465015e-06,7.429308225794564e-11,1.5708945025138947
19.637799986000005,19.194999999999993,0.0826698584087769,5535.599997018714,280.00000001812634,0.00043631867294815596,24.383999996096648,-1.8111202955341283e-09,-5.068653732486006e-06,7.427494596625573e-11,1.570894759943176
19.739448729999992,19.295000000000016,0.08281249910798034,5543.5999970174635,280.00000001753426,0.00043143692659666853,24.383999996183512,-1.8066065639884042e-09,-5.012279473370479e-06,7.40898356773421e-11,1.5708949601460311
19.874374101,19.42900000000003,0.0830011404466274,5554.319997015788,280.0000000167408,0.00042498062598693757,24.3839999962969,-1.800289659272072e-09,-4.9377012473027365e-06,7.38307763789082e-11,1.5708952249221424
19.97577018300001,19.531000000000006,0.08314284242835861,5562.479997014564,280.0000000161384,0.00042013005224556313,24.383999996380968,-1.7926953974806506e-09,-4.881650762063249e-06,7.351933199877905e-11,1.5708954238465935
20.083142340999984,19.628000000000043,0.08327608640309489,5570.239997013424,280.0000000155686,0.00041556960936882495,24.38399999645911,-1.7839934605679501e-09,-4.828927312797862e-06,7.316246130055745e-11,1.5708956108726326
20.184258285,19.72800000000001,0.08341194370498656,5578.239997012248,280.00000001498427,0.0004109187283570232,24.38399999653795,-1.7752084473338226e-09,-4.775136683321419e-06,7.280218361051122e-11,1.570895801607585
20.28541942800001,19.83000000000004,0.08354895695111961,5586.3999970111245,280.0000000143914,0.00040622800997734,24.383999996616552,-1.7624927247473524e-09,-4.7208774372426734e-06,7.228070555984889e-11,1.5708959939762877
20.45580858699998,19.999000000000024,0.08377253153814751,5599.919997009264,280.00000001341914,0.0003985672706481041,24.383999996742975,-1.740706588672983e-09,-4.632184631514779e-06,7.13872453747266e-11,1.5708963081470322
20.561224857000013,20.093999999999994,0.08389634008453721,5607.519997008263,280.00000001287754,0.0003943280293748056,24.383999996811916,-1.7264402813870986e-09,-4.583059385136144e-06,7.080217707305573e-11,1.5708964820004339
20.696283053000002,20.229000000000042,0.08407003513251028,5618.319997006878,280.00000001211595,0.00038838147003372264,24.383999996907356,-1.7034980822589685e-09,-4.514084421949655e-06,6.986130613046424e-11,1.570896725871801
20.797031392000008,20.329000000000008,0.08419700400626116,5626.319997005851,280.0000000115581,0.0003840339416970869,24.38399999697623,-1.6867129272842741e-09,-4.463655658918427e-06,6.91729386156193e-11,1.5708969041661087
20.931820886999958,20.463000000000022,0.08436491835864682,5637.03999700455,280.0000000108208,0.0003782839786932861,24.383999997066116,-1.661080219663099e-09,-4.3969393026067245e-06,6.812172858437594e-11,1.5708971399749623
21.033338605999973,20.564999999999998,0.08449105002251114,5645.1999970035795,280.00000001026757,0.00037396473420561765,24.38399999713274,-1.6403604165543638e-09,-4.346810947368462e-06,6.727199918057889e-11,1.5708973171093352
21.175557260000005,20.696000000000026,0.08465092257585753,5655.679997002333,280.0000000095668,0.00036849055617624733,24.383999997216094,-1.6141905894100748e-09,-4.283261112479518e-06,6.619876159294461e-11,1.5708975416081092
21.27754575299997,20.797000000000025,0.08477258880890828,5663.759997001446,280.00000000903316,0.0003643240741350698,24.383999997278707,-1.5903520505263286e-09,-4.23487745368676e-06,6.522113128306774e-11,1.570897712477618
21.413541564000013,20.932000000000016,0.08493306719157097,5674.559997000261,280.00000000833455,0.0003588283291515873,24.3839999973602,-1.558048320472746e-09,-4.1710506590481035e-06,6.389633926984849e-11,1.5708979378608636
21.586134039,21.093999999999994,0.0851224379874794,5687.519996998849,280.0000000075137,0.00035234285691216976,24.383999997454783,-1.520217995219783e-09,-4.095703308745927e-06,6.234489885018247e-11,1.5708982038333181
21.68786135199997,21.196000000000026,0.08523992026669408,5695.67999699803,280.000000007008,0.0003483205700483555,24.38399999751257,-1.4928534102388113e-09,-4.048964754556865e-06,6.12226636117222e-11,1.5708983687893106
21.823883228,21.33000000000004,0.08539221925272851,5706.399996996955,280.0000000063582,0.00034310479407126675,24.38399999758653,-1.4565467882651749e-09,-3.988350405227435e-06,5.973371099241443e-11,1.5708985826908874
21.925681486999963,21.432999999999993,0.08550773831962621,5714.6399969961285,280.00000000586834,0.000339148497239886,24.38399999764188,-1.4292563077386085e-09,-3.942364554029801e-06,5.861451481965397e-11,1.5708987449405958
22.061231846999988,21.569000000000017,0.08565822742691019,5725.519996995087,280.00000000523585,0.0003339945299866645,24.383999997713037,-1.391382252954912e-09,-3.882447456173665e-06,5.706128099618697e-11,1.5708989563073659
22.19778635399996,21.694000000000017,0.08579450935197161,5735.519996994177,280.0000000046709,0.00032932853937465495,24.383999997776513,-1.3536360276065547e-09,-3.828196094970158e-06,5.551328951468768e-11,1.5708991476619705
22.29940079299996,21.795000000000016,0.08590324527350326,5743.599996993442,280.0000000042251,0.0003256048443995812,24.38399999782652,-1.3237870993170608e-09,-3.784899741137179e-06,5.428917010655415e-11,1.5708993003725604
22.401205991999973,21.89500000000004,0.08600969128325531,5751.599996992714,280.0000000037934,0.0003219595711073097,24.383999997874923,-1.2946799439491295e-09,-3.742516706950602e-06,5.309547118135457e-11,1.5708994498670383
22.502490383999998,21.997000000000014,0.08611704256782732,5759.759996991997,280.0000000033638,0.0003182830282401054,24.383999997923194,-1.2649575084676984e-09,-3.699767441586122e-06,5.187653931131002e-11,1.5708996006438969
22.64341882399998,22.128000000000043,0.08625311060079165,5770.23999699114,280.00000000282654,0.00031362369555147353,24.38399999798357,-1.2223663063145128e-09,-3.645583622853024e-06,5.012985289975739e-11,1.5708997917254568
22.744467643999997,22.229000000000042,0.08635666115746324,5778.319996990481,280.00000000242466,0.0003100773553831055,24.383999998028926,-1.1901585609960348e-09,-3.604338537497453e-06,4.88089972252504e-11,1.5708999371626378
22.880243936,22.36500000000001,0.08649425069523713,5789.199996989591,280.0000000019,0.0003053654278435776,24.383999998088388,-1.147716119730136e-09,-3.549540651846164e-06,4.706841156850037e-11,1.5709001304011387
22.981563246000007,22.466000000000008,0.08659507460042039,5797.279996988932,280.0000000015233,0.00030191264141594563,24.38399999813138,-1.1169664817148463e-09,-3.5093824725909374e-06,4.5807353599449814e-11,1.5709002720016338
23.12097811000001,22.593999999999994,0.08672120461021816,5807.5199969881905,280.00000000106047,0.0002975933542246782,24.38399999818447,-1.0739507672085532e-09,-3.4591429593697944e-06,4.4043257718662165e-11,1.570900449137758
23.255769471999997,22.72800000000001,0.08685132403944568,5818.239996987415,280.0000000005951,0.00029313823377034165,24.383999998238433,-1.0288872207774313e-09,-3.407323370570855e-06,4.21951792191094e-11,1.570900631844472
23.356944410999972,22.829000000000008,0.08694811084554753,5826.31999698683,280.00000000025767,0.0002898237876630671,24.383999998278057,-9.95632402115264e-10,-3.368780918450031e-06,4.083138253298554e-11,1.5709007677715618
23.458068379999986,22.930000000000007,0.08704380330720311,5834.399996986246,279.9999999999312,0.0002865468358953361,24.38399999831679,-9.631857351899996e-10,-3.3306692370490087e-06,3.9500728551386576e-11,1.5709009021609899
23.559124397999994,23.031000000000006,0.08713841379099486,5842.479996985661,279.9999999996157,0.00028330695526968875,24.383999998354643,-9.31541764570942e-10,-3.2929906224859565e-06,3.820299354538256e-11,1.570901035030112
23.666026259999967,23.128000000000043,0.0872282642752965,5850.239996985172,279.99999999932174,0.0002802305875747132,24.383999998390195,-8.98859527007088e-10,-3.257209955566585e-06,3.6862678691175444e-11,1.5709011611934869
23.801402087999975,23.262,0.08735079179542342,5860.959996984497,279.99999999893436,0.0002760347297811066,24.38399999843805,-8.525153575479849e-10,-3.2084137078912027e-06,3.4962081189359796e-11,1.57090133326771
23.935792928000012,23.39500000000004,0.08747058912663422,5871.599996983826,279.99999999857005,0.0002719326287374309,24.38399999848415,-8.081568497377117e-10,-3.1607101831387316e-06,3.31429166657755e-11,1.5709015014969219
24.038197606999972,23.497000000000014,0.0875612599351887,5879.759996983311,279.99999999830374,0.0002688277529167733,24.383999998518583,-7.751794545531389e-10,-3.1246040469823255e-06,3.1790497243189934e-11,1.5709016288294293
24.144394508999994,23.593999999999994,0.08764651836881145,5887.519996982822,279.99999999805925,0.00026590812011874934,24.383999998550593,-7.443778326822516e-10,-3.090652873730029e-06,3.0527307368655865e-11,1.5709017485650283
24.24527782499996,23.694999999999993,0.08773431461978486,5895.599996982312,279.99999999781596,0.0002629022697033427,24.383999998583192,-7.131447470898572e-10,-3.055699229194997e-06,2.92464229512897e-11,1.5709018718364545
24.381138249000003,23.831000000000017,0.08785097134550311,5906.479996981729,279.99999999750526,0.0002589074671695582,24.383999998625924,-6.693827708010619e-10,-3.009249888011617e-06,2.745172247203976e-11,1.5709020356653007
24.483056621999992,23.932999999999993,0.08793729914255534,5914.63999698129,279.99999999728493,0.00025595126516005074,24.383999998657142,-6.351862830175636e-10,-2.974875367432065e-06,2.6049307446220847e-11,1.5709021569006212
24.619128794000005,24.069000000000017,0.08805087152892341,5925.519996980705,279.9999999970091,0.0002520621232783443,24.383999998697643,-5.90871303356124e-10,-2.9296523255524953e-06,2.4231928019161902e-11,1.5709023163962714
24.756403938000005,24.194000000000017,0.08815372211009836,5935.519996980169,279.9999999967721,0.00024854124283630734,24.383999998733785,-5.513966559320076e-10,-2.8887142264306656e-06,2.2613053030375686e-11,1.5709024607893363
24.85849889100001,24.295999999999992,0.08823659351527308,5943.67999697973,279.9999999965914,0.0002457035641740757,24.383999998762544,-5.20048719091035e-10,-2.8557207352806597e-06,2.132745849657093e-11,1.570902577163955
24.994561541999985,24.432000000000016,0.08834561882477703,5954.5599969791465,279.9999999963647,0.00024197030050144918,24.383999998799872,-4.797859282243063e-10,-2.8123226031612023e-06,1.9676261349910334e-11,1.570902730266962
25.095520050999994,24.533000000000015,0.0884255112708647,5962.639996978762,279.9999999962092,0.00023923443365304192,24.383999998826873,-4.4994072461861956e-10,-2.780517223105171e-06,1.8452294653135108e-11,1.5709028424662275
25.201155873999994,24.628000000000043,0.08849982562615465,5970.239996978425,279.999999996072,0.00023669048755919732,24.383999998851706,-4.2086684666839633e-10,-2.7509422316466616e-06,1.725996040473971e-11,1.5709029467947269
25.302886887,24.730000000000018,0.08857874560146234,5978.3999969780625,279.99999999593405,0.00023398804501464614,24.383999998877783,-3.8909115598045276e-10,-2.719525358859917e-06,1.5956823464749305e-11,1.570903057623245
25.438565153000013,24.866000000000042,0.08868257234052827,5989.27999697758,279.9999999957676,0.00023043272876379826,24.38399999891164,-3.4781559146106436e-10,-2.6782007339098477e-06,1.4264091954817348e-11,1.5709032034285395
25.540666052999995,24.96700000000004,0.08875865539776202,5997.359996977221,279.99999999565455,0.00022782743662152772,24.38399999893614,-3.182593842165191e-10,-2.6479169984250705e-06,1.3051977136163616e-11,1.570903310272871
25.71128849600001,25.126000000000033,0.0888766800669776,6010.079996976657,279.99999999549846,0.000223786880311081,24.38399999897356,-2.741039360480514e-10,-2.6009468286223147e-06,1.124114015241399e-11,1.5709034759781024
25.81239260899997,25.226,0.08894984004701764,6018.079996976301,279.99999999541143,0.0002212819863648642,24.383999998996423,-2.4733199760097535e-10,-2.5718297335653105e-06,1.0143209585227402e-11,1.5709035787050538
25.91386985700001,25.32800000000003,0.08902362237296836,6026.239996975939,279.99999999533213,0.00021875559146683078,24.38399999901923,-2.2122985646661012e-10,-2.5424721394321423e-06,9.072747743619515e-12,1.5709036823137699
26.049201924999977,25.464,0.08912069016160051,6037.119996975507,279.9999999952387,0.00021543174621862992,24.383999999048832,-1.8661637404670496e-10,-2.503845106616923e-06,7.653231536371133e-12,1.570903818626323
26.15055694,25.564999999999998,0.0891918202747331,6045.199996975223,279.99999999517905,0.00021299615821766945,24.383999999070234,-1.6042032165023101e-10,-2.4755365429000077e-06,6.578918343948782e-12,1.570903918511003
26.29156272,25.696000000000026,0.08928287767207298,6055.679996974856,279.99999999511505,0.00020987857498559428,24.383999999097284,-1.2605890809128705e-10,-2.439304206783922e-06,5.169739605674289e-12,1.5709040463646478
26.393429846000004,25.797000000000025,0.0893521742687537,6063.759996974573,279.99999999507577,0.000207505769733411,24.38399999911759,-9.981092816558841e-11,-2.411726368451328e-06,4.0932968320268296e-12,1.5709041436745759
26.49511873299997,25.89699999999999,0.08942001169790958,6071.759996974292,279.9999999950462,0.00020518283817391346,24.38399999913726,-7.513198793240939e-11,-2.384730406576474e-06,3.0812011576784794e-12,1.5709042389391588
26.629364431,26.03200000000004,0.0895103912468657,6082.559996973914,279.99999999501784,0.00020208826742521954,24.383999999163102,-4.300165352791195e-11,-2.3487641034651983e-06,1.7635200855777976e-12,1.5709043658490502
26.734757297999977,26.128000000000043,0.08957382524869793,6090.239996973644,279.99999999500704,0.0001999166369874657,24.383999999181007,-2.13790996754453e-11,-2.323525316822898e-06,8.767683425289741e-13,1.5709044549086986
26.836301057000014,26.229000000000042,0.08963983266509888,6098.319996973361,279.9999999950014,0.00019765645526908146,24.383999999199432,6.245140285412101e-13,-2.297256387963339e-06,-2.5610855794170793e-14,1.5709045475998795
26.971208692000005,26.364000000000033,0.08972689693419196,6109.119996972982,279.9999999950075,0.00019467522597121898,24.38399999922343,2.8607259833888995e-11,-2.262613222806516e-06,-1.1731972524998399e-12,1.5709046698615814
27.072998247999976,26.466000000000008,0.08979180771495565,6117.279996972697,279.99999999501864,0.00019245250185732967,24.383999999241084,4.8435204810049075e-11,-2.2367822191070106e-06,-1.986351187699409e-12,1.570904761016607
27.21181120099999,26.593999999999994,0.08987220904126052,6127.519996972347,279.99999999504223,0.0001896994176078845,24.383999999262663,7.239971242067986e-11,-2.2047855765739722e-06,-2.9691476315661972e-12,1.5709048739219666
27.347031394999988,26.729000000000042,0.08995576855200145,6138.319996972069,279.99999999507844,0.00018683874446682916,24.38399999928476,9.801098623908029e-11,-2.1715373805844417e-06,-4.019478778458872e-12,1.5709049912396005
27.44875518599997,26.829000000000008,0.09001684949102821,6146.3199969718635,279.99999999511266,0.0001847473182267762,24.3839999993007,1.1716190353814701e-10,-2.147234953458934e-06,-4.804867477208532e-12,1.5709050770100348
27.550545606000014,26.93100000000004,0.09007844999750189,6154.479996971653,279.99999999515387,0.0001826379392259159,24.383999999316593,1.3677326210601092e-10,-2.1227216783164114e-06,-5.609139103685947e-12,1.5709051635167206
27.65130111899998,27.03200000000004,0.09013875243184953,6162.559996971446,279.99999999520094,0.00018057308424801157,24.38399999933198,1.5571033349106534e-10,-2.098724685401417e-06,-6.385757876986104e-12,1.5709052481974541
27.791389033999963,27.162000000000035,0.0902153629140521,6172.959996971178,279.9999999952708,0.0001779501759251043,24.383999999351275,1.7927326128175608e-10,-2.0682374826905065e-06,-7.352085333475034e-12,1.570905355764234
27.893142135000005,27.26400000000001,0.09027469704149393,6181.119996970968,279.99999999533264,0.00017591839865619722,24.38399999936602,1.9654311065499371e-10,-2.0446307347639976e-06,-8.060330501047795e-12,1.5709054390884343
28.063368141000012,27.434000000000026,0.09037208561288868,6194.719996970618,279.9999999954483,0.00017258351473595207,24.38399999938986,2.2321074449848808e-10,-2.0058722663638258e-06,-9.153983514793057e-12,1.5709055758536887
28.164932711000006,27.533999999999992,0.09042850625963593,6202.719996970412,279.99999999552296,0.00017065157012893605,24.38399999940345,2.377678663734619e-10,-1.9834174211180386e-06,-9.750978373880494e-12,1.5709056550837017
28.268998157,27.628000000000043,0.09048096109813754,6210.239996970218,279.9999999955974,0.00016885601096817924,24.38399999941595,2.502807199073541e-10,-1.962548434767501e-06,-1.02641367655027e-11,1.5709057287204795
28.404213181999978,27.763000000000034,0.0905553392461246,6221.03999696994,279.9999999957113,0.0001663091489014886,24.383999999433453,2.6722925811827105e-10,-1.932950268866609e-06,-1.0959204805839417e-11,1.5709058331685644
28.506097009999962,27.86500000000001,0.09061079189148086,6229.199996969731,279.99999999580166,0.00016441027775769473,24.383999999446328,2.7909335659830337e-10,-1.9108807256641916e-06,-1.1445757431378925e-11,1.5709059110422179
28.64227737799996,28.001000000000033,0.09068374511449316,6240.079996969451,279.9999999959285,0.00016191212752488874,24.383999999463043,2.9302145764121397e-10,-1.8818477074466293e-06,-1.201695583863614e-11,1.570906013492606
28.745938811999963,28.093999999999994,0.0907329863592877,6247.5199969692585,279.99999999601954,0.0001602259493884918,24.383999999474177,3.0186659621213423e-10,-1.86224968232659e-06,-1.2379699410998414e-11,1.5709060826436134
28.88121363099998,28.22800000000001,0.09080304349402818,6258.239996968995,279.99999999615386,0.00015782764455352436,24.38399999948983,3.1372849262046176e-10,-1.8343730288057479e-06,-1.2866161729590856e-11,1.5709061809992921
28.982921527999963,28.33000000000004,0.09085566815676992,6266.399996968861,279.99999999625845,0.0001560256774378125,24.383999999501427,3.226594529234385e-10,-1.8134350146005453e-06,-1.3232424893043802e-11,1.5709062548988633
29.085065027999974,28.432000000000016,0.09090769197208255,6274.559996968727,279.9999999963679,0.0001542442134785636,24.383999999512774,3.3191634720719387e-10,-1.7927305118553532e-06,-1.3612054773105672e-11,1.5709063279575897
29.221192437000013,28.56800000000004,0.09097613423998036,6285.439996968548,279.99999999651845,0.0001519005250078514,24.383999999527482,3.4496241143042735e-10,-1.7654913361059858e-06,-1.4147080409863255e-11,1.5709064240734238
29.32550878500001,28.662000000000035,0.09102282543111823,6292.959996968425,279.9999999966252,0.00015030218681835438,24.383999999537387,3.5429493075927484e-10,-1.7469089427528998e-06,-1.4529811710802376e-11,1.570906489622071
29.426973519,28.763000000000034,0.09107245140889687,6301.039996968293,279.99999999674293,0.00014860283309147171,24.383999999547797,3.628168678543971e-10,-1.7271646824536592e-06,-1.4879300631661625e-11,1.5709065593134157
29.596732650999968,28.93100000000004,0.09115375760222605,6314.479996968072,279.9999999969466,0.00014581883002238742,24.383999999564605,3.7533982647842964e-10,-1.6948075423531735e-06,-1.5392873454376187e-11,1.5709066734867716
29.69902590800001,29.033000000000015,0.09120237813656701,6322.639996967938,279.9999999970734,0.000144153900868195,24.3839999995745,3.821582015427036e-10,-1.6754578878278537e-06,-1.5672498445424653e-11,1.5709067417663474
29.840063549999968,29.162000000000035,0.09126306967549604,6332.959996967768,279.9999999972358,0.00014207605066602477,24.38399999958668,3.89399656387573e-10,-1.65130317324863e-06,-1.5969474155185278e-11,1.5709068269800217
29.942214838999973,29.26400000000001,0.09131044225129532,6341.1199969676345,279.99999999736707,0.00014045385740783263,24.383999999596078,3.939250289398291e-10,-1.6324546160183507e-06,-1.6155061965063902e-11,1.570906893506977
30.07684130199999,29.398000000000025,0.09137185407683016,6351.839996967459,279.99999999754203,0.00013835102862858292,24.38399999960811,3.989520814265867e-10,-1.608014164449383e-06,-1.6361223928569197e-11,1.5709069797450352
30.28214812799996,29.593999999999994,0.09146002535219142,6367.519996967201,279.9999999977979,0.00013533174516338562,24.383999999625082,4.0485155806468344e-10,-1.5729214378886061e-06,-1.6603164456722725e-11,1.5709071035673576
30.383004825,29.69300000000004,0.09150382702341114,6375.439996967071,279.9999999979302,0.00013383239456600475,24.383999999633367,4.061571521483711e-10,-1.5554944099046622e-06,-1.6656707542994664e-11,1.5709071650564739
30.51811642199999,29.826999999999998,0.09156234369741523,6386.159996966896,279.9999999981114,0.0001318287597022226,24.38399999964429,4.0681166381231587e-10,-1.5322083562949218e-06,-1.6683549419723166e-11,1.5709072472265402
30.619199251999987,29.92900000000003,0.09160629950691804,6394.319996966762,279.9999999982493,0.0001303235641445702,24.383999999652392,4.067865493955012e-10,-1.5147157379760588e-06,-1.6682519487481007e-11,1.5709073089553616
30.720251319,30.03000000000003,0.0916493290537141,6402.399996966629,279.9999999983859,0.0001288501402295677,24.383999999660237,4.063062354118628e-10,-1.4975915108874495e-06,-1.66628215908147e-11,1.570907369381212
30.86256134299998,30.162000000000035,0.0917048312275289,6412.959996966456,279.99999999856436,0.00012694976919581317,24.383999999670205,4.0476238858564017e-10,-1.4755032377205573e-06,-1.6599507689493278e-11,1.5709074473163767
30.964561515000014,30.26400000000001,0.09174716022946953,6421.119996966322,279.9999999986975,0.00012550027763879218,24.383999999677705,4.031752045812064e-10,-1.458658269096311e-06,-1.6534416499384455e-11,1.5709075067607492
31.100281177,30.399,0.0918024409235738,6431.919996966145,279.9999999988737,0.00012360732672634005,24.38399999968738,4.005567705709959e-10,-1.4366562757755855e-06,-1.6427033239775208e-11,1.5709075843916112
31.233998740999994,30.531000000000006,0.09185568466559822,6442.479996965972,279.99999999904605,0.00012178428316392534,24.38399999969654,3.971047178757121e-10,-1.4154656382038051e-06,-1.628546286040606e-11,1.570907659155538
31.37690880399998,30.662000000000035,0.09190774811707339,6452.959996965799,279.99999999921704,0.00012000170712715702,24.38399999970538,3.92874097471396e-10,-1.394744590945224e-06,-1.611196302785979e-11,1.5709077322598712
31.478703526999993,30.76400000000001,0.09194776041933048,6461.119996965665,279.99999999934863,0.0001186315505413882,24.383999999712096,3.8882033415846817e-10,-1.3788216140376526e-06,-1.5945716189786577e-11,1.5709077884506768
31.580334518999962,30.86500000000001,0.09198692955310203,6469.199996965583,279.9999999994758,0.00011729031640009561,24.38399999971859,3.8474862947478584e-10,-1.3632322260046468e-06,-1.5778733563308842e-11,1.5709078434553585
31.71539644699999,31.0,0.09203859390271325,6479.9999969655055,279.9999999996457,0.00011552115315597669,24.38399999972704,3.8125841132062904e-10,-1.3426685008801214e-06,-1.5635597998131518e-11,1.5709079160096264
31.819227688000012,31.093999999999994,0.0920741027679607,6487.519996965452,279.99999999976404,0.00011430525934608054,24.383999999732772,3.7997707058903856e-10,-1.3285347699430777e-06,-1.5583049592496298e-11,1.5709079658740386
