Real_time_s,Simulation_time_s,x_ft,y_ft,alt_ft,vx_fps,vy_fps,vz_fps,roll_rad,pitch_rad,yaw_rad,adsb_x_ft,adsb_y_ft,adsb_alt_ft
10.257062922,10.036,-2071.15627213432,6997.16385548788,300.000495048463,69.9894413733211,-1.21701827181927,0.0002266024564163,-0.003800155710655,-3.23717260461012E-06,-0.0172705179872414,-658.184379726064,4578.44178640518,286.337496559476
10.359169044,10.138,-2064.01736402584,6997.03887263159,300.000518371423,69.9889769717296,-1.24343864616399,0.000232471953497978,-0.00388266222136763,-3.32102244268596E-06,-0.0176480100941572,-658.501025555827,4577.83016168473,286.33412127993
10.427637117,10.206,-2059.25811838567,6996.95405357491,300.000534253401,69.9886618298616,-1.26105213071013,0.000236407347000525,-0.0039376665605332,-3.37724226961035E-06,-0.0178996714967157,-658.311757963103,4579.13314149261,286.683935011477
10.529557318,10.307,-2052.81917387352,6996.8373585693,300.000556175221,69.9882284060745,-1.28488201148116,0.000241755549799049,-0.00401208419729228,-3.45364505804634E-06,-0.0182401545650497,-658.912259981927,4577.97879978865,286.679601367976
11.623850526,11.366,-1978.07454885996,6995.32254939107,300.000847496477,69.9826031361439,-1.56150421341252,0.000306285011607971,-0.00487597564193553,-4.37549323994237E-06,-0.0221927186637558,-659.228376765435,4577.37128430638,286.677320504383
11.759367866,11.501,-1968.69691785102,6995.11163138413,300.000888980996,69.9818201477983,-1.59620985754225,0.000314693609957674,-0.00498436648610517,-4.49561591246716E-06,-0.0226886395928889,-659.228376765435,4577.37128430638,286.677320504383
11.826531701,11.568,-1963.93816023145,6995.0028239131,300.000910463762,69.9814162273155,-1.61382152713853,0.000318987881199667,-0.00503937079179296,-4.55696256265233E-06,-0.0229403009571216,-659.228376765435,4577.37128430638,286.677320504383
11.962077543,11.704,-1952.04138730445,6994.72556578602,300.000965453012,69.9803870354623,-1.65785025085335,0.000329801949462955,-0.0051768815486801,-4.71144904717263E-06,-0.0235694543581006,-659.228376765435,4577.37128430638,286.677320504383
12.064257374,11.806,-1949.66205378419,6994.6692159763,300.000976671909,69.9801775328724,-1.66667024415068,0.000332052784188124,-0.00520438369821933,-4.74253829984393E-06,-0.0236952850366501,-659.228376765435,4577.37128430638,286.677320504383
12.134406645,11.865,-1943.15390447341,6994.51390473839,300.001013488702,69.9804955084567,-1.65326562879174,0.00036315244727201,-0.01303353319983,-5.18706578925293E-06,-0.023503879318187,-659.228376765435,4577.37128430638,286.677320504383
12.235973187,11.967,-1933.70650061253,6994.29224548786,300.001073912588,69.9817035034323,-1.60131864284292,0.000406807308437863,-0.0208977574493036,-5.81006505739461E-06,-0.0227615722340455,-659.228376765435,4577.37128430638,286.677320504383
12.30346263,12.034,-1928.94773672123,6994.18366556353,300.001107371614,69.9826076083939,-1.5613090427426,0.000425347132516227,-0.0243224197571373,-6.07477432726433E-06,-0.0221898646850758,-682.820125192482,4624.74803289902,286.755914036946
12.439056339,12.169,-1919.56997279972,6993.9786243809,300.001176491988,69.9847955029769,-1.45995633331694,0.000442952808955072,-0.0299547305319322,-6.32629331621728E-06,-0.0207416446192357,-677.921255866221,4624.64476054728,286.755884949742
12.540386019,12.269,-1914.95096059302,6993.88293213761,300.001210747303,69.9860082913436,-1.4006180421148,0.000439520510713603,-0.0322014161691213,-6.27736471628162E-06,-0.019893784918062,-675.471683241358,4624.60084967921,286.755866309541
12.614417362,12.332,-1908.09227529967,6993.74836884692,300.0012599116,69.9878903678817,-1.30319328895957,0.000417618700372779,-0.0349193895369638,-5.96468354486121E-06,-0.0185017527758875,-672.672051427372,4624.55803724852,286.755840076824
12.715723472,12.434,-1903.40306700306,6993.6619778888,300.001291375367,69.9891900960534,-1.23142124033465,0.000391396839236701,-0.0363991650009864,-5.59030028367589E-06,-0.0174762773738171,-669.87230998682,4624.52254140443,286.755808317687
12.851244386,12.569,-1893.88440664129,6993.50183749234,300.001346712542,69.9917578929909,-1.07563691805822,0.000310958833010793,-0.0384881117146642,-4.44163612993867E-06,-0.0152504983057851,-690.719474545087,4674.84313775006,286.687355515198
12.919455719,12.637,-1886.8151783485,6993.3969462069,300.001378052589,69.9935248144613,-0.953773250207208,0.000230875995158753,-0.0393186260361123,-3.29793022093158E-06,-0.0135094149722996,-688.597176390844,4675.47099082122,286.686441891976
13.089163618,12.806,-1877.85590750787,6993.28205323883,300.001403049137,69.9955065399284,-0.795177353738419,0.000110192930254884,-0.0395904182873334,-1.57428980521946E-06,-0.0112435929212888,-684.352407712606,4676.74506815191,286.684597247373
13.159731234,12.866,-1873.09619553187,6993.22925394715,300.00140902193,69.996420673481,-0.710181253619939,3.99133178598454E-05,-0.0394213447251904,-5.70465361923916E-07,-0.0100292973387954,-682.229954730808,4677.39095435166,286.683666405568
13.226970147,12.932,-1868.47641655321,6993.18358806077,300.001409639213,69.9972080229889,-0.627817585082876,-3.1097180362232E-05,-0.039068292018425,4.4382352739978E-07,-0.00885262387771912,-680.107464235819,4678.04295103727,286.682729657489
13.362860832,13.068,-1858.95672080569,6993.10652274736,300.001394682484,69.998511736093,-0.460088986731501,-0.000181132802432255,-0.0378388093022895,2.58693292715495E-06,-0.00645643600933932,-709.666630877575,4746.05790664434,286.565278018945
13.430228272,13.136,-1854.26680960969,6993.07694188323,300.001379224961,69.9989968127976,-0.379198903444105,-0.000255030049535485,-0.0370121081118891,3.6425083967151E-06,-0.00530084601972636,-708.555849687689,4748.74227110404,286.560832680115
13.564558525,13.269,-1844.88690130543,6993.03388740884,300.001332813503,69.9996705470941,-0.222499410339564,-0.000398258870515557,-0.0349947773943609,5.68850210207835E-06,-0.00306226641183516,-706.334267551778,4754.12629679468,286.551928436099
13.638076097,13.332,-1840.47691651294,6993.0209122609,300.001304113154,69.9998598308964,-0.151732812878588,-0.000462380294589856,-0.0339018722652448,6.60448894534468E-06,-0.0020513135252056,-705.223477198709,4756.82596154822,286.547469874894
13.705966539,13.4,-1835.78692121762,6993.01191183924,300.001269192104,69.9999802353245,-0.0786232938251846,-0.000527122019271805,-0.0326639350189112,7.52934437791037E-06,-0.00100689257280662,-703.954011228459,4759.91709962797,286.542369825346
13.875292608,13.569,-1823.95691471749,6993.01041333275,300.001162561539,69.9999612375187,0.0942052961331456,-0.000672762740011018,-0.0292486250129562,9.60993000697853E-06,0.00146208376068757,-753.115818819302,4867.9688028326,286.638425429937
13.90867067,13.602,-1819.19691718977,6993.01789369426,300.001113022605,69.9998449016207,0.158659805553456,-0.000723382564883358,-0.0277874878069383,1.03330952641918E-05,0.00238286284854117,-754.097480552855,4875.60832967835,286.63789645935
14.078402188,13.771,-1809.74695184881,6993.04541407931,300.00100528895,69.9994752032942,0.277398088838967,-0.000809493530574968,-0.0247990447645853,1.15633284699851E-05,0.00407913090037448,-755.692731270491,4888.03237253101,286.637031473441
14.149421959,13.832,-1805.47698573925,6993.0630819041,300.00095306382,69.9992626038723,0.326682527109132,-0.000842269725782581,-0.0234265973851795,1.20316039214004E-05,0.00478320047476299,-756.5517430963,4894.72727547096,286.636563352945
14.284964568,13.968,-1795.9571107472,6993.11280021378,300.000830598922,69.9987190145438,0.427593579520954,-0.000900661355616866,-0.020362440276718,1.28658798766243E-05,0.00622480762682054,-758.147107164179,4907.16856384655,286.635691211673
14.352965786,14.036,-1791.19720196951,6993.14267589029,300.000766845372,69.9984261857692,0.473113981833291,-0.000922871693765446,-0.0188420860577675,1.31832293501027E-05,0.00687511265687424,-759.128906951807,4914.82945231178,286.635153345526
14.421093673,14.104,-1786.43731339822,6993.17559700151,300.000701836871,69.9981279548814,0.515356898066063,-0.000940686142723549,-0.0173389974761548,1.34377813994709E-05,0.00747859820374996,-838.263640971266,5079.86462612311,287.724159566868
14.557090424,14.239,-1776.98759521603,6993.24911292117,300.000570203472,69.9975419932583,0.589603227466492,-0.000964024113174244,-0.014430579867762,1.37712986328424E-05,0.00853929408819787,-846.331609418211,5106.89154431492,287.809679778189
14.624966629,14.307,-1772.85774364767,6993.28434530739,300.000512018244,69.9972964642422,0.61806753006869,-0.000969845869259426,-0.0132002444351017,1.38545177565106E-05,0.00894594281394068,-850.096688436331,5119.50689055022,287.849589640856
14.760482418,14.432,-1761.16823877558,6993.39242878383,300.000346863174,69.9966622826333,0.686144252259188,-0.000972571986048932,-0.00988289769650211,1.38935902464327E-05,0.0099185116169549,-857.626891559349,5144.74196681652,287.929411074914
14.827590486,14.499,-1758.78835234973,6993.41577886542,300.000313346993,69.9965464388521,0.697862423483239,-0.000971034849139651,-0.00924019750856684,1.38716551683248E-05,0.0100859227386676,-861.392012062821,5157.36128294606,287.969322932745
14.997053672,14.668,-1747.02896828235,6993.5365664878,300.000149397651,69.9960535869777,0.745660741698689,-0.000955061940354817,-0.00624953078130117,1.36435752797772E-05,0.0107687948439419,-973.473114619288,5401.82080511448,287.354158435981
15.064313002,14.735,-1744.64910266845,6993.5619432778,300.000116670658,69.9959711946987,0.75335549953047,-0.000950349623446892,-0.00568375472040778,1.35762744187139E-05,0.0108787267945545,-980.69873038042,5421.6981226343,287.371070041595
15.131964619,14.802,-1737.85950100905,6993.6357246675,300.000024387769,69.9957692562802,0.771890470098519,-0.000934770410249486,-0.00414476091292943,1.33537611109311E-05,0.0111435296002924,-987.924350953232,5441.57586459559,287.387982714998
15.272705874,14.933,-1728.41008427023,6993.74102749506,299.999898965457,69.9955697874776,0.789771699289543,-0.000908642519794549,-0.00219327589831744,1.29805569483314E-05,0.0113989940736789,-1004.44006523922,5487.0115900139,287.426644594913
15.340240811,15,-1723.72038283842,6993.79409861556,299.999838180649,69.9955047720313,0.795513099155812,-0.000894239231970051,-0.00130881377278734,1.27748158775423E-05,0.0114810205537619,-1011.66569112091,5506.88979722196,287.443561201671
15.407964938,15.068,-1716.58084456435,6993.87552539726,299.999747636348,69.9954467019949,0.800606382215957,-0.000870976644605607,-6.79441934186974E-05,1.24425178104445E-05,0.0115537883827836,-1132.55234500808,5773.51005928997,288.537339633683
15.509966775,15.17,-1711.89115050145,6993.92924311556,299.999689527912,69.9954341741194,0.801701005271333,-0.000855044775396789,0.000677346136948219,1.22149320753595E-05,0.011569428157584,-1143.1598595688,5800.6763504524,288.586952683081
15.645074788,15.303,-1702.79174442457,6994.03349947997,299.999579968988,69.9954628421623,0.799194317640124,-0.000823183153437547,0.00196721190677834,1.17597825385996E-05,0.0115336184627539,-1162.8595176766,5851.12699221734,288.67909447705
15.717711775,15.367,-1695.72220155651,6994.11412341749,299.999497770438,69.9955274488417,0.793515928364263,-0.000797958773734318,0.00283129992507897,1.1399441700587E-05,0.0114524950686259,-1176.49773130439,5886.05335716674,288.7428873744
15.819328588,15.468,-1691.03250077929,6994.16725340257,299.999444666544,69.9955875761636,0.788194459395037,-0.000781141159686856,0.00334184197060067,1.11591924429271E-05,0.0113764704496158,-1187.10522286307,5913.21758881273,288.792505501159
15.954528406,15.603,-1681.51309422833,6994.27386366559,299.999340340186,69.995745977273,0.774000256585137,-0.000747076175636252,0.00422769358737523,1.06725503449708E-05,0.0111736858085782,-1299.31863081382,6173.43296762729,287.139426476963
16.022162137,15.671,-1676.82337816456,6994.32562864479,299.999290646283,69.9958389139568,0.765549769352455,-0.000730409382498655,0.00459312946348877,1.04344517692742E-05,0.0110529583610031,-1310.62944250667,6201.74571021063,287.14010434227
16.157217516,15.805,-1667.86390227033,6994.42284713567,299.999198801581,69.9960375838757,0.747164781753044,-0.000698897873488763,0.00516838381124044,9.98428195228749E-06,0.0107903023843148,-1335.13617966191,6263.08791806171,287.141575957572
16.228138814,15.866,-1663.1041701455,6994.47351413593,299.999151615865,69.9961518903482,0.736378789347966,-0.00068237264701366,0.00541299739689478,9.7482039936985E-06,0.0106362090699117,-1348.33210239008,6296.11709514751,287.142370010167
16.363978904,16.002,-1653.58468203196,6994.57257937847,299.99906056216,69.9963915055384,0.713239457803293,-0.000649774954667897,0.0057848639494302,9.2825150171367E-06,0.0103056312565801,-1376.60904985881,6366.89088900177,287.144075304331
16.431967154,16.07,-1648.82492559108,6994.62090953285,299.999016672203,69.9965149275523,0.701022772000869,-0.000633698541374576,0.00591627134271316,9.05284790264457E-06,0.0101310991046124,-1442.83123185206,6528.17992045657,286.042470725638
16.567346843,16.205,-1639.44538072387,6994.71366874097,299.998933336466,69.9967604189515,0.676067340663598,-0.000602413639728615,0.00607870197535384,8.6059127436144E-06,0.00977457722850739,-1472.20249519223,6601.45404789901,285.986249224519
16.635403722,16.272,-1634.68559909932,6994.75945235285,299.998892622289,69.9968844567841,0.663101190947175,-0.00058671675899504,0.00611652240197356,8.38166785660228E-06,0.00958933873985535,-1486.88811427543,6638.08972752939,285.958140086217
16.705995406,16.332,-1630.48578458305,6994.79909430228,299.998857596341,69.9969928709155,0.651557000296697,-0.000572957671996327,0.00612510277434259,8.18510671688084E-06,0.00942441497940338,-1503.67166814959,6679.95785468553,285.926016777799
16.874788283,16.501,-1618.65627291236,6994.90706715235,299.998763255509,69.9972889359083,0.618935163822697,-0.000534533478175151,0.00605404454070496,7.6361816981459E-06,0.0089583710636143,-1535.14080264358,6758.45719907868,285.86578956589
16.942551087,16.569,-1613.89645541872,6994.94895605256,299.99872710609,69.9974030684028,0.605890606169266,-0.000519186274691804,0.0059876966878417,7.41693351781874E-06,0.00877201360583491,-1562.76248374445,6848.28142571807,284.338713765413
17.009679795,16.636,-1606.89670980017,6995.00894257184,299.998675832546,69.9975645725139,0.58693661289379,-0.000496700403267032,0.00585673730949394,7.09570383438879E-06,0.00850123310354678,-1579.90801337542,6891.63383362202,284.264647465199
17.111378758,16.737,-1602.20687129253,6995.04807669894,299.998642727722,69.9976681899445,0.574446896146282,-0.000481674170820559,0.00574959092887031,6.88104178356877E-06,0.00832280283560216,-1599.19672321193,6940.40388456755,284.181324653489
17.283963434,16.899,-1590.79723585397,6995.13981667581,299.998566383549,69.9979036014963,0.545008316620817,-0.000445205687975247,0.00543439452956763,6.3600610714802E-06,0.00790223903005249,-1633.48773793425,7027.10288292205,284.033199573168
17.351231935,16.966,-1586.10737482405,6995.17615046334,299.998536715812,69.9979933437765,0.533358264417044,-0.000430231842030496,0.005286987805393,6.14614844746122E-06,0.00773580504334803,-1648.49004740264,7065.03239565978,283.968396640531
17.418965517,17.034,-1579.03757316883,6995.22946189334,299.998493884135,69.99812074372,0.516368360317325,-0.000407669663865613,0.0050494873520423,5.82383125144498E-06,0.00749308565110596,-1635.59286252505,7075.95308574549,280.558813178998
17.521178619,17.135,-1574.27769958523,6995.26439774856,299.998466327247,69.9982012067303,0.50534366834378,-0.000392484474177987,0.00488112257871857,5.60690005176791E-06,0.00733558604264695,-1654.03725684001,7123.90027756336,280.374280635858
17.656974196,17.271,-1564.75793648925,6995.33205919134,299.998414312026,69.9983494997902,0.484368211214266,-0.000362133570263797,0.00453000115120764,5.17331644731273E-06,0.00703592944700482,-1686.82727233602,7209.13691097365,280.046227296071
17.761027359,17.366,-1558.24808709527,6995.37669669054,299.99838114891,69.9984412928918,0.470916560848669,-0.000341419766762662,0.00428282157744119,4.87740582233572E-06,0.00684375866831632,-1703.22227227952,7251.75402225897,279.88220268771
17.82869354,17.432,-1553.48819199895,6995.40856489095,299.998358101541,69.9985038749162,0.461520830484772,-0.000326283193277903,0.00410049695643097,4.66116983109527E-06,0.00670953103374505,-1717.56789319607,7289.04335262011,279.73868232984
17.963580135,17.567,-1544.10838665633,6995.46953116932,299.998315709123,69.9986163000523,0.444142928149953,-0.000296532157748172,0.00374115142699562,4.23615679595945E-06,0.00646127014848896,-1687.64787853396,7265.44990166122,281.323969721403
18.03084791,17.634,-1539.3484798366,6995.49959600843,299.998295720466,69.9986680820553,0.435905838627392,-0.000281485048812131,0.00356047414782516,4.02119906853023E-06,0.00634359511556082,-1698.85373943232,7295.62116042664,281.236653445022
18.166381633,17.769,-1529.89865476439,6995.55766503074,299.998259076499,69.9987611155737,0.420701782069199,-0.0002517544163515,0.00320886484552526,3.59647775338983E-06,0.0061263901873696,-1725.00074045657,7366.01943649172,281.032918450849
18.239862387,17.832,-1525.48873217062,6995.5840677354,299.998243365852,69.9988002462053,0.414140124105659,-0.000237968387497431,0.00304935549509745,3.39953541043569E-06,0.00603265050861079,-1736.20659498266,7396.18959161544,280.945604733432
18.375261956,17.967,-1516.10888899655,6995.63890192418,299.998212813507,69.998875572569,0.401206896425731,-0.00020883512313718,0.00272161652984268,2.98334789495756E-06,0.00584788683971271,-1762.35358240962,7466.58546022765,280.74187576053
18.442631236,18.034,-1511.3489648412,6995.66608159255,299.998198800025,69.9989098631106,0.395179170484035,-0.000194175411919807,0.00256235985138883,2.77392440747894E-06,0.00576177498911323,-1775.42707322973,7501.782866219,280.640012756185
18.510047365,18.101,-1506.65903732206,6995.69246456163,299.998185972528,69.9989412438538,0.389581224554904,-0.000179826291052083,0.00241067933362577,2.56893786942038E-06,0.00568180298371757,-1709.59461455039,7394.31022839162,280.215381254746
18.645977019,18.237,-1497.13917826791,6995.74490596975,299.998162880047,69.9989982300365,0.379204337179555,-0.000151015673882248,0.00211965938550121,2.15735933521514E-06,0.00553355928464971,-1732.38754719124,7458.71106974326,279.996973711811
18.713693596,18.305,-1492.86923900605,6995.76797307214,299.998153814626,69.9990210487975,0.374968673566493,-0.000138252951689897,0.00199706517715806,1.97503546513449E-06,0.00547304880715394,-1743.78401132678,7490.91107173153,279.887771413825
18.853243802,18.433,-1483.4893678206,6995.81778290066,299.998136589956,69.9990658670475,0.366506929676814,-0.000110584751123519,0.00174549139862835,1.57977683990248E-06,0.00535216482150358,-1766.57693570428,7555.31031657973,279.669369766351
18.92035335,18.5,-1478.79943004548,6995.84227352293,299.998129365862,69.9990858201974,0.3626762471468,-9.69522013382848E-05,0.00162904145108772,1.38502675204848E-06,0.00529743991784426,-1777.97339613855,7587.50959236767,279.560170405961
19.055003736,18.633,-1469.41955066294,6995.89051422447,299.998117646542,69.999121293669,0.355764090430464,-7.01317781940853E-05,0.00141514684779119,1.00187894623722E-06,0.0051986932697925,-1706.50969699352,7477.03500994525,276.961258123629
19.122615745,18.701,-1464.65961011793,6995.91465121838,299.998113066863,69.9991372695389,0.352606878191414,-5.67572889384462E-05,0.00131620484325633,8.10815302154879E-07,0.00515358953034473,-1715.9753673608,7505.71866855301,276.800890914052
19.296925714,18.865,-1453.24974843841,6995.97167413635,299.998105785868,69.9991706296379,0.345921267433555,-2.54089872231908E-05,0.00110541599653607,3.62983418742804E-07,0.00505807930269842,-1734.90670559655,7563.08547457792,276.480159305797
19.363942833,18.932,-1448.48980460793,6995.99515386426,299.998104242359,69.9991827706763,0.34345581764409,-1.26306754841034E-05,0.00102803374085205,1.80436454713636E-07,0.00502285803930058,-1744.37237364629,7591.76865710047,276.319794815331
19.431551015,19,-1446.10983238545,6996.00683125787,299.998103796552,69.9991884900111,0.342288255829334,-6.31022028856452E-06,0.000991673169365975,9.0144394446243E-08,0.00500617832626138,-1753.83804102223,7620.45169936555,276.159431227701
19.566576516,19.134,-1434.34996692552,6996.06397469923,299.998104726642,69.9992136559486,0.337102790125184,2.42152169742569E-05,0.000833491179326714,-3.45932600799508E-07,0.00493209907480607,-1677.89482872008,7497.20734545331,278.420676680298
19.634700009,19.202,-1429.59002022905,6996.08686569415,299.998106549195,69.9992225660001,0.335247647667839,3.62325648394256E-05,0.000779250779760407,-5.17608771139753E-07,0.00490559661932544,-1685.37679390481,7522.14607154671,278.314595521839
19.775736066,19.332,-1420.56011974018,6996.12995510395,299.998112252072,69.9992377452122,0.332063376474199,5.8460825459474E-05,0.000691275924784269,-8.35154986620225E-07,0.00486010631449285,-1700.34072281291,7572.02321315104,278.102435645364
19.843757973,19.399,-1415.80017143766,6996.1525094677,299.998116395803,69.9992449907982,0.33053259268359,6.98857023493421E-05,0.000651972576318,-9.98367344946053E-07,0.00483823762539304,-1707.82268659532,7596.96164036158,277.996356894346
19.979128748,19.534,-1406.35027266653,6996.19698855159,299.998126905215,69.9992580773074,0.327749685159383,9.19457916845183E-05,0.000587804071096744,-1.31351119150238E-06,0.00479848117363813,-1721.71776114815,7643.27563790261,277.799355441736
20.047327438,19.602,-1401.6603222668,6996.21892709286,299.998133220463,69.9992640327853,0.326475376341832,0.000102582786964627,0.000562334008724932,-1.46546814374279E-06,0.00478027647618617,-1638.31586806983,7487.03361872147,279.218839065682
20.115584026,19.669,-1396.90037220722,6996.24110731485,299.998140353048,69.9992697735007,0.325242295748508,0.000113163718343902,0.000540474852101957,-1.61662419291815E-06,0.00476266076702858,-1644.67327491282,7511.19664786428,279.134495624293
20.250964784,19.805,-1387.8704658964,6996.28295819529,299.998155854898,69.9992799821634,0.323037908290274,0.000132636472902969,0.000509290049094301,-1.89480620561105E-06,0.00473116903204618,-1655.00406005987,7550.46135800085,278.997439449904
20.321348796,19.866,-1383.18051404942,6996.30458493748,299.998164884592,69.9992849994578,0.321948974447135,0.000142428510852039,0.000497939155005617,-2.0346923739389E-06,0.0047156126058463,-1660.56679004321,7571.60378895096,278.923640915254
20.456964723,20.001,-1373.73061007324,6996.34794341207,299.998185046547,69.9992947187967,0.31982897818844,0.000161527928431827,0.000483930231048347,-2.30754103434683E-06,0.00468532651277287,-1671.69224896323,7613.88842026067,278.776045861022
20.523685411,20.067,-1369.04065724757,6996.36935672777,299.998196003114,69.9992994006216,0.31880274047676,0.000170677948428117,0.00048096524066854,-2.43825553211204E-06,0.00467066577272357,-1589.28355567529,7462.67227662401,278.232072358722
20.591144825,20.135,-1361.90072846953,6996.4018252758,299.998213846397,69.9993064276539,0.317256207161181,0.000184196522845681,0.000480847113792889,-2.63137791792083E-06,0.00464857214503001,-1594.02329495679,7485.16912344224,278.123889403699
20.760217673,20.304,-1352.87081751767,6996.44266187118,299.998238370761,69.9993152510171,0.315303592020769,0.000200562611936641,0.000487386270622425,-2.86517906466346E-06,0.00462067728451632,-1601.39622161843,7520.16397067491,277.955606706216
20.83084456,20.365,-1348.2508626393,6996.46345792363,299.998251724219,69.9993197816994,0.314296229821852,0.000208612750185517,0.000493200141223584,-2.98018098058558E-06,0.00460628622205261,-1605.08268442861,7537.66127743251,277.871466198366
20.965798898,20.498,-1338.87095333086,6996.50547537377,299.998280443315,69.9993290882325,0.312216787298919,0.000224322842931854,0.000509167256640473,-3.20461076368963E-06,0.00457657955630908,-1612.98224640293,7575.15523737155,277.691166886226
21.032799603,20.565,-1334.18099820798,6996.52637918118,299.998295583986,69.9993338233807,0.311153431470493,0.000231849916578803,0.000518915870197777,-3.31214033413482E-06,0.00456138859080668,-1535.37276708531,7433.36858024304,277.847854582529
21.100468395,20.633,-1329.42104343121,6996.54752219447,299.998311461174,69.9993386991902,0.310054672185156,0.00023926779586164,0.00052977522722979,-3.41810998640471E-06,0.00454569186070963,-1537.31139339791,7447.44086741602,277.768894662385
21.235560258,20.768,-1320.04113156725,6996.58896488836,299.99834420403,69.9993485521669,0.307822334280781,0.000253222477804945,0.000553458132055407,-3.6174624906224E-06,0.00451380099081122,-1540.911698419,7473.57488848845,277.62225600987
21.309755478,20.832,-1315.49117383934,6996.60895861867,299.998360755443,69.9993534640545,0.306703401671611,0.000259669853418929,0.000565770915960089,-3.70956781418646E-06,0.00449781608177657,-1542.85032363717,7487.64692405367,277.543297371216
21.478964566,21.001,-1303.66128224188,6996.66059837201,299.998405695136,69.9993666513791,0.303678901034157,0.000275495546079973,0.00059919088919522,-3.93564903746942E-06,0.00445460852129753,-1546.72757287157,7515.79071619734,277.385381329917
21.546867577,21.069,-1298.901325226,6996.68123086704,299.998424519078,69.9993721361887,0.302412051915288,0.000281475652211872,0.000612923655948327,-4.0210790891595E-06,0.00443651051291427,-1477.5311792629,7386.73814218773,282.48559643831
21.682863422,21.205,-1289.38141006419,6996.72223410847,299.998463361987,69.9993834150655,0.2997900902645,0.000292771274351643,0.000640296634872507,-4.18244505551569E-06,0.00439905358993364,-1478.3802844713,7410.24172714138,282.557038660306
21.750902883,21.273,-1284.62145190425,6996.74260083492,299.998483350865,69.9993892059769,0.298434942504206,0.00029808870938527,0.000653752246693859,-4.25840838482481E-06,0.00437969417189543,-1478.77653287917,7421.20990342162,282.590378906696
21.853338099,21.365,-1278.25150726372,6996.76970802647,299.998510668971,69.9993971198021,0.296572998294133,0.000304840290777434,0.000671316293545519,-4.35485951422264E-06,0.0043530947489514,-1479.17278082883,7432.17797034522,282.623719483599
21.988670918,21.499,-1271.18156787065,6996.79959683757,299.998541684618,69.9994060839017,0.294449709846826,0.00031189966601432,0.000690050908279155,-4.45570769873991E-06,0.00432276181074265,-1479.96527544162,7454.11379493487,282.690401487306
22.022696745,21.533,-1264.11162756633,6996.82926922554,299.9985733984,69.999415233801,0.292266497593845,0.00031848736291549,0.000707813742554699,-4.54981762733536E-06,0.00429157281885506,-1415.41009990365,7338.74926862288,279.432363379935
22.123749093,21.633,-1259.42166665409,6996.84883040943,299.998594798366,69.9994213998671,0.290785995107607,0.000322594361459796,0.000718963841323415,-4.60848901948737E-06,0.00427042261968502,-1414.24591622848,7348.17485784058,279.388572797739
22.258858306,21.768,-1249.97174415211,6996.88794099732,299.998638729536,69.9994340237919,0.287731158493822,0.000330252633001708,0.000739747235793442,-4.71789287379846E-06,0.00422678176721503,-1412.06307020626,7365.8474368173,279.306466280991
22.332177884,21.832,-1245.49178028929,6996.90633614121,299.99865991294,69.9994400946715,0.286250470153052,0.000333587793737336,0.000748724912842568,-4.76553801755857E-06,0.00420562891957288,-1411.04440799312,7374.09445797949,279.26815024231
22.434076863,21.933,-1238.42183653298,6996.93517396756,299.998693763831,69.9994497603963,0.283877053381028,0.00033849078414194,0.000761766184016314,-4.8355807273163E-06,0.00417172272041988,-1409.88022203323,7383.5194817328,279.224360718108
22.569658307,22.067,-1228.97191017992,6996.97334233386,299.998739752797,69.9994628172951,0.280639056813827,0.000344341973842229,0.000776846927115433,-4.91916914213075E-06,0.00412546529796809,-1354.13695838703,7292.09001346582,278.492598324222
22.637620949,22.136,-1224.21194660809,6996.9924017741,299.998763208611,69.9994694367359,0.278983134244118,0.00034699278978653,0.000783417285205484,-4.95703793895206E-06,0.00410180909672442,-1351.95573466595,7297.96825819354,278.440182035891
22.773377878,22.272,-1214.69201811169,6997.03018100146,299.998810638413,69.999482729656,0.27562771710479,0.000351699087599103,0.000794471977817476,-5.0242707639814E-06,0.00405387423910186,-1347.59328580239,7309.7243824168,278.335349844701
22.843921373,22.332,-1210.56204855717,6997.04642514041,299.998831411634,69.9994885110281,0.274155563590333,0.000353482615904213,0.000798349979048524,-5.0497497399119E-06,0.00403284333240239,-1345.72366426774,7314.76256769285,278.290421902142
22.911165523,22.398,-1205.87208272902,6997.06476938326,299.998855123155,69.9994950727246,0.272475066492205,0.000355347624508709,0.000802194577841815,-5.07639272240203E-06,0.00400883607228764,-1343.54243869169,7320.64033229167,278.238006058416
23.080504534,22.568,-1193.97216746646,6997.11080816831,299.998915806569,69.9995116803194,0.268174681146936,0.000359267200694884,0.000809066540068694,-5.13238667802388E-06,0.00394740159845819,-1295.57903238846,7242.65815468515,279.790125062534
23.148426942,22.636,-1189.21220057175,6997.12901850713,299.99894025606,69.999518291531,0.266443450668821,0.00036051113376835,0.000810683125629784,-5.15015715543318E-06,0.00392266957726339,-1292.45413700276,7246.56102912839,279.773992667974
23.216502361,22.704,-1184.45223322785,6997.14711100899,299.998964787401,69.9995248759399,0.264707983335837,0.000361573592912235,0.000811684077922261,-5.16533514879899E-06,0.00389787703107425,-1289.32924117021,7250.46378351095,279.757860311693
23.352113415,22.833,-1175.49229347538,6997.18084395189,299.999011144181,69.9995371790603,0.261434347640024,0.000363076705139015,0.000811929121975761,-5.18680819205562E-06,0.0038511105172403,-1283.0794481296,7258.26891933855,279.72559566951
23.419405654,22.9,-1170.80232438898,6997.19833500977,299.999035478905,69.9995435620163,0.259719699226248,0.000363621409115508,0.000811293431944604,-5.19458968484424E-06,0.0038266153916775,-1279.95455089853,7262.17129272877,279.709463359211
23.556170415,23.035,-1161.28238583233,6997.23348680698,299.999084967595,69.9995563770711,0.256242555059884,0.000364219901880872,0.000808447209269946,-5.20313959697507E-06,0.00377694160727682,-1274.15116916903,7269.41823715197,279.679503321037
23.624677427,23.103,-1156.52241590252,6997.25088540138,299.999109735849,69.9995627055394,0.254507909535316,0.000364268795684415,0.000806293990282403,-5.20383808808185E-06,0.00375216081157803,-1235.64348419978,7198.44120175719,281.740677145137
23.759796198,23.238,-1144.69248878298,6997.2936154883,299.999171272014,69.9995781769908,0.250216514609425,0.000363685111507986,0.000799042932876016,-5.1954997643055E-06,0.00369085481725784,-1227.29247091394,7203.36974789538,281.801943309362
23.864141328,23.332,-1140.49251402272,6997.30860919565,299.999193087795,69.9995835732609,0.248702304785279,0.000363230445631976,0.000795846741752718,-5.18900454490278E-06,0.00366922312543716,-1223.39533067007,7205.66953345107,281.830534084284
23.931332322,23.399,-1135.80254183435,6997.32524737758,299.999217415363,69.999589538725,0.24701757223936,0.000362593234489237,0.000791982470641661,-5.17990153791138E-06,0.00364515538347465,-1218.94145561362,7208.29771802427,281.86320916552
24.066644005,23.534,-1126.35259666808,6997.35843043913,299.999266287527,69.9996013513088,0.243647153011352,0.000360866427424323,0.000783237848916693,-5.15523288484557E-06,0.00359700627324244,-1180.98237988273,7154.36696269093,279.209823792317
24.167137379,23.634,-1121.73262289601,6997.37448737055,299.999290089901,69.9996070212198,0.242012714264656,0.00035980881114778,0.000778539940537645,-5.14012409050313E-06,0.00357365702215762,-1176.43655793706,7155.37671984439,279.178939160232
24.234238295,23.701,-1114.66266231467,6997.39885172784,299.999326373412,69.9996155614887,0.239529797226025,0.000357932989395647,0.000770900368708377,-5.1133266523598E-06,0.00353818659026128,-1171.89073557197,7156.3863524428,279.148054401005
24.377119805,23.832,-1105.49271216304,6997.43007948465,299.999373131576,69.9996263843352,0.23634578775955,0.00035503904565229,0.000760264402183558,-5.07198461910283E-06,0.00349270050290151,-1162.79908968529,7158.40527091841,279.086284486934
24.445130105,23.901,-1100.66273785701,6997.44636183502,299.999397603588,69.9996319698615,0.234685661137704,0.00035331943759278,0.000754398060669248,-5.04741880077433E-06,0.00346898428650277,-1158.25326617509,7159.4145586218,279.055399313839
24.579912598,24.036,-1091.21278701824,6997.47788742166,299.999445124481,69.9996426616442,0.23147464311316,0.000349564535956868,0.00074247987118819,-4.99377737116881E-06,0.003423112368655,-1149.1616180313,7161.43278999397,278.993628482127
24.647393898,24.104,-1086.45281123823,6997.49360348638,299.999468864236,69.9996479290574,0.22987620871197,0.000347486143439646,0.000736302025761295,-4.96408606115642E-06,0.00340027747809546,-1124.3817309272,7117.73640690861,280.603931520503
24.714787639,24.171,-1081.76283475173,6997.50898191857,299.999492114374,69.9996530409947,0.228314252455615,0.000345317782026317,0.00073012465412979,-4.9331094812826E-06,0.0033779637076996,-1117.2216923876,7117.80383482178,280.610297290486
24.816153546,24.272,-1074.69286955477,6997.53196735955,299.999526883155,69.9996606022396,0.225984111210446,0.000341832401908984,0.000720685737792412,-4.88331835501058E-06,0.0033446758144775,-1111.49366105823,7117.85762066611,280.615389633555
24.953589973,24.4,-1065.80291223635,6997.56053531455,299.999570083966,69.9996698610556,0.223097678036748,0.000337084275157005,0.000708676717495421,-4.81548799672703E-06,0.00330344085896472,-1101.46960512668,7117.95139467229,280.624300574318
25.021048084,24.467,-1061.04293461376,6997.57568279354,299.999592965831,69.999674708832,0.221571386044877,0.000334388812774285,0.000702218051267155,-4.77698140450926E-06,0.00328163658582215,-1095.74157258757,7118.00479422295,280.629392168672
25.088814918,24.535,-1053.9029675658,6997.59821008056,299.999626939798,69.9996818373054,0.219307733635165,0.00033014875616181,0.000692528580705969,-4.71640918769334E-06,0.00324929854544864,-1077.4127855184,7084.81336310471,281.45838616926
25.258741356,24.703,-1044.52300975993,6997.62745514799,299.999670898581,69.9996909436062,0.216381566913908,0.000324230102757931,0.000679861964697296,-4.63185702431151E-06,0.00320749597524106,-1065.25141871576,7083.2493306342,281.510042164688
25.326202299,24.771,-1039.76303070934,6997.64214685137,299.999692899652,69.9996954554536,0.214916993370391,0.000321083871422713,0.000673486733198049,-4.58691087714898E-06,0.00318657340336781,-1059.93082022911,7082.56489796023,281.532641266906
25.465345897,24.897,-1030.87306901307,6997.66931778696,299.999733402047,69.9997036846218,0.212219716492005,0.000314952044501023,0.000661725487827007,-4.49931337836252E-06,0.00314804070888397,-1049.28962231005,7081.19571660035,281.577838681196
25.533659092,24.967,-1026.04308939383,6997.68393861806,299.999755081739,69.999708055355,0.210773085333568,0.000311498151231016,0.000655424310391215,-4.44997206192008E-06,0.00312737446101297,-1044.7291085553,7080.60880291034,281.597208683839
25.668967812,25.103,-1016.5231286877,6997.71246506314,299.99979710349,69.9997164616324,0.207962469127584,0.000304435259410386,0.000643231756296942,-4.34907364003165E-06,0.00308722263231931,-1024.31472474054,7055.78895061094,284.083460844551
25.736414943,25.17,-1011.83314762713,6997.72637816566,299.999817448256,69.999720504034,0.206597285090304,0.000300837658541683,0.000637348429102272,-4.29767935857679E-06,0.00306771992287569,-1019.57401830178,7054.76943689215,284.147836871205
25.803693268,25.237,-1007.14316629676,6997.74019999057,299.999837550904,69.9997244830799,0.205244627258851,0.00029716642744539,0.000631552656050724,-4.24523321707495E-06,0.00304839616094976,-1014.04319387938,7053.57991963939,284.222941986441
25.941222342,25.365,-995.80321034497,6997.7732464554,299.9998851232,69.999733847905,0.202025348975264,0.0002879983696015,0.000617928935151322,-4.11426100474735E-06,0.00300240628804294,-1002.19142631588,7051.03062366145,284.383880511464
26.04296531,25.467,-991.043228388372,6997.78696398565,299.999904648381,69.9997376761501,0.200694470671064,0.000284038255994763,0.000612378453933836,-4.05768797165789E-06,0.00298339366675204,-996.660601029688,7049.84080270986,284.45898468524
26.178489101,25.602,-981.663263187498,6997.8137313947,299.999942327464,69.9997450465289,0.198106997004471,0.000276050566365297,0.000601747659871488,-3.94357815714788E-06,0.00294642961600156,-979.702904813907,7033.43114884812,284.506629132645
26.245814571,25.669,-976.903280472302,6997.8271830251,299.999961037491,69.9997487014809,0.196811256331429,0.000271909763988615,0.000596509732714438,-3.88442385693077E-06,0.00292791896564992,-974.044866472635,7031.93834676228,284.579519497587
26.313457864,25.736,-972.213297259846,6997.84035051637,299.999979195185,69.9997522480875,0.195545715312881,0.00026777572275656,0.000591454510519633,-3.82536614454412E-06,0.00290983974149306,-967.578536652654,7030.23218275935,284.662822409415
26.449718928,25.866,-963.113329157587,6997.865657583,300.000013627629,69.999758978604,0.19312124437387,0.000259609591179756,0.000581942236570032,-3.70870716059616E-06,0.00287520431679722,-957.070749991431,7027.45940785907,284.798188722097
26.516756577,25.933,-958.42334525906,6997.87857832211,300.000030959125,69.9997623731735,0.1918868287116,0.000255333430559872,0.00057719160114308,-3.64761917212122E-06,0.00285756974482099,-951.4127106935,7025.96625425465,284.871077834363
26.6525112,26.069,-948.903377250866,6997.90455296451,300.000065255687,69.9997691134261,0.189411926779931,0.000246524033046777,0.000567855947784206,-3.52177067833813E-06,0.00282221388008197,-936.859935606107,7017.5223202148,283.082277572685
26.720577494,26.137,-941.763400648213,6997.92381407967,300.000090187861,69.9997740404623,0.187582143730562,0.000239812659148685,0.000561120525059153,-3.42589394063511E-06,0.00279607403363769,-931.114071710634,7015.90580744815,283.11338869793
26.889946833,26.307,-932.873429078721,6997.94753446655,300.000120261999,69.9997800271626,0.185334502606307,0.0002313452764879,0.000553043962737087,-3.30493137197011E-06,0.00276396476821539,-919.622343251924,7012.67252701785,283.175609952735
26.95851697,26.366,-928.183443774867,6997.95993446458,300.000135696266,69.9997831204654,0.184162408791325,0.000226832537738537,0.00054891628577652,-3.24046369747579E-06,0.00274722051663145,-913.876478688876,7011.0557582922,283.2067200691
27.025862615,26.433,-923.423458479876,6997.97243965533,300.000151052511,69.9997862178238,0.182981255130347,0.000222226549073094,0.000544817815143476,-3.17466388187724E-06,0.00273034683911466,-908.130613901989,7009.43890260121,283.237829833947
27.160213582,26.565,-914.183486425351,6997.99648498036,300.000179960506,69.999792107718,0.1807138834998,0.000213214087728042,0.000537112728009159,-3.04591447822968E-06,0.00269795571473685,-896.031550931441,7004.33559683855,282.62780572572
27.227419784,26.632,-909.493500314681,6998.00857590178,300.000194178647,69.9997950376923,0.179575297668605,0.000208608770748806,0.000533321087123875,-2.98012425829862E-06,0.00268169015317454,-890.272420737318,7002.67767736739,282.644232007741
27.363182581,26.768,-899.97352791037,6998.03288559437,300.000222090802,69.9998008659649,0.177288694577529,0.00019920849264849,0.00052585601466834,-2.84583461749108E-06,0.00264902429710068,-878.754159759205,6999.36160286881,282.677083576947
27.436897312,26.832,-895.633540225163,6998.04386349209,300.000234384319,69.9998034702534,0.176257357867058,0.000194903159415234,0.000522554480274084,-2.78432987833663E-06,0.00263429087248812,-872.995028958448,6997.70344006205,282.693508825137
27.504576576,26.898,-888.563559947954,6998.06161248929,300.000253848007,69.9998076466318,0.174590739354192,0.000187870663913195,0.000517294484124691,-2.68386569173602E-06,0.00261048196818248,-866.413164948497,6995.80830022191,282.71228011981
27.639384504,27.032,-881.49357925157,6998.07919369858,300.000272600804,69.9998117417344,0.172940956872073,0.000180820222987111,0.000512180351428629,-2.58314514221993E-06,0.00258691358097218,-855.717635416666,6992.72848657058,282.742782551744
27.706972592,27.1,-874.423598144137,6998.09660880497,300.000290641126,69.9998157581547,0.171307437318524,0.000173759208027164,0.000507198144788334,-2.48227353517033E-06,0.00256357752331615,-849.641459608782,6992.93185901874,280.586017562347
27.875541552,27.267,-865.043622588116,6998.11946023907,300.000313473999,69.9998209683164,0.169164904129924,0.000164386903665802,0.000500778892824748,-2.34838351985911E-06,0.00253296982470275,-838.144862652878,6989.70433744622,280.525647482823
27.94994092,27.332,-860.49363419385,6998.13044124978,300.000324095199,69.9998234481039,0.168135567367919,0.000159843407436823,0.000497737508957035,-2.28347645372257E-06,0.00251826497550089,-832.396563900293,6988.09046083289,280.495461925416
28.085982959,27.468,-850.973657962501,6998.15320274359,300.000345369936,69.99982854076,0.166001644794327,0.000150352496765465,0.000491507879813208,-2.14789206335354E-06,0.00248778028958774,-820.899965867896,6984.86248277471,280.435089798701
28.154332438,27.536,-846.283669418042,6998.16430942751,300.000355375416,69.9998310024038,0.16496026885048,0.000145688584657803,0.000488501906903944,-2.08126477106883E-06,0.00247290345334195,-815.151666591786,6983.24838195236,280.404903229933
28.222053888,27.603,-841.523680877004,6998.17551090159,300.000365212035,69.9998334695848,0.163909912148661,0.000140965640230031,0.000485489956103462,-2.01379416026472E-06,0.00245789832082965,-812.646584250062,6985.3427405425,281.368960173934
28.357941726,27.739,-832.003703295086,6998.19770030942,300.000383923202,69.999838312001,0.161828519323978,0.000131559107858423,0.000479574076170278,-1.87941517404044E-06,0.00242816406646429,-801.289680116816,6982.27371775575,281.351409747406
28.426592695,27.807,-827.873712812697,6998.20723704013,300.000391635356,69.99984037491,0.160933639938835,0.000127498162424736,0.000477049319591523,-1.82140168841426E-06,0.00241538004525865,-795.611227806066,6980.73909866641,281.342634043024
28.495027681,27.865,-820.873728673059,6998.22328308956,300.000404171272,69.9998438202216,0.15942789686209,0.000120647382099742,0.000472822511674193,-1.72353343291452E-06,0.00239386938057451,-788.310360300748,6978.76590625408,281.331350488822
28.663305067,28.033,-811.493749390227,6998.24454975109,300.000419898898,69.9998483402995,0.157430594731767,0.000111536430199713,0.000467248327950465,-1.59337702355909E-06,0.00236533642920178,-777.76466234357,6975.91553742481,281.315051098488
28.730295216,28.099,-806.803759522724,6998.25508294807,300.000427305733,69.9998505590784,0.156440843660673,0.000107015188626837,0.000464496529022497,-1.52878788127385E-06,0.0023511970973189,-777.138434266964,6979.66860150575,282.944002022609
28.865556428,28.234,-797.42377934467,6998.27595104426,300.000441213356,69.9998549164136,0.154478670978868,9.80482410741894E-05,0.00045905508177569,-1.40068867626988E-06,0.00232316599922333,-765.999063999676,6976.8262422142,282.996963385079
28.932547923,28.301,-792.873788749451,6998.28597869451,300.000447525756,69.9998569918906,0.153535232727529,9.3738371445964E-05,0.000456442729330293,-1.33911913215414E-06,0.00230968828181544,-760.429378637769,6975.40495701608,283.023443585569
29.007175304,28.365,-785.803803098349,6998.30143953424,300.000456783531,69.999860168454,0.152079949617214,8.70969957127997E-05,0.000452415456796192,-1.24424236991553E-06,0.00228889848062108,-754.064023757427,6973.78054659592,283.053706288117
29.176306171,28.534,-778.733817128178,6998.31675378855,300.000465372698,69.9998632874927,0.150637340045755,8.05263665406026E-05,0.000448422702591583,-1.15037627248664E-06,0.00226828973130622,-744.51599108144,6971.34376371532,283.099099584573
29.243643692,28.601,-771.663830844731,6998.33192274734,300.00047330063,69.9998663494952,0.149207542488709,7.40326367961414E-05,0.000444461401117751,-1.05760873794572E-06,0.00224786401209531,-742.464086749893,6977.65302237778,282.335761772602
29.379117397,28.737,-762.143848830322,6998.3521212992,300.000482946538,69.9998703848102,0.147302062740198,6.54164412485348E-05,0.000439171260212245,-9.34520274248944E-07,0.00222064282119416,-731.477155376403,6975.14472243868,282.354492607538
29.447191728,28.805,-757.873856717089,6998.36109562468,300.000486887627,69.9998721622222,0.146454893023503,6.16031532010442E-05,0.000436813579457377,-8.80044750241424E-07,0.00220854037421248,-725.98368947867,6973.89047036607,282.363857569669
29.586633184,28.933,-748.423873793999,6998.38077637962,300.000494799053,69.9998760259126,0.144596234820576,5.32818141578608E-05,0.000431626181029641,-7.61168520835611E-07,0.00218198806603187,-714.996757283727,6971.38177080655,282.382586629236
29.654082306,29,-743.733882076142,6998.39045078875,300.000498309362,69.9998779085142,0.143681882041233,4.92133713738248E-05,0.000429066355894452,-7.03047930495476E-07,0.00216892586035611,-709.503290978784,6970.12731862469,282.39195070916
29.72150614,29.067,-739.043890232451,6998.40006401587,300.000501547705,69.9998797681289,0.142772944647535,4.51877097800176E-05,0.000426515429035907,-6.4553849979632E-07,0.00215594101781802,-708.482225240736,6977.42701108972,280.775808035665
29.856217312,29.202,-729.593906291274,6998.41924981237,300.000507259421,69.9998834464309,0.14095781358961,3.72100459779983E-05,0.000421401236271324,-5.31571914957272E-07,0.00213001052997774,-697.656173682653,6975.2832071808,280.723676569033
29.923969628,29.27,-724.903914077421,6998.4286807654,300.000509695503,69.9998852383203,0.140065048905806,3.33193550320236E-05,0.000418875333423268,-4.75990635677281E-07,0.00211725672756247,-692.243147718609,6974.2112115595,280.697610434262
30.071153117,29.4,-715.733928955365,6998.4469476233,300.000513708216,69.9998886779377,0.138335196666091,2.58509494330336E-05,0.000413960212887951,-3.69299165412478E-07,0.00209254451252971,-681.417095406566,6972.06702377451,280.645477332853
30.138776517,29.468,-710.973936502365,6998.45634100749,300.000515409349,69.9998904311443,0.137445100702932,2.20456188938161E-05,0.000411420527554194,-3.14937320074468E-07,0.0020798288357069,-675.230779587234,6970.8416638609,280.615686529888
30.20635361,29.536,-706.283943821628,6998.46553691903,300.000516832192,69.9998921370584,0.136573445353271,1.83463174967651E-05,0.000408925948252623,-2.6209017622199E-07,0.00206737659694478,-675.808587316413,6977.52218099221,284.289808870758
30.374765513,29.704,-694.453961780873,6998.48847460424,300.000519332385,69.9998963468087,0.134398243139419,9.24117143704627E-06,0.000402668104700472,-1.32016707746976E-07,0.00203630223229623,-663.659074286152,6975.44494955174,284.415616140955
30.442555626,29.772,-689.693968807615,6998.49760063797,300.000519907517,69.9998980037305,0.133532385395261,5.67033463562736E-06,0.000400164307748524,-8.10047717383908E-08,0.00202393281763569,-658.343662144772,6974.5360596463,284.470656414112
30.512535811,29.832,-685.493974911772,6998.50560286348,300.000520208507,69.9998994475158,0.13277329353728,2.56936086153398E-06,0.000397962562672941,-3.67051622865392E-08,0.00201308863242988,-653.028249894338,6973.62711133425,284.525696455407
30.649096788,29.966,-676.113988238331,6998.52331309636,300.000520224506,69.9999026157236,0.131092174791736,-4.20909276278589E-06,0.000393068993825812,6.01298547792304E-08,0.0019890726160734,-642.397425052815,6971.8090306384,284.635775818118
30.716242787,30.034,-671.42399474309,6998.53208393266,300.000519893977,69.999904170324,0.130259336188736,-7.51679375722769E-06,0.000390634877581045,1.07382709196944E-07,0.00197717490515492,-641.618117325436,6979.95203180127,284.409728660302
30.852410328,30.169,-661.904007629344,6998.54971684352,300.00051854961,69.9999072664204,0.128584614079626,-1.40599976985493E-05,0.000385720848725681,2.00857017730122E-07,0.00195325027102511,-631.153293314231,6978.52579596459,284.507797699323
30.920824413,30.237,-657.144013915264,6998.55844809511,300.000517545977,69.9999087850493,0.127755142100328,-1.72448333702877E-05,0.000383277742374013,2.46354653889841E-07,0.00194140065557269,-626.668368608738,6977.91448023893,284.54982702105
31.092320628,30.4,-645.73402856394,6998.57914764981,300.000514265553,69.9999123462851,0.125788545828586,-2.46351577949112E-05,0.0003774620610375,3.51930679307271E-07,0.00191330638677756,-615.456056508507,6976.38600189986,284.654899640501
31.159712836,30.467,-641.044034418203,6998.58756362926,300.000512571825,69.9999137787763,0.124988767693867,-2.75748672570151E-05,0.000375088440366286,3.93926513742877E-07,0.0019018809704634,-610.971131542054,6975.77453900166,284.696928433747
31.227502509,30.535,-636.284040262282,6998.59605070564,300.000510653035,69.9999152142993,0.12418213135379,-3.04994819852279E-05,0.000372689653571487,4.35706709205078E-07,0.00189035757989164,-604.991231463685,6974.95918475966,284.752966579983
31.363207683,30.67,-626.974051411219,6998.61249185018,300.000506329621,69.9999179689334,0.122619410600887,-3.60436552959901E-05,0.000368028977597189,5.14909156766103E-07,0.00186803297067462,-599.595548198918,6981.3571398076,284.635509430831
31.430898661,30.736,-622.214056971005,6998.62081804019,300.000503837641,69.9999193506393,0.12182801400064,-3.87878967294203E-05,0.000365662453963236,5.5411259180941E-07,0.00185672729159436,-594.454702898013,6980.80719037983,284.680124192939
31.569967627,30.866,-613.114067338419,6998.63658551068,300.00049855697,69.9999219426467,0.120329352051553,-4.38614653235016E-05,0.000361170600046621,6.26592117280911E-07,0.00183531781044288,-584.173012008359,6979.70712225899,284.769353170459
31.637338754,30.933,-608.424072551123,6998.64463623298,300.000495581075,69.9999232538903,0.119564057741733,-4.6389731430865E-05,0.000358872783242084,6.62710191632406E-07,0.00182438502228144,-579.03216642311,6979.1570048843,284.813967397068
31.772965699,31.069,-598.904082864365,6998.66082126409,300.000489027665,69.9999258648061,0.118025450113241,-5.13384460624367E-05,0.000354244103672211,7.33406089719438E-07,0.00180240488913586,-572.424741926706,6983.1040671614,283.855737388647
31.840740169,31.136,-594.214087814843,6998.66871784171,300.000485553469,69.9999271262992,0.117274822509659,-5.36845376580669E-05,0.000351981933604064,7.66921671992889E-07,0.00179168162615406,-566.622695508377,6982.59892330302,283.880800348431
31.908176316,31.204,-587.074095190277,6998.6806434561,300.000479966463,69.9999290162227,0.116141184111426,-5.71414319466671E-05,0.000348561263899578,8.16305858521133E-07,0.00177548677486494,-561.545904798553,6982.15686518769,283.902730273906
32.080463256,31.364,-578.184104103716,6998.69532973234,300.000472521458,69.9999313177192,0.114745543152401,-6.1244122580749E-05,0.000344343208829601,8.74915703867196E-07,0.00175554902646491,-551.392323117829,6981.27258810106,283.946589678377
32.14856334,31.433,-573.424108757755,6998.70312126123,300.000468325215,69.9999325277261,0.114004940823009,-6.33554244646087E-05,0.000342103949880204,9.05077148614741E-07,0.00174496898264387,-546.315532149079,6980.83036974644,283.968519166477
32.283814544,31.568,-563.974117754833,6998.71844086105,300.000459575416,69.9999348836418,0.112548989799211,-6.73614352652101E-05,0.000337697290267504,9.62305853986425E-07,0.00172416966207734,-539.606206028663,6984.53622882385,285.30643642955
32.352032966,31.636,-559.214122166903,6998.7260832406,300.000454965959,69.9999360475354,0.111822712179893,-6.92871369074412E-05,0.000335497536817648,9.89815867673374E-07,0.00171379425767437,-534.604676446994,6984.19416865433,285.356642462552
32.419967799,31.704,-554.524126436562,6998.7335648225,300.000450296642,69.9999371795748,0.111111758132241,-7.11238627047887E-05,0.000333343376560837,1.01605479831993E-06,0.00170363776180471,-529.603146788593,6983.85205943596,285.406848378654
32.559131637,31.832,-545.494134443886,6998.74783531349,300.000440964272,69.9999393181972,0.109756072631816,-7.44874274269925E-05,0.000329234017860645,1.06410570586786E-06,0.00168427080849098,-519.600087238018,6983.16769026733,285.507259865813
32.626870293,31.899,-540.804138494856,6998.7551786272,300.000435949082,69.9999404085253,0.10905842467709,-7.61491752125412E-05,0.000327119246087371,1.08784495153576E-06,0.00167430440028671,-514.598557343385,6982.82542803424,285.557465439455
32.693820357,31.967,-533.66414452274,6998.76626873953,300.000428103813,69.9999420419418,0.108004852061649,-7.85663247687229E-05,0.000323925028063497,1.1223756472622E-06,0.0016592533498252,-509.597027375697,6982.48311784558,285.60767091297
32.862896049,32.136,-524.21415224627,6998.78078210401,300.000417349926,69.999944155302,0.10662626705287,-8.15550782529865E-05,0.000319745840954063,1.16507211050433E-06,0.0016395592616989,-502.302336767965,6987.49768209973,287.290083245658
32.930630395,32.204,-519.524155973808,6998.78791601888,300.000411865103,69.9999451840727,0.105948690735154,-8.29504136049559E-05,0.000317692042083969,1.18500546563251E-06,0.00162987959208394,-497.37397623661,6987.27809682352,287.373953043618
33.070262736,32.332,-510.494162956799,6998.80152342869,300.000401046091,69.9999471276042,0.104656658080128,-8.54695568256154E-05,0.000313776476861899,1.22099321322042E-06,0.00161142196801345,-488.221306487361,6986.87016648704,287.529711013914
33.137691022,32.399,-505.804166485587,6998.80852556736,300.000395301464,69.9999481184747,0.103991766197384,-8.66957110921709E-05,0.000311762497787329,1.23850969657327E-06,0.00160192350514721,-483.292945751637,6986.65044246271,287.613580576347
33.272815218,32.534,-496.424173345235,6998.82239667704,300.000383572061,69.9999500625848,0.102674727126247,-8.89779336752564E-05,0.000307774784075732,1.27111286486676E-06,0.0015831086470115,-473.436224080198,6986.21085658875,287.781319491673
33.340464327,32.601,-491.664176727262,6998.8293685783,300.00037750538,69.9999510302641,0.102012836553176,-9.00499059275631E-05,0.000305771534430702,1.28642674880937E-06,0.00157365306042689,-471.373420939456,6990.02332626259,286.994730308675
33.40811611,32.669,-486.904180043617,6998.83629553499,300.000371366646,69.9999519854947,0.101355223071258,-9.10648706774615E-05,0.000303782022867009,1.30092624015185E-06,0.00156425857532261,-466.491690160534,6989.88974199479,287.0600796831
33.580814748,32.832,-475.49418772947,6998.85271770471,300.000356380293,69.9999542249004,0.0997965569392948,-9.3262727682478E-05,0.000299069246079748,1.33232418637959E-06,0.00154199190072801,-456.03083827248,6989.60333511833,287.200113870228
33.648936524,32.9,-470.87419073832,6998.85929518635,300.000350213249,69.9999551121424,0.0991722482441891,-9.40623653728501E-05,0.000297183045807417,1.34374757798104E-06,0.0015330731990153,-450.451717147643,6989.4505006175,287.274798678135
33.716092465,32.965,-466.184193733193,6998.86593039333,300.000343899769,69.9999560013575,0.0985425844868999,-9.48198822065415E-05,0.000295281350452161,1.35456924327225E-06,0.00152407799649135,-445.569986094676,6989.31672088622,287.340147836606
33.783820489,33.033,-461.634196581432,6998.87232698537,300.000337726616,69.9999568533127,0.0979355086035245,-9.55048071841572E-05,0.000293448915461352,1.36435388241932E-06,0.00151540547819562,-438.333763382661,6990.92247771524,283.295541547928
33.884923869,33.131,-454.564200898458,6998.8821887292,300.000328049309,69.999958156233,0.0969997451220695,-9.64700509376802E-05,0.000290625829765898,1.37814307412825E-06,0.00150203741995281,-430.629527023038,6990.77311476363,283.256507563737
34.054372559,33.3,-442.874207750226,6998.89828830153,300.000311847808,69.9999602564655,0.0954720496919664,-9.78108039978785E-05,0.000286020853447218,1.39729668270862E-06,0.00148021318612823,-420.123749935002,6990.56926466019,283.203279291821
34.130742234,33.366,-438.114210440447,6998.90477112792,300.000305189675,69.9999610926331,0.0948569822477272,-9.82661842022967E-05,0.000284168066921405,1.40380211199093E-06,0.0014714265031488,-415.92143902312,6990.48766724101,283.181987953253
34.198817745,33.434,-430.974214369601,6998.91441713955,300.000295146877,69.9999623268574,0.0939417569984697,-9.88545039508938E-05,0.000281412938480151,1.41220667699631E-06,0.00145835184919485,-411.018742909717,6990.39243284163,283.157148042924
34.368215054,33.604,-421.454219414077,6998.92713387262,300.000281670755,69.9999639356168,0.0927352463280071,-0.0000994632687297,0.000277783133873873,1.42090331382384E-06,0.00144111597287755,-401.512090738424,6992.43690857972,285.320410828679
34.436085588,33.672,-416.694221854606,6998.93343086195,300.000274903589,69.9999647245028,0.0921378402459584,-9.96938552112905E-05,0.000275986816171426,1.42419740536192E-06,0.00143258159567239,-396.631011853586,6992.39019935444,285.343527597526
34.504108689,33.74,-411.934224241597,6998.93968728598,300.000268121465,69.9999655032394,0.0915442981429993,-9.98761476284279E-05,0.000274202751200676,1.42680158194145E-06,0.00142410241829394,-391.052635921992,6992.33676839368,285.369946756746
34.675335504,33.899,-400.804229616267,6998.95415820785,300.000252223377,69.999967285895,0.090170880969409,-0.000100124004504974,0.000270075800047116,1.4303423935286E-06,0.00140448216281008,-379.895883850928,6992.22974369576,285.42278508036
34.742598243,33.966,-396.114231797067,6998.96019117371,300.000245514471,69.9999680207435,0.0895986050250326,-0.000100149574353333,0.000268356893603427,1.43070767705004E-06,0.00139630678823388,-376.409398775491,6992.1962564305,285.439297062282
34.877530327,34.101,-386.734236011867,6998.97214248196,300.000232096369,69.9999694626656,0.0884649301608904,-0.000100069857336333,0.000264952921352263,1.42956886316626E-06,0.00138011142538219,-365.737075463048,6994.32396888547,282.217408233313
34.945305531,34.168,-381.974238077299,6998.97814950696,300.000225292978,69.9999701804433,0.0878951470613711,-9.99640139667627E-05,0.000263242729421559,1.4280568156986E-06,0.00137197166307668,-360.851406017388,6994.32501241155,282.169981563709
35.012719976,34.236,-377.214240094018,6998.98411784141,300.000218497414,69.9999708890294,0.0873290157824422,-9.98154575245944E-05,0.000261544142398419,1.42593458169937E-06,0.00136388406974164,-355.267783733493,6994.32615595131,282.115779679715
35.1867979,34.398,-365.874244704785,6998.99818115944,300.000202357077,69.9999725402946,0.0859952697305148,-9.92891512026928E-05,0.000257544814574875,1.41841592295906E-06,0.00134483054647849,-345.496444582608,6994.32803058708,282.020926458737
35.254319276,34.466,-361.184246534223,6999.00393475344,300.000195708652,69.9999732086346,0.0854495282351853,-9.90050862360098E-05,0.000255909285109008,1.41435785359459E-06,0.00133703423613896,-341.30872774618,6994.32878637039,281.980275111763
35.321777167,34.532,-356.564248292491,6999.00956663711,300.000189178695,69.9999738586533,0.0849153847820998,-9.86868822549219E-05,0.000254308910749097,1.40981208419599E-06,0.00132940361226486,-335.725105244003,6994.32974925933,281.926073351893
35.456452121,34.667,-347.114251756661,6999.02097739835,300.000175891282,69.9999751632533,0.0838330838391237,-9.79238771258121E-05,0.000251067613468923,1.39891201509558E-06,0.00131394216413683,-326.930072978335,6995.74459972326,283.160334284815
35.523623096,34.734,-339.974254258074,6999.02950240031,300.000165923858,69.999976126998,0.0830245013146081,-9.72493951048894E-05,0.000248647014917697,1.38927656130778E-06,0.0013023909808636,-321.370003687934,6995.77952915868,283.138197455622
35.632432008,34.832,-335.49425577698,6999.03480891622,300.000159706147,69.9999767220837,0.0825212711834149,-9.67831190464326E-05,0.000247140898031755,1.38261547726967E-06,0.00129520197637167,-316.504943009496,6995.81004999899,283.11882777747
35.699906448,34.9,-328.424258097563,6999.04311851296,300.00014995554,69.9999776468349,0.08173311449484,-9.59857343619147E-05,0.000244782483972151,1.37122427177874E-06,0.00128394259109377,-308.859847573928,6995.85793874745,283.088389799247
35.868085344,35.067,-319.114261011694,6999.05393970643,300.000137243636,69.9999788377906,0.0807067422959505,-9.4820606641348E-05,0.000241712450899458,1.35457959628617E-06,0.0012692801261367,-299.427389126866,6995.60613256063,285.699203831157
35.935164652,35.134,-314.354262440905,6999.05941992875,300.000130805229,69.9999794351997,0.0801869459326187,-9.41764604868498E-05,0.000240157848641638,1.34537751179927E-06,0.00126185446137739,-294.568808596654,6995.62968583108,285.7375169664
