Real_time_s,Simulation_time_s,x_ft,y_ft,alt_ft,vx_fps,vy_fps,vz_fps,roll_rad,pitch_rad,yaw_rad
10.257062922,10.036,17.9461987846617,4776.04280670634,280.243127932353,1.13142896883479,24.357731586209,0.0153773433035983,-0.0126866709450228,-0.00063063255094547,1.52449551249966
10.359169044,10.138,18.3260869292647,4784.19395741125,280.248291180333,1.14331202757547,24.3571766036782,0.0155404260818877,-0.0128200229490132,-0.000637320658354556,1.524007651031
10.427637117,10.206,18.5815549113821,4789.62795447757,280.251763666941,1.15123390591457,24.3568033944836,0.0156491647724791,-0.012908924291743,-0.000641780087194358,1.52368241045153
10.529557318,10.307,18.9642682763512,4797.69888396536,280.256966195873,1.16299998567228,24.3562443134234,0.0158106978624216,-0.0130409689442949,-0.000648404641145867,1.52319933312308
11.623850526,11.366,23.2119017494149,4882.31222424661,280.314741753099,1.28635117348314,24.3500400449878,0.0175061698238584,-0.0144254774138553,-0.000717936808035453,1.51813423797593
11.759367866,11.501,23.784168850121,4893.09704901285,280.322530226728,1.30207338731338,24.3492042335186,0.0177225410129476,-0.0146019728897792,-0.000726810300716864,1.51748855150531
11.826531701,11.568,24.0707716488058,4898.44937965005,280.32643124686,1.30987605120574,24.348785653982,0.0178299446598921,-0.0146895669506969,-0.000731214979009386,1.51716810016688
11.962077543,11.704,24.6577939205397,4909.31352877328,280.334422165824,1.32571385660662,24.3479283110524,0.0180479988955739,-0.0148673698190275,-0.000740157494375687,1.5165176327237
12.064257374,11.806,25.1032451800113,4917.46135683397,280.340458920586,1.32345355467072,24.3480518732812,0.017223955592491,-0.0302271646104585,-0.000706363141332308,1.51661046526778
12.134406645,11.865,25.3597605955141,4922.17437958903,280.343792897316,1.30952490792298,24.3488054984598,0.0164716032962466,-0.0412734113538502,-0.000675508790656632,1.51718252117738
12.235973187,11.967,25.7958519376824,4930.32271849627,280.349241624107,1.2720167932485,24.3507946036769,0.0152133902620457,-0.059768249307909,-0.000623908834999086,1.51872290884479
12.30346263,12.034,26.0745939252984,4935.67546892705,280.352589037363,1.2378445258552,24.3525561339938,0.014376039193304,-0.0692558148194104,-0.000589568643241923,1.52012619114534
12.439056339,12.169,26.6107293224543,4946.46216279977,280.358775238213,1.14937815775799,24.3568927692525,0.0126679759885978,-0.0853659842761993,-0.000519520107485208,1.52375859914746
12.540386019,12.269,26.9805711342026,4954.45362344824,280.362862776059,1.07079079456547,24.3604748233923,0.0113777482389703,-0.0951167634109107,-0.000466607216645517,1.52698485357777
12.614417362,12.332,27.1997797273456,4959.48886694815,280.365210589591,1.0152697731425,24.3628522991426,0.0105421970580962,-0.0998991766058015,-0.000432340841877866,1.5292638854064
12.715723472,12.434,27.5300003397728,4967.64220376239,280.36864025317,0.918700401850416,24.3666854880612,0.00915956122973737,-0.106063696923422,-0.000375638251292067,1.53322736477325
12.851244386,12.569,27.9156501681688,4978.43534285727,280.372444582627,0.781055162763043,24.3714865308904,0.00728747984834964,-0.11164459067331,-0.000298863254143149,1.53887570494697
12.919455719,12.637,28.0864688086906,4983.87268071268,280.374037303439,0.708650173040393,24.373699573103,0.00632869493450896,-0.113358517665424,-0.000259543004214597,1.54184645746405
13.089163618,12.806,28.4398506819469,4997.38808775067,280.377040920102,0.52357969265762,24.3783778156965,0.00392181127395763,-0.114818914721339,-0.000160835500265542,1.54943873296897
13.159731234,12.866,28.5400963100829,5002.18706064289,280.377773715771,0.45706175110375,24.3797157727161,0.00306549651216197,-0.114438510275138,-0.000125717603535421,1.55216721958503
13.226970147,12.932,28.6355112307178,5007.46621943701,280.378385752458,0.383945301934926,24.3809769591618,0.00212648910176251,-0.113614895963556,-8.72084400345465E-05,1.55516620884262
13.362860832,13.068,28.7824811013557,5018.34525599411,280.379000188826,0.234687784125673,24.3828705774967,0.000212230679476207,-0.110569193902135,-8.70374514465892E-06,1.56128783638375
13.430228272,13.136,28.8310428245776,5023.78505926897,280.378983717904,0.161382281343725,24.3834659395934,-0.000729362048038281,-0.108445582647681,2.99114433576275E-05,1.56429423198706
13.564558525,13.269,28.8789497978032,5034.4249771198,280.378340436671,0.0218914182665073,24.3839900420207,-0.00252912179898876,-0.103323859630322,0.000103720490818117,1.5700148702823
13.638076097,13.332,28.8803735266801,5039.46499286045,280.377759142479,-0.0419805591899321,24.3839636308359,-0.00335897864124294,-0.100515482201218,0.000137753335211275,1.57263429306534
13.705966539,13.4,28.8674271681377,5044.90499356702,280.376942529745,-0.109072714164269,24.38375568305,-0.00423466256751682,-0.0972568890408503,0.000173665571296753,1.57538579006289
13.875292608,13.569,28.7717125092033,5058.42466957866,280.37407845091,-0.266749750023534,24.3825400777576,-0.00631881507185911,-0.0883290275500291,0.000259137709935999,1.58185240795887
13.90867067,13.602,28.7428803387807,5061.06451856455,280.373384909285,-0.295872631814973,24.3822039687195,-0.00670921153879463,-0.0864777888017453,0.000275148064920367,1.58304683160985
14.078402188,13.771,28.5472612739555,5074.58311314671,280.369187942803,-0.435815019724158,24.3801035069481,-0.00861737159828868,-0.0766195775794725,0.000353402667460247,1.58878659380352
14.149421959,13.832,28.4577419714439,5079.46229952703,280.367414969583,-0.48236664809321,24.3792266592827,-0.00926888034115055,-0.0729565773617003,0.000380121368923359,1.59069603855951
14.284964568,13.968,28.2260938469094,5090.33984132855,280.363012497648,-0.578396847402222,24.3771368244097,-0.0106457004480318,-0.0647110521289639,0.000436585455122935,1.59463522064598
14.352965786,14.036,28.0945367476206,5095.77825558762,280.360585925444,-0.622429198932478,24.3760519829037,-0.0112968627247221,-0.0605856140535193,0.000463289948719202,1.59644155794813
14.421093673,14.104,27.9532917854331,5101.21642590618,280.358016653146,-0.663752076493204,24.3749614772551,-0.0119232251990563,-0.0564822983394704,0.000488977390254045,1.5981368203674
14.557090424,14.239,27.6465227555775,5112.01207088684,280.352514333173,-0.73779706476785,24.3728320064316,-0.0130949418518747,-0.048464783522982,0.000537030083185082,1.60117469975185
14.624966629,14.307,27.4799494661491,5117.44952188171,280.349551647687,-0.771107599037668,24.3718005644541,-0.0136498057927589,-0.0445193150222344,0.000559785334670482,1.60254143662035
14.760482418,14.432,27.1549752235876,5127.44424034802,280.34378916825,-0.825322161597554,24.3700243305778,-0.0146101552594398,-0.03748879317649,0.000599169753935416,1.60476599703147
14.827590486,14.499,26.9720068409389,5132.80111663589,280.340544213941,-0.851000471463829,24.3691408616518,-0.0150951170612632,-0.0338494673058554,0.000619058284094739,1.60581970084698
14.997053672,14.668,26.4871746519803,5146.31241648535,280.331905800203,-0.905299955823005,24.3671833538025,-0.016229361421787,-0.0251452417885575,0.000665574223308208,1.60804799769193
15.064313002,14.735,26.2870521047201,5151.66867794032,280.328312210196,-0.922856312523054,24.3665244783069,-0.0166455556320556,-0.021900380858123,0.00068264256038296,1.60876849983432
15.131964619,14.802,26.0831845908394,5157.02479787549,280.324628970523,-0.938290015939794,24.3659347728339,-0.0170438261326679,-0.0187784651465187,0.000698975837211785,1.60940190588602
15.272705874,14.933,25.6755033769118,5167.49686116695,280.317182161594,-0.962479173677285,24.3649907447769,-0.017772090284524,-0.0130526738044651,0.000728842322924475,1.61039467106631
15.340240811,15,25.4632423256175,5172.85265445581,280.313256052201,-0.972060565433352,24.3646101118479,-0.0181205625816384,-0.0103160505067214,0.000743133350541617,1.61078791891039
15.407964938,15.068,25.2457709852501,5178.28830351157,280.309194751783,-0.979921631377206,24.364294959977,-0.0184580501179841,-0.00767586212572746,0.000756973887640635,1.61111056433881
15.509966775,15.17,24.9165825790472,5186.44165707502,280.302965200404,-0.988422465308,24.3639512085163,-0.0189351294911018,-0.00397652467303293,0.000776539157963496,1.611459472985
15.645074788,15.303,24.4838888809167,5197.07285031784,280.294610468082,-0.993955305783156,24.3637256664295,-0.0195064370780219,0.000374264357955598,0.000799968776315374,1.6116865662745
15.717711775,15.367,24.2750003918786,5202.18858495172,280.290502915774,-0.994525710186423,24.3637021837774,-0.0197613764518754,0.00227628973851338,0.000810423971504196,1.61170997876055
15.819328588,15.468,23.9453272461999,5210.26185282434,280.283915302504,-0.993062741384561,24.3637615482979,-0.0201397461229775,0.00504543602717917,0.00082594110709406,1.6116499324288
15.954528406,15.603,23.5060817511924,5221.05291185964,280.274921460741,-0.98685513743242,24.3640133924566,-0.0205997558045304,0.0082893172638123,0.000844806342090482,1.61139514614947
16.022162137,15.671,23.2860326706752,5226.48845706338,280.270315982847,-0.982081997020149,24.36420607774,-0.0208123175793949,0.0097344622876939,0.000853523610603102,1.61119923785081
16.157217516,15.805,22.8559159363818,5237.19982005474,280.261105995174,-0.969825587584317,24.3646966967261,-0.0211944857885977,0.0122252235554533,0.000869196527180696,1.61069619377937
16.228138814,15.866,22.6620328223581,5242.07596496651,280.256858310817,-0.963077413887818,24.3649642312966,-0.0213518737887463,0.013201754134261,0.000875651090852983,1.61041923035071
16.363978904,16.002,22.2348230742458,5252.94756978119,280.247280250968,-0.946030578035933,24.3656317902715,-0.0216704026973064,0.0150802653442116,0.000888714127205995,1.60971959508468
16.431967154,16.07,22.0241702156792,5258.38348754924,280.242439367629,-0.936537778255791,24.3659983834557,-0.0218120918834672,0.0158625093348782,0.000894524874626809,1.60933000032901
16.567346843,16.205,21.6124685822179,5269.17563320435,280.232738983303,-0.916111642914939,24.3667746911446,-0.0220592096117172,0.0171269145059902,0.000904659301811167,1.60849170926678
16.635403722,16.272,21.4115753405619,5274.53186516225,280.227885333071,-0.90532025121634,24.3671779233033,-0.0221652168593578,0.0176210669241466,0.000909006714574175,1.60804883990361
16.705995406,16.332,21.2337511953039,5279.32856840223,280.22351888908,-0.895350515115116,24.3675462112609,-0.022250779063866,0.0179929136660994,0.00091251566559347,1.60763969703048
16.874788283,16.501,20.7435032411541,5292.83967166945,280.21113778717,-0.866079160886873,24.3686039624283,-0.0224456993855112,0.018713679730673,0.000920509450605243,1.60643848014234
16.942551087,16.569,20.5508690767757,5298.27625811436,280.206127339554,-0.853944661566783,24.3690321518201,-0.0225055228651789,0.0188809567687831,0.00092296284323343,1.6059405283397
17.009679795,16.636,20.3637371055334,5303.6329887061,280.201177902966,-0.841853412162141,24.369452807791,-0.0225539640814031,0.0189820547028887,0.000924949443356089,1.6054443599649
17.111378758,16.737,20.0866846112367,5311.70823470308,280.193698233143,-0.823466165451921,24.3700810088388,-0.0226074546573345,0.0190244150861576,0.000927143120705084,1.60468984950483
17.283963434,16.899,19.6551282430612,5324.66104274565,280.181671978242,-0.793873157406593,24.3710629358003,-0.022644849987815,0.018848627856187,0.000928676724428212,1.603475556979
17.351231935,16.966,19.4812260944513,5330.01821927111,280.176693986651,-0.781691927657615,24.3714566858858,-0.0226437241922734,0.0187000493613402,0.00092863055575341,1.60297573752866
17.418965517,17.034,19.3074556457145,5335.45544152133,280.171642391763,-0.769408832053519,24.3718475667046,-0.0226325980426122,0.0185095090728929,0.000928174267368465,1.60247174642412
17.521178619,17.135,19.0544112767217,5343.53147567902,280.16414535952,-0.75137223752838,24.372410325962,-0.022597867843253,0.0181599226936825,0.000926749965079499,1.60173169638033
17.656974196,17.271,18.723046270315,5354.40642489147,280.154073161679,-0.727600536928801,24.3731316497858,-0.0225175685229445,0.0175834255206579,0.000923456849961194,1.60075635789137
17.761027359,17.366,18.497879507647,5362.00308636002,280.147061508614,-0.711442117329823,24.3736087321711,-0.0224384656972353,0.017119569601396,0.000920212803241494,1.60009340395557
17.82869354,17.432,18.3443804167905,5367.28085313942,280.142205350942,-0.700449954383197,24.373927162066,-0.0223731921027243,0.0167746676752125,0.000917535900119998,1.59964242054894
17.963580135,17.567,18.0377159048803,5378.07649511416,280.132319328082,-0.678628405427325,24.3745446324944,-0.0222136422854697,0.0160218827271433,0.000910992681146941,1.59874714930413
18.03084791,17.634,17.8890838487816,5383.43443247483,280.127440308805,-0.668155863913045,24.3748340379312,-0.0221215923390375,0.0156294202275497,0.000907217666020737,1.59831750099203
18.166381633,17.769,17.5964949860472,5394.23046526278,280.117673908372,-0.64781252036403,24.3753833782718,-0.0219112014884292,0.0148129779050888,0.000898589430051501,1.59748290580259
18.239862387,17.832,17.4630394564584,5399.26869672845,280.113149438309,-0.638681168894321,24.3756244442153,-0.0218018139965165,0.0144240821534287,0.000894103393264709,1.59710829387716
18.375261956,17.967,17.1832562765996,5410.06506914572,280.103532375424,-0.619906061057156,24.3761093761438,-0.0215443207837027,0.0135835659435939,0.000883543465159557,1.59633806019204
18.442631236,18.034,17.0474586489006,5415.42334729974,280.098802834108,-0.610991860810662,24.376334563701,-0.021405246034686,0.0131662106372258,0.00087783993868625,1.5959723676025
18.510047365,18.101,16.9136074718568,5420.78167445694,280.094104229068,-0.602342780823811,24.3765499451549,-0.0212590163634901,0.0127508055336898,0.000871842985205846,1.59561755439805
18.645977019,18.237,16.6476386937054,5431.65842037019,280.084668110839,-0.585610495021724,24.3769579283365,-0.0209405886607878,0.0119192266977277,0.000858784102488731,1.5949311507488
18.713693596,18.305,16.5174179412775,5437.09686033473,280.080004271067,-0.577653161518668,24.3771479339499,-0.0207709251081863,0.0115118414181827,0.000851826113552807,1.59460472337417
18.853243802,18.433,16.2770636422376,5447.33403683256,280.071331162726,-0.563422276977788,24.3774812856556,-0.0204329472533865,0.010765679260235,0.000837965469155794,1.59402094735304
18.92035335,18.5,16.1535902511376,5452.69261337103,280.066848321409,-0.55633459307761,24.3776442231976,-0.0202471667650974,0.010387132960138,0.000830346516496094,1.59373020098342
19.055003736,18.633,15.9130171345356,5463.32989113772,280.058072899757,-0.542993442081832,24.3779453537755,-0.0198607706163731,0.00966413610470403,0.00081450021326924,1.59318293414349
19.122615745,18.701,15.7922256387876,5468.76854892473,280.053651892927,-0.536532810603596,24.3780885682357,-0.0196545775724363,0.00931017832645484,0.000806044131356017,1.59291791523007
19.296925714,18.865,15.5067100448243,5481.88543947318,280.043183340971,-0.521915976040924,24.3784062971578,-0.0191343844777475,0.00850470880696246,0.000784710747357214,1.59231832971263
19.363942833,18.932,15.3922823775652,5487.24421706567,280.038987793843,-0.516313819987171,24.3785257620957,-0.0189131209616122,0.00819576079882728,0.000775636617824799,1.59208853018086
19.431551015,19,15.2773903567547,5492.6830028676,280.034779430889,-0.510832654763656,24.3786414083632,-0.0186837170712274,0.0078944106451278,0.000766228647448224,1.59186369475193
19.566576516,19.134,15.0544974886955,5503.40068387036,280.026638392949,-0.500619547628945,24.3788536273163,-0.0182177506461309,0.00733762426386418,0.000747119127190263,1.59144475957168
19.634700009,19.202,14.9430752038594,5508.83954199647,280.022585886417,-0.495714738903853,24.3789540343279,-0.0179746983843072,0.00707389465933374,0.000737151430304314,1.59124356870788
19.775736066,19.332,14.7330664977352,5519.23742020294,280.014991863115,-0.486829710925,24.3791334267851,-0.017498331026056,0.00660512013676751,0.000717615362816989,1.59087911489408
19.843757973,19.399,14.6262826893151,5524.59635587137,280.011157511322,-0.482490032253596,24.3792198789645,-0.017247083693784,0.00638144574887881,0.000707311582069333,1.59070110714035
19.979128748,19.534,14.4139599676049,5535.39426760856,280.003600418843,-0.474177496256818,24.3793833349963,-0.0167304324360905,0.00596662227575173,0.000686123451724568,1.59036013988756
20.047327438,19.602,14.3083850119816,5540.83324265167,279.999880901067,-0.470199098005458,24.3794605704811,-0.0164651332542602,0.00577537995620368,0.000675243397699642,1.59019695300045
20.115584026,19.669,14.2052266889948,5546.19224951522,279.996274343588,-0.466407622399622,24.3795335777826,-0.016200603542376,0.00559840525834568,0.000664394900091319,1.59004143382749
20.250964784,19.805,13.9983402930442,5557.07028171816,279.989133058816,-0.459066063597513,24.379673280665,-0.0156549448862372,0.00527227800656618,0.000642017162138184,1.58974029825162
20.321348796,19.866,13.9066130791356,5561.94941936192,279.98601063118,-0.455923705618499,24.3797324065436,-0.0154064922693041,0.00514073151865942,0.000631827994523427,1.58961140574094
20.456964723,20.001,13.7057791320305,5572.74755152048,279.979275378298,-0.449235263618415,24.3798569141459,-0.0148500407919884,0.00487698117037078,0.000609007637896971,1.58933706181026
20.523685411,20.067,13.608663487928,5578.02665821744,279.976072912217,-0.446094956140543,24.3799147427884,-0.014574789659629,0.00476203750232184,0.000597719449793354,1.58920825437075
20.591144825,20.135,13.5093061783657,5583.46575074035,279.972835378001,-0.44293893864907,24.3799724551615,-0.014289234190376,0.00465251370539523,0.00058600867568663,1.58907880285291
20.760217673,20.304,13.2653719600028,5596.98354995559,279.965066567624,-0.435407920583052,24.3801085261369,-0.0135719010790553,0.00441743703877847,0.000556590482569176,1.58876990157414
20.83084456,20.365,13.1783528007986,5601.86277411189,279.96236170335,-0.432790221217392,24.3801552795134,-0.0133105692468,0.00434514095342935,0.000545873132270254,1.58866253127641
20.965798898,20.498,12.9903957805524,5612.50111408201,279.956643580551,-0.427228606971494,24.3802536794783,-0.0127374130695968,0.0042066928888732,0.000522367708430008,1.58843441096679
21.032799603,20.565,12.8966218499906,5617.86029390936,279.953857773085,-0.424496118882661,24.3803015591145,-0.0124471567737094,0.00414659803455313,0.000510464151469949,1.58832233304774
21.100468395,20.633,12.8020576258439,5623.29947215802,279.951095433922,-0.421765156653782,24.3803491051458,-0.0121517023863545,0.00409172806106728,0.000498347418220337,1.5882103179354
21.235560258,20.768,12.6161123840792,5634.09787184114,279.945807208807,-0.416452812004983,24.3804407127743,-0.011563143586709,0.00399956312364621,0.000474210325567187,1.5879924236115
21.309755478,20.832,12.5287853576966,5639.21712736167,279.943392138623,-0.41397885003027,24.3804829770767,-0.0112834490055299,0.00396304369558178,0.000462739910078665,1.58789095037983
21.478964566,21.001,12.3006458509901,5652.73520328058,279.937295182988,-0.4075553271522,24.3805915326411,-0.0105439006183334,0.00388548343191672,0.000432410658893821,1.58762748085707
21.546867577,21.069,12.2098494755039,5658.1744459325,279.934957583864,-0.405007684126735,24.3806341137709,-0.0102462796817113,0.00386111632080937,0.000420205074743015,1.58752298614288
21.682863422,21.205,12.0299546588574,5669.05295951316,279.930481519991,-0.399962179540992,24.3807176494073,-0.00965167541575544,0.00382242202316622,0.000395820055192218,1.58731603910632
21.750902883,21.273,11.9408492696657,5674.4922302078,279.92834293757,-0.39745975211235,24.3807586885714,-0.00935495159723862,0.003807463315383,0.000383651262457487,1.58721339950125
21.853338099,21.365,11.8211973688191,5681.85125826408,279.925556707283,-0.39409188138207,24.3808135099403,-0.0089544715967263,0.00379139646569383,0.000367227376693153,1.58707526313545
21.988670918,21.499,11.6487174899041,5692.56987171551,279.921712234109,-0.389212189805089,24.3808921033473,-0.00837354545659029,0.00377453101771025,0.000343403304349342,1.58687511858197
22.022696745,21.533,11.6052938673995,5695.28952537019,279.920777249022,-0.387977917269006,24.3809118257952,-0.00822669630844677,0.00377131356318039,0.00033738094716399,1.58682449398496
22.123749093,21.633,11.4783785941726,5703.28851948145,279.918122601634,-0.384354599450604,24.3809693564292,-0.00779633013215893,0.00376407329828031,0.000319731414573709,1.58667588117621
22.258858306,21.768,11.3089232113846,5714.08719125144,279.914761842716,-0.3794747518126,24.381045974118,-0.00721946712030579,0.00375821645407884,0.000296073973460053,1.5864757315155
22.332177884,21.832,11.2293498138627,5719.20657348526,279.913258446394,-0.377164376265046,24.381081902989,-0.00694788045999532,0.00375661970056004,0.000284936068499379,1.58638097040178
22.434076863,21.933,11.1047503614865,5727.28561372512,279.911000585346,-0.373520677649445,24.3811381146597,-0.00652206092744962,0.00375515220479368,0.000267472996275202,1.5862315227179
22.569658307,22.067,10.9413046348324,5738.0043690059,279.90822217971,-0.36868878484206,24.3812118038731,-0.00596277076554953,0.00375434035910555,0.000244536226801727,1.58603334133492
22.637620949,22.136,10.8579666770003,5743.5237406,279.906886706854,-0.366201179458828,24.3812493622084,-0.00567749934746454,0.00375410186833602,0.000232837103200684,1.58593131176759
22.773377878,22.272,10.6953592486897,5754.40252684675,279.904443286116,-0.361298487681209,24.3813226297438,-0.0051212464218791,0.00375334535843092,0.000210024892447324,1.58573022747696
22.843921373,22.332,10.624328423755,5759.20200190924,279.903445385041,-0.359135756852868,24.3813546323368,-0.004878565617456,0.00375269591362721,0.000200072431256892,1.58564152309548
22.911165523,22.398,10.5466766250002,5764.48143159573,279.90240169014,-0.356757069835606,24.381389605737,-0.00461371888177869,0.00375164576720015,0.000189210934192347,1.5855439614094
23.080504534,22.568,10.3490261145349,5778.07999712698,279.899974855318,-0.350632933493406,24.3814785649289,-0.00394130465365277,0.00374683207090209,0.000161634890482547,1.58529278102335
23.148426942,22.636,10.2709222110261,5783.51943717168,279.899108686321,-0.348185206977874,24.3815136844275,-0.00367664778874173,0.00374386850824531,0.000150781180141298,1.5851923882051
23.216502361,22.704,10.1933643625387,5788.95888503089,279.89830143455,-0.345739137421987,24.381548531411,-0.00341457585433544,0.00374022089305432,0.00014003347910203,1.58509206349254
23.352113415,22.833,10.0477434706955,5799.27785900766,279.896931089042,-0.341104985737946,24.3816138685261,-0.00292486281329704,0.00373124134652247,0.000119950102484333,1.58490199573036
23.419405654,22.9,9.97288033566022,5804.63733691892,279.896300358423,-0.338702266718394,24.3816473935053,-0.0026745685396081,0.00372545139282403,0.000109685409236866,1.58480344943292
23.556170415,23.035,9.8236379390709,5815.4363071767,279.895195410189,-0.333871492535377,24.3817140718347,-0.00217848390352911,0.00371135952980782,8.93407303680023E-05,1.58460531810158
23.624677427,23.103,9.74927287428591,5820.87579961138,279.894721577018,-0.331444717923061,24.3817472028234,-0.00193302798888031,0.00370299593398518,7.92744606321942E-05,1.58450578558937
23.759796198,23.238,9.60324096996295,5831.67481373475,279.893942227951,-0.326642597429422,24.3818120429327,-0.00145487824488111,0.0036838242822883,5.96653006568715E-05,1.58430883028001
23.864141328,23.332,9.50282489677145,5839.19414426857,279.89352484603,-0.323313244747628,24.3818564360952,-0.00112935226821121,0.00366844461274166,4.63153176259085E-05,1.58417227972794
23.931332322,23.399,9.43187131616309,5844.55367532764,279.893287717888,-0.320948637848857,24.3818876865515,-0.000901261429211844,0.00365648700653031,3.69611983407524E-05,1.58407529755081
24.066644005,23.534,9.29047959718558,5855.35275113944,279.892960909113,-0.316206200610348,24.3819496643573,-0.00045107292886325,0.00362994776041049,1.84987429165362E-05,1.583880791225
24.167137379,23.634,9.18709905700766,5863.35208415176,279.892846551641,-0.312715245501397,24.3819946919711,-0.000126277840185699,0.0036082085401276,5.17873397165944E-06,1.58373761350532
24.234238295,23.701,9.11847361217354,5868.71164548711,279.8928292178,-0.310387564015802,24.3820244350736,8.71861552477843E-05,0.00359271778986048,-3.57553119798821E-06,1.58364214633317
24.377119805,23.832,8.98577580816118,5879.19080660652,279.892930197025,-0.305864900167257,24.3820815850118,0.000494669602584062,0.00356034103835416,-2.02866311205521E-05,1.58345665482385
24.445130105,23.901,8.91665514960998,5884.71037448398,279.893052743781,-0.303498820238383,24.3821111467108,0.000703972851729363,0.0035422469959175,-2.88702620127881E-05,1.58335961313197
24.579912598,24.036,8.78297002584012,5895.50954828881,279.893428761477,-0.29890340565217,24.3821679006985,0.00110284086428414,0.00350488775626884,-4.52280386964812E-05,1.58317113851387
24.647393898,24.104,8.7164007406875,5900.94914157568,279.893684512053,-0.296606855013956,24.3821959365461,0.00129825012627665,0.00348515325553823,-5.32418702693076E-05,1.58307694880805
24.714787639,24.171,8.65131279798698,5906.30874695489,279.893979120299,-0.294356406893454,24.3822231983476,0.0014871788919966,0.00346515079995967,-6.09899334674619E-05,1.58298465003562
24.816153546,24.272,8.55412717652962,5914.38816331415,279.894501052563,-0.290988038880837,24.3822636120116,0.00176511347781411,0.00343402388121703,-7.23881698893751E-05,1.58284650163943
24.953589973,24.4,8.43256813252003,5924.62744280192,279.895293930758,-0.286763399938033,24.3823136375718,0.00210512649245909,0.00339304802477544,-8.63322737694316E-05,1.58267323494055
25.021048084,24.467,8.36964127224126,5929.98707392742,279.895765119263,-0.284571473083526,24.3823393030285,0.00227787639276447,0.00337100131846214,-9.34168336476018E-05,1.58258333676368
25.088814918,24.535,8.30626539981436,5935.42670526537,279.896281841133,-0.282361013639542,24.3823649849264,0.00244945558761803,0.00334824944798644,-0.000100453382321339,1.5824926785998
25.258741356,24.703,8.15179744852239,5948.86581875389,279.897720199004,-0.276963670775041,24.3824268472933,0.00285683130785531,0.00329059912378925,-0.000117160064598974,1.58227131633408
25.326202299,24.771,8.0901163593118,5954.3054695182,279.898365420537,-0.27480537749443,24.3824512490888,0.00301501781283583,0.00326677092884182,-0.000123647372394993,1.58218279799153
25.465345897,24.897,7.97710751167672,5964.38483681469,279.89965411798,-0.270848257372397,24.3824954905609,0.00329761694521176,0.00322200771790063,-0.000135236904407081,1.58202050437599
25.533659092,24.967,7.91501806443605,5969.98449302302,279.9004192273,-0.268672583841221,24.3825195405865,0.00344900447685225,0.0031968723732755,-0.00014144538292502,1.58193127346628
25.668967812,25.103,7.7958166541274,5980.86384078159,279.90200416259,-0.264493436972117,24.3825651911001,0.00373143082780575,0.00314760956248047,-0.000153027829150208,1.58175987433975
25.736414943,25.17,7.73777766415779,5986.22352690114,279.902830924391,-0.262458316044729,24.3825871616521,0.00386481558697959,0.00312318764198598,-0.00015849800500753,1.58167640814993
25.803693268,25.237,7.68018525795591,5991.58321782171,279.90368681977,-0.260438998012031,24.3826087934237,0.0039943952950597,0.0030986998414921,-0.000163812133819945,1.58159359015658
25.941222342,25.365,7.57139472626195,6001.8226405025,279.905400420124,-0.256625961251483,24.3826491836452,0.00423123127782105,0.00305182324769688,-0.000173524896281356,1.5814372068401
26.04296531,25.467,7.48583511088706,6009.9821923705,279.906835437478,-0.253627768588318,24.3826805233512,0.00441035323337832,0.00301447434291149,-0.00018087077756255,1.58131424274286
26.178489101,25.602,7.37413082497356,6020.78161519313,279.908825100778,-0.249715863325239,24.3827208595156,0.00463406620773564,0.0029651725485729,-0.00019004535895075,1.58115380502369
26.245814571,25.669,7.31933447717587,6026.14133532512,279.909848915862,-0.247798249294409,24.3827404031071,0.0047394469887138,0.00294080267083201,-0.00019436707770155,1.58107515862917
26.313457864,25.736,7.2649588803488,6031.50105972636,279.910895714373,-0.245896230524913,24.3827596388759,0.00484114058628946,0.00291652038109844,-0.000198537583226095,1.58099715189923
26.449718928,25.866,7.16064651851969,6041.90053695959,279.912989593018,-0.242251381433621,24.3827960863945,0.00502767571698549,0.00286972203557597,-0.000206187482669839,1.58084766734159
26.516756577,25.933,7.10748795477889,6047.26027352363,279.91409922153,-0.240395236189954,24.3828144382686,0.00511853509416805,0.00284579074117441,-0.000209913671409296,1.58077154217613
26.6525112,26.069,7.00082970790962,6058.1397510166,279.916411480408,-0.236674974532279,24.3828507962813,0.00529176149396199,0.00279767059531351,-0.000217017773184117,1.58061896509844
26.720577494,26.137,6.94812100930133,6063.57949579076,279.917596112205,-0.234838426198036,24.3828685360568,0.00537279978332957,0.00277386329201144,-0.000220341194208667,1.58054364381882
26.889946833,26.307,6.81813077624432,6077.17887478851,279.920634188918,-0.230315134967305,24.3829116397738,0.00555928144798969,0.00271516241712993,-0.000227988901169606,1.58035813295961
26.95851697,26.366,6.77361374568539,6081.89866491823,279.921712754238,-0.228769146007262,24.3829261802606,0.0056183467960436,0.00269509989854983,-0.000230411200853701,1.58029472837453
27.025862615,26.433,6.72341320044242,6087.25842989341,279.922950921022,-0.227025999576216,24.3829424578977,0.0056824635602505,0.0026724939461434,-0.000233040661670797,1.58022323795029
27.160213582,26.565,6.62562928356925,6097.81797723045,279.925430405605,-0.223634622418287,24.3829737713009,0.00579859738628239,0.00262857751427917,-0.000237803368456956,1.5800841499472
27.227419784,26.632,6.57655523231913,6103.17775259744,279.926707693043,-0.221934529566323,24.3829892919857,0.00585247986846944,0.00260661090381048,-0.0002400131162506,1.58001442538304
27.363182581,26.768,6.47808320846865,6114.05730696599,279.929335451836,-0.218526963881351,24.3830200456276,0.00595152137640754,0.00256270899182694,-0.000244074858528605,1.5798746737174
27.436897312,26.832,6.43227274206663,6119.1771020053,279.930587073336,-0.216943476196052,24.3830341755904,0.00599334230222552,0.00254237536157214,-0.000245789955865312,1.57980973150935
27.504576576,26.898,6.38537584079814,6124.45689370438,279.931886784897,-0.215324190983064,24.3830485192737,0.0060332038055874,0.00252162817472008,-0.000247424696282548,1.57974332120697
27.639384504,27.032,6.29123219471346,6135.17648021096,279.934550955185,-0.212075923779566,24.3830769702007,0.00610473984937436,0.00248019015042972,-0.000250358425709729,1.57961010303305
27.706972592,27.1,6.24400088996802,6140.61627510604,279.93591449895,-0.21044804871405,24.38309106669,0.00613614853545299,0.00245951467144621,-0.000251646511876606,1.5795433405587
27.875541552,27.267,6.1295422183527,6153.97578457797,279.939290834645,-0.20650764648607,24.3831247414521,0.00619957688305014,0.00240974872925085,-0.000254247740732343,1.57938173678946
27.94994092,27.332,6.08557595397805,6159.17559860704,279.940613870692,-0.20499572941691,24.3831374944656,0.00621907808301433,0.00239076361261647,-0.000255047494930404,1.57931973010775
28.085982959,27.468,5.99461584120066,6170.05521812923,279.943394301841,-0.201870608553267,24.3831635598234,0.00625078634944692,0.00235172633293935,-0.000256347867252151,1.57919156287872
28.154332438,27.536,5.94965702088883,6175.49503221085,279.944789433325,-0.20032712393091,24.3831762867208,0.00626211929940745,0.00233255121816561,-0.000256812637427463,1.5791282616498
28.222053888,27.603,5.90569675182333,6180.8548517948,279.946166386186,-0.198818810777837,24.3831886299426,0.00627033856859526,0.00231388063199151,-0.000257149713990667,1.57906640290102
28.357941726,27.739,5.81747643580083,6191.73449380104,279.948965864626,-0.195793948337629,24.3832131047557,0.00627836669359804,0.0022766384020759,-0.000257478951855557,1.57894234771724
28.426592695,27.807,5.77387078550026,6197.17431886089,279.950366572633,-0.1942998518635,24.3832250564442,0.00627808749256677,0.00225834296888822,-0.00025746750189848,1.57888107211243
28.495027681,27.865,5.7369499840072,6201.81417181431,279.951561141388,-0.193036090355402,24.3832350947834,0.00627537780777009,0.00224292550698095,-0.000257356376555175,1.57882924298526
28.663305067,28.033,5.63133261982606,6215.25375632721,279.9550167856,-0.189421269417077,24.3832634492006,0.00625696361475619,0.00219907116195845,-0.000256601201801156,1.5786809928082
28.730295216,28.099,5.5903845763822,6220.53359734225,279.956371112245,-0.188020628386118,24.3832742928423,0.00624526561829788,0.00218218565994768,-0.000256121461315276,1.57862355009689
28.865556428,28.234,5.5075641757983,6231.3332793462,279.959132537107,-0.18518891568065,24.3832959719169,0.00621381021770246,0.00214821262941814,-0.00025483128800692,1.57850741668953
28.932547923,28.301,5.4726019057544,6236.69317355572,279.960780459478,-0.169435400836566,24.3834096456092,0.00903877099339601,-0.0582406367649026,-0.000370684346013542,1.57786133784241
29.007175304,28.365,5.44020948405848,6241.81308757954,279.963151299727,-0.190402948419676,24.3832535999708,0.0121077153715589,-0.108642620868771,-0.000496543301237848,1.57872124905388
29.176306171,28.534,5.30911468592094,6255.33255945692,279.973134068773,-0.387716754840795,24.3809084574444,0.0208448496088037,-0.221714429166655,-0.00085485762875424,1.58681377683911
29.243643692,28.601,5.22046117143728,6260.69192788599,279.978486495923,-0.518043369365663,24.3784845223607,0.0240719858299166,-0.257231704701563,-0.000987204155554749,1.59215946732158
29.379117397,28.737,4.94225597834628,6271.56861026832,279.991510722485,-0.858927732735195,24.3688490171268,0.029945457770561,-0.319858455212686,-0.00122807832667312,1.60614500782636
29.447191728,28.805,4.74265387640263,6277.00514839945,279.998968835057,-1.06413726080715,24.3607474052222,0.0324615025763248,-0.346901626154172,-0.00133126266777553,1.61456733917216
29.586633184,28.933,4.23422024505576,6287.23289572434,280.014400278261,-1.50671804798916,24.3373772917406,0.0363769619576271,-0.391008165026461,-0.00149183777716726,1.63274335037521
29.654082306,29,3.892112643771,6292.58225775119,280.02305579548,-1.76308622301952,24.3201467874176,0.0379895866127367,-0.411109730824898,-0.0015579723988296,1.64328091645062
29.72150614,29.067,3.49271541396148,6297.92767759865,280.032020987128,-2.03522044277798,24.2988845118451,0.0393094052464807,-0.429337727869813,-0.00161209889026676,1.65447536052875
29.856217312,29.202,2.50079697067171,6308.68256836599,280.050764847609,-2.62565504880751,24.2421884285031,0.0411310302736586,-0.461079463802044,-0.00168680474792335,1.67880138765758
29.923969628,29.27,1.90039457471311,6314.08974439654,280.060427440207,-2.9417902968579,24.2058585985667,0.041657598791953,-0.474857048615624,-0.00170839961875265,1.69185169045242
30.071153117,29.4,0.550863750293561,6324.40245675177,280.079065091434,-3.57673337890046,24.1202128364437,0.0420364241031664,-0.49764902841549,-0.00172393545994205,1.7181276355777
30.138776517,29.468,-0.263481921408823,6329.78164035438,280.088805902511,-3.9221520358491,24.0664584464245,0.0419196164187337,-0.50797353885257,-0.00171914511281418,1.73246407691515
30.20635361,29.536,-1.15538173664348,6335.14853073776,280.098482716469,-4.27568930216906,24.0061701465137,0.0416159583571797,-0.517325684997685,-0.00170669192711535,1.74717227160022
30.374765513,29.704,-3.70277710712292,6348.34556501826,280.121873666032,-5.17845128707935,23.8277461035193,0.040173294701035,-0.536810220075268,-0.0016475274896652,1.78491345585558
30.442555626,29.772,-4.87628151749645,6353.65805424435,280.131047814237,-5.55350161198733,23.7431364389143,0.0393432179039618,-0.543444276466147,-0.00161348558134785,1.8006811786926
30.512535811,29.832,-5.98332287808554,6358.32916634362,280.138961561763,-5.88829358168248,23.6623323048909,0.0385303629859883,-0.548764777645957,-0.00158014995344258,1.81480554442948
30.649096788,29.966,-8.69148049768099,6368.70228919868,280.155970583199,-6.64633098423482,23.4606994159766,0.0363780323581155,-0.559102510629879,-0.0014918816967051,1.84697542539631
30.716242787,30.034,-10.1933712135764,6373.93148862358,280.164203798508,-7.03513415011733,23.3470578012761,0.0351498758320874,-0.563628515752817,-0.0014415143305997,1.86358778773445
30.852410328,30.169,-13.433278920407,6384.2349668382,280.17966443487,-7.81261814212743,23.098515055272,0.0324962570447553,-0.571388146189588,-0.00133268799495895,1.89706397077105
30.920824413,30.237,-15.1957269958538,6389.38222799212,280.186978615575,-8.20606055385997,22.9616868084373,0.03106602111866,-0.574757788217038,-0.00127403325580751,1.9141473620359
31.092320628,30.4,-19.7800906469954,6401.59065343912,280.203128372331,-9.15093983081394,22.6017477772957,0.0274522199947769,-0.581590497416226,-0.0011258293604556,1.95561668132726
31.159712836,30.467,-21.8106201887119,6406.55185631411,280.209183579125,-9.53886790760321,22.4407839481167,0.0259004884007687,-0.583961774464935,-0.00106219203472887,1.97284119408165
31.227502509,30.535,-23.9583249503472,6411.5506788371,280.214971408411,-9.93179858486368,22.2696709144064,0.0242947277235164,-0.58614396249709,-0.000996338952478382,1.9904173918418
31.363207683,30.67,-28.4818793618258,6421.35870821221,280.225367237609,-10.7080903432781,21.906980952113,0.0210419583084147,-0.589884678151117,-0.000862941196204577,2.02555860560657
31.430898661,30.736,-30.8188283651564,6426.09412029907,280.229911450608,-11.0851742936727,21.7186092864372,0.0194304410475184,-0.591460804549246,-0.000796852045485309,2.0428454300396
31.569967627,30.866,-35.6604699407722,6435.29944464874,280.237819564882,-11.8218307921283,21.3265915997842,0.0162314005053741,-0.594154215341296,-0.000665657759330066,2.07706915193885
31.637338754,30.933,-38.2777131146502,6439.97779560606,280.241356560365,-12.1977768891276,21.1138220738082,0.0145739046069809,-0.5953596920658,-0.0005976830107048,2.09478508418675
31.772965699,31.069,-43.8428138072957,6449.32792039516,280.247404405005,-12.9519196573004,20.6597944704511,0.0112084618527157,-0.597471367931028,-0.000459664502126095,2.13088729401036
31.840740169,31.136,-46.7080815299241,6453.85862278888,280.249824883106,-13.3185501708012,20.4253662390845,0.00955757197981224,-0.598367407904541,-0.000391960677150415,2.14873414653384
31.908176316,31.204,-49.6980632804141,6458.40409129958,280.251908635949,-13.6870497234104,20.1802889879725,0.00788865488610111,-0.599191393484098,-0.000323517548596236,2.16688379110951
32.080463256,31.364,-57.0577413836349,6468.87769306879,280.255326303868,-14.5385938049256,19.5757178688955,0.00401158976034804,-0.600834081542082,-0.00016451716471611,2.20971572567777
32.14856334,31.433,-60.3675517568267,6473.29623311121,280.256176091534,-14.8985732717969,19.303159453869,0.00235870317648532,-0.60143438850127,-9.67314590231701E-05,2.2282331867829
32.283814544,31.568,-67.0782116014014,6481.75956578989,280.256751965018,-15.5892799353441,18.7497681697315,-0.000823940186834453,-0.602447049331393,3.37903368314206E-05,2.26453161650667
32.352032966,31.636,-70.5735282162635,6485.92899676664,280.256508252414,-15.9300299161381,18.4611374815513,-0.00239964205923933,-0.60288624743488,9.84106586824633E-05,2.28284563049979
32.419967799,31.704,-74.144632348973,6490.03370387196,280.255912254782,-16.2657570207028,18.1660284294402,-0.00395528835440231,-0.603284037622189,0.000162208491771572,2.30117726101074
32.559131637,31.832,-81.0700655812546,6497.57794766585,280.253843606516,-16.8835511044576,17.5933257683221,-0.00682003972445566,-0.603935382659236,0.000279693381436957,2.33572671373699
32.626870293,31.899,-84.7972846303785,6501.43087400119,280.252285112229,-17.1992843106284,17.2847911910892,-0.00828750248182839,-0.604230020814117,0.000339874765846541,2.35383118307076
32.693820357,31.967,-88.6505808372318,6505.27190895335,280.250374603116,-17.5141586045801,16.9656597047882,-0.00975474349906425,-0.604500935066654,0.000400047058036724,2.37221726567713
32.862896049,32.136,-98.5276987630944,6514.5052520689,280.244220553103,-18.2715793601688,16.1470946931658,-0.013291165360542,-0.605069013533649,0.000545077504228704,2.4179573399979
32.930630395,32.204,-102.619249081582,6518.09143069632,280.241194872987,-18.5658919118402,15.8078113081542,-0.0146684610338316,-0.605261110276117,0.000601561098267396,2.43637734888544
33.070262736,32.332,-110.4987295631,6524.63292306113,280.234665587793,-19.1030392829804,15.1543079982951,-0.0171827182618205,-0.605576922564221,0.00070467206774973,2.47107101793542
33.137691022,32.399,-114.711800922109,6527.94762809836,280.230832107537,-19.3752186290204,14.8047295934043,-0.0184592505802396,-0.60571930359919,0.000757023310837605,2.48924066661935
33.272815218,32.534,-123.380006956601,6534.39150339036,280.222264774112,-19.9043489379345,14.0853083193227,-0.0209500992213544,-0.605967108324867,0.000859174293877521,2.52586732509681
33.340464327,32.601,-127.76831221669,6537.47047362548,280.217605641765,-20.1571835943979,13.7210391447423,-0.0221434027048128,-0.606073320888134,0.000908112286297379,2.54405227767626
33.40811611,32.669,-132.278412003028,6540.51357700727,280.212610693117,-20.4070329606329,13.3466069711508,-0.0233259805779561,-0.606170816791394,0.000956610418102756,2.56251292893177
33.580814748,32.832,-143.313107627779,6547.46327608968,280.199575455799,-20.9776564001156,12.4304750542224,-0.0260362275627077,-0.606370777474752,0.00106775906153556,2.60677958289907
33.648936524,32.9,-148.005106456225,6550.21765930587,280.193716051674,-21.2036885361142,12.0408601527797,-0.0271153972012906,-0.606440273485062,0.00111201637503023,2.62525235716361
33.716092465,32.965,-152.537457996683,6552.76815917864,280.187888642158,-21.4130159647658,11.6645365383768,-0.0281182798745276,-0.606501546429505,0.00115314512230465,2.64291272229952
33.783820489,33.033,-157.325900307696,6555.35123866578,280.181567014426,-21.6248837135968,11.2668989195461,-0.029139496448105,-0.606558806153218,0.00119502575449488,2.66139065658107
33.884923869,33.131,-164.309611970336,6558.91605295194,280.172057012529,-21.9172599924251,10.6870125287978,-0.0305554228971455,-0.60663323067411,0.00125309365128115,2.68802468425987
34.054372559,33.3,-176.566465329138,6564.62406960772,280.154616353469,-22.3849171280304,9.6692224051631,-0.0328519529657272,-0.606737567827899,0.00134727558022765,2.73396418150298
34.130742234,33.366,-181.422499275973,6566.69887516884,280.147463507876,-22.5548043198956,9.26601978464959,-0.0336963175469314,-0.606772375792924,0.0013819034272902,2.75190783320317
34.198817745,33.434,-186.463517579799,6568.74572860052,280.139905246003,-22.7222559255381,8.84744871628624,-0.0345379088639278,-0.606804280205046,0.00141641754304464,2.7703966089795
34.368215054,33.604,-199.224057871557,6573.45212229237,280.120209045131,-23.10682670624,7.78798322147566,-0.0365090389403993,-0.606871607484882,0.00149725466213876,2.81662384190194
34.436085588,33.672,-204.386896609575,6575.16867885836,280.112028133214,-23.2468874635632,7.35936764237357,-0.0372446094368345,-0.606894249234574,0.00152742081184454,2.83511655715807
34.504108689,33.74,-209.580594808157,6576.78947126914,280.103684516607,-23.3790046710007,6.92821451600595,-0.037950146944908,-0.606914783323926,0.00155635529360395,2.85361016658587
34.675335504,33.899,-221.835927401778,6580.1993751118,280.083574503265,-23.6566654097077,5.91101338521782,-0.039477247094265,-0.606958553532637,0.00161898251656423,2.89685572709515
34.742598243,33.966,-227.041942093928,6581.47790727867,280.074867917973,-23.7604532966618,5.47893321357049,-0.0400746617634736,-0.606973269404257,0.0016434828249314,2.91507986205823
34.877530327,34.101,-237.597954291805,6583.76519620934,280.056936795481,-23.9455845142848,4.60290576131136,-0.0411924975966729,-0.606998639706125,0.00168932589799578,2.95180178077046
34.945305531,34.168,-242.866330589006,6584.75589140124,280.047857222762,-24.0254931086855,4.16574094588902,-0.0417043928068271,-0.607009698393443,0.00171031900831158,2.97002745254031
35.012719976,34.236,-248.230835399589,6585.66338720645,280.038528773797,-24.0984358743084,3.7206268122543,-0.0421963969037378,-0.60701953330144,0.00173049637373216,2.9885255807524
35.1867979,34.398,-261.071846293085,6587.42168494003,280.01572238635,-24.2390229021586,2.65468027795702,-0.0435588176151167,-0.603799379258193,0.00178637001832954,3.03262278864013
35.254319276,34.466,-266.482633491841,6587.99152106155,280.005743224383,-24.2838926479425,2.20681694076019,-0.0444168134475784,-0.598512892387233,0.00182155691509131,3.05108212757596
35.321777167,34.532,-271.743520482115,6588.44828520152,279.995775313555,-24.3192642920351,1.7750437946473,-0.0453852549649207,-0.591119387818915,0.00186127325480907,3.06884894276188
35.456452121,34.667,-282.525088075489,6589.09399111479,279.974468043677,-24.3669799025828,0.909661341005369,-0.0475675514328914,-0.569699051820073,0.00195077048996998,3.1043945533516
35.523623096,34.734,-287.882723129485,6589.27273963495,279.963425001907,-24.3789617691584,0.493263326215073,-0.0486862307758244,-0.556145538201713,0.00199664818022047,3.1214785537888
35.632432008,34.832,-295.722845927401,6589.36998750475,279.946738211048,-24.3837601528617,-0.0957527649629498,-0.0502813669034815,-0.53322353740386,0.002062065647898,3.14563583762543
35.699906448,34.9,-301.163220507008,6589.32790963849,279.934812537819,-24.3790634843258,-0.487946038757855,-0.0512668568984019,-0.515357329575634,0.00210248117473933,3.16172124198528
35.868085344,35.067,-314.515593790752,6588.86174812258,279.904558557375,-24.3444678084707,-1.38690949360163,-0.0531524133031601,-0.46572764310908,0.00217980896794749,3.1986176522098
35.935164652,35.134,-319.866266345258,6588.53901005298,279.892145315869,-24.3232394793022,-1.7194777836862,-0.0536039557297415,-0.44392946768087,0.00219832699510327,3.21228434115448
36.070410652,35.269,-330.631951513159,6587.67305436324,279.866940898531,-24.2716294170072,-2.33764033272706,-0.0538434622296188,-0.397604887447026,0.00220814930460473,3.23772444762411
36.143089789,35.332,-335.647673817389,6587.17624858994,279.855197456107,-24.2447679037663,-2.60150089675522,-0.0536505063820733,-0.375153128378215,0.00220023607173694,3.24860151054999
36.244661922,35.433,-343.677023974662,6586.27014196708,279.836549236883,-24.1997776258191,-2.99122542768456,-0.052813841232604,-0.338471821057983,0.00216592393708966,3.26469066807481
36.312103384,35.5,-348.995061992069,6585.59913993944,279.824399443725,-24.1693633397945,-3.22779105373591,-0.0519293998601297,-0.313881840136135,0.00212965247271382,3.27447225715908
36.447924123,35.634,-359.610997315072,6584.10755035751,279.800909522048,-24.1094708356697,-3.64834690345727,-0.049364928608366,-0.264650072219001,0.00202448200182979,3.29189374360277
36.516033982,35.702,-364.988175404965,6583.28238341246,279.789522245721,-24.0804753169963,-3.8350870204117,-0.0476660628768802,-0.239880698986761,0.00195481053296584,3.29964385372195
36.617969046,35.804,-373.04196280004,6581.9693218453,279.773283375018,-24.0396767903281,-4.08306276911293,-0.0446569165195099,-0.203307854182104,0.00183140371813263,3.3099502498813
36.79217851,35.967,-385.885176991032,6579.71204945864,279.749831384435,-23.9836503720201,-4.40027972667185,-0.0388479071751423,-0.147032148296437,0.00159317299514263,3.3231609415702
36.860218584,36.035,-391.23460694165,6578.72329220211,279.74107421259,-23.9640045649215,-4.50606678515669,-0.036101804391306,-0.124543655161131,0.00148055381559335,3.32757350957521
36.927417181,36.102,-396.501172841254,6577.72669286815,279.733095705218,-23.9470623726206,-4.59527520700507,-0.0332489677261979,-0.103053658016442,0.00136355744077673,3.33129739192404
37.06262474,36.237,-407.102501993923,6575.66455378316,279.719081979356,-23.9203388799727,-4.7324525782295,-0.0271378375021218,-0.0619222678217591,0.00111293674482782,3.33702887495555
37.12974074,36.304,-412.359825189508,6574.62038397864,279.713195581482,-23.910827080983,-4.78029598677255,-0.0239704469726589,-0.0426649657126766,0.000983040405350527,3.33902936011165
37.269153282,36.434,-422.555487087545,6572.56884285464,279.703866408373,-23.8994317843291,-4.83697262129101,-0.0176705186666636,-0.00762515417966776,0.000724677102746414,3.34140021488236
37.33666044,36.501,-427.808582449651,6571.5036288849,279.700143176098,-23.8969557635807,-4.84920143676068,-0.0143756508748559,0.00924693377097893,0.000589552898738327,3.34191190234636
37.404409864,36.569,-433.139655418976,6570.42041016301,279.697122578561,-23.8967500394563,-4.85022391567523,-0.0110235977807953,0.0255182631897093,0.000452083507401831,3.34195467581814
37.574408741,36.737,-446.311894875928,6567.75085716009,279.692930680009,-23.9054328310578,-4.80725797943643,-0.00280696988669677,0.0620263843713499,0.000115115475388016,3.34015700305241
37.642380937,36.805,-451.64526752326,6566.67897808346,279.692533798188,-23.912303641225,-4.772964525271,0.000458817696262278,0.0753369087623283,-1.88161061964654E-05,3.33872266235634
37.780728345,36.933,-461.689376239522,6564.68542262196,279.693782397807,-23.9299230543075,-4.68382289696639,0.00645638643028069,0.0980983354222882,-0.000264779401605427,3.33499619150121
37.848102851,37.001,-467.028494675118,6563.64248697061,279.695460208463,-23.9413586419581,-4.62500931431357,0.00955090566750984,0.10906379482493,-0.000391687189650281,3.33253904627192
37.915329879,37.068,-472.291680399801,6562.6281849347,279.697789538853,-23.953880049157,-4.55970718612489,0.0125286689799947,0.11909740726416,-0.000513806764683099,3.32981218560563
38.08506504,37.238,-485.659191019641,6560.12390440065,279.706575666935,-23.9901633027194,-4.36476014298616,0.0197383688171817,0.141344045866902,-0.000809480226426002,3.32167999423579
38.152248297,37.305,-490.933322873811,6559.16807847348,279.711127086254,-24.0058781449004,-4.27747205302946,0.0224349703489125,0.148891207858574,-0.000920069245434722,3.31804271214944
38.22295911,37.365,-495.659469701334,6558.32906292353,279.715712611851,-24.0205040395718,-4.19454739094089,0.0247764044396977,0.155060409107232,-0.00101609267382825,3.3145894360914
38.357841704,37.5,-506.30381961687,6556.50161733567,279.72764521876,-24.0544912568103,-3.99499915497126,0.0298014758803969,0.167259084591297,-0.00122217349692755,3.30628798420774
38.426061237,37.567,-511.592224848,6555.62813911387,279.734376815427,-24.0717451575059,-3.88966660138402,0.0321683433798527,0.17243991978454,-0.0013192399957585,3.30191066737148
38.493728322,37.635,-516.963443117882,6554.76543980524,279.741729617119,-24.0893552977546,-3.77905121117011,0.0344859688162592,0.177153827380414,-0.00141428706346559,3.2973171389654
38.663422663,37.805,-530.408709199042,6552.71918324006,279.762290891269,-24.1331566338857,-3.48835399759306,0.0399158109337367,0.186699480508295,-0.00163696786593014,3.28526084269169
38.767967164,37.9,-537.932927731677,6551.64800985196,279.77506442249,-24.1571002626648,-3.31845401738361,0.0427297814085797,0.190753801097345,-0.00175237036957723,3.27822428421474
38.835968495,37.968,-543.323193047097,6550.91359975286,279.78472729346,-24.1738172656889,-3.19437330289425,0.0446543053394986,0.19316215004163,-0.00183129618627939,3.27308968365301
38.903968761,38.036,-548.717174417082,6550.20699431435,279.794810785791,-24.1901194517185,-3.06845468734047,0.0465053059158488,0.19518503784488,-0.00190720677943163,3.26788258544965
39.073080249,38.204,-562.058791787907,6548.58305847888,279.821427453212,-24.2282495007072,-2.75114589297845,0.0507780186521107,0.198692155704644,-0.00208243321764286,3.25477585604683
39.174214469,38.304,-570.010002619384,6547.70008401295,279.838350248553,-24.2492673727394,-2.55923133332145,0.0531306699578712,0.199898394005355,-0.002178916845478,3.24685824714683
39.246352765,38.366,-574.943220282502,6547.18473736367,279.849226159118,-24.2616067013918,-2.43945156610414,0.054519022037281,0.200345453352011,-0.00223585399862703,3.24192000551335
39.38171196,38.501,-585.693248034155,6546.14604462718,279.873843548138,-24.2865141886884,-2.17747377019761,0.0573806839324534,0.200689331153118,-0.00235321249625372,3.23112763596276
39.4494112,38.568,-591.032462918319,6545.67374044803,279.886520726496,-24.2978447363902,-2.04713196030036,0.0587188516667507,0.200561576812104,-0.00240809158143755,3.22576207288079
39.517170473,38.636,-596.453870493447,6545.22359195514,279.899681655706,-24.3086265024695,-1.91481868517899,0.0600247155345944,0.200259841469391,-0.00246164587221596,3.2203178311191
39.686393834,38.805,-609.937582114493,6544.23275609899,279.933608301137,-24.3322412710015,-1.586668005206,0.0630505446068393,0.198872515164241,-0.00258573703547378,3.20682526118822
39.756845131,38.866,-614.807626825504,6543.92034385543,279.946260951023,-24.3396421702534,-1.46873093935432,0.0640659968698285,0.198181304089347,-0.00262738138379334,3.20197906820434
39.825172652,38.934,-620.238199074175,6543.59922213901,279.960596268732,-24.3471950518653,-1.33764848475818,0.065158558938359,0.197328899110163,-0.0026721880598652,3.19659436959646
39.960131791,39.068,-630.944300128445,6543.05205757169,279.989541081941,-24.35993735295,-1.08092319908268,0.0671803407788177,0.195421626199656,-0.00275510265351002,3.18605288928724
40.027830632,39.135,-636.299359318424,6542.82073327105,280.004340325078,-24.3652569289462,-0.953451218085043,0.0681290050035783,0.194382596007458,-0.00279400799963846,3.18082062357471
40.16323013,39.27,-647.092690533701,6542.43940117287,280.0347758603,-24.3738892538582,-0.69863441075153,0.0699185305862672,0.192176240292724,-0.00286739763699766,3.17036437488092
40.235878681,39.333,-652.130819044082,6542.30039250689,280.049248215979,-24.3769814923539,-0.58071600795696,0.0706982297509189,0.191114398873199,-0.00289937362481044,3.16552679501989
40.337538273,39.435,-660.289019082398,6542.12616830842,280.073010364632,-24.3807560211648,-0.391182380348119,0.0718900681300181,0.189378874234152,-0.00294825172478699,3.15775233232995
40.473356828,39.571,-671.168248328895,6541.99215932947,280.105295546196,-24.3834812059757,-0.141139846585712,0.0733472677483802,0.187077759003395,-0.0030080124794627,3.14749726377341
40.541322004,39.639,-676.608232763593,6541.96689071881,280.121677501366,-24.3838815291091,-0.0172821333897991,0.0740196081520662,0.185949356977564,-0.00303558562386755,3.14241774194739
40.609383428,39.707,-682.048274036668,6541.96921497733,280.138208030177,-24.383656152949,0.105807562700094,0.0746550372170309,0.184844350285904,-0.00306164501104974,3.13736973479085
40.779874799,39.866,-694.76780359518,6542.08222710804,280.177397987906,-24.380752633875,0.390617366301193,0.0759939411601404,0.182385851267239,-0.00311655439894125,3.12568881349984
40.847890205,39.934,-700.207042848539,6542.17542312,280.194364796259,-24.3785197454884,0.511250846160347,0.0765087660601035,0.181395161244,-0.00313766773121726,3.1207406976292
40.91599415,40.002,-705.645754055386,6542.29549480314,280.211445344717,-24.3757076628103,0.631193127946825,0.0769881328164057,0.180447428642334,-0.00315732690146236,3.1158204237276
41.050437858,40.135,-716.281210592721,6542.60772702873,280.245152504631,-24.3685684902737,0.863868832113728,0.0778227209465334,0.17872889780261,-0.0031915539553822,3.10627370198905
41.151629055,40.235,-724.275689549226,6542.90633449849,280.27135941675,-24.3619209035498,1.03435224104091,0.0798832322100521,0.213008054342158,-0.00327605699152186,3.09927673043802
41.219137487,40.303,-729.710670034735,6543.1415331435,280.289806998912,-24.3557185956855,1.17122809046622,0.0815625406333289,0.243434176922423,-0.0033449266494961,3.09365758674169
41.3601038,40.434,-740.176515822517,6543.68882866068,280.326250431755,-24.3382404848872,1.49078360695595,0.0840852970598234,0.291560537282123,-0.00344838675413903,3.08053270039986
41.427835789,40.501,-745.526158332651,6544.02402930183,280.345245033636,-24.326002258793,1.67864321800147,0.0850120697829971,0.312378698715894,-0.00348639439831388,3.07281208876008
41.562857244,40.636,-756.296221802472,6544.83079260802,280.383930467276,-24.2931900389592,2.10070640222432,0.0860601116683287,0.346848029974017,-0.00352937539043032,3.05545051604426
41.630595284,40.704,-761.71529172125,6545.30980015818,280.403499292305,-24.2720842459945,2.33194207162534,0.0861889209009507,0.360876267855024,-0.00353465795748241,3.04592791178902
41.698529757,40.772,-767.129504581779,6545.84108460332,280.423041991601,-24.2476416718961,2.57369820344972,0.086063401291357,0.372857998367546,-0.00352951030649591,3.03596272484794
41.869369855,40.932,-779.845062673988,6547.31162625405,280.468600238087,-24.1760840262455,3.17635257720641,0.0848614243843269,0.393624694668676,-0.00348021633696991,3.01107315982051
41.937244071,41,-785.237286267077,6548.03300658384,280.487664879852,-24.139584361289,3.44279922962975,0.0840019572893588,0.399681655788226,-0.00344496895338465,3.00004387895656
42.073119897,41.136,-795.99592397262,6549.65607806686,280.525029854363,-24.0555318698328,3.98800155054203,0.0817685299540632,0.407344136564136,-0.00335337445836679,2.97742009712799
42.139971103,41.202,-801.202981099863,6550.53237010467,280.542726858629,-24.0095171791475,4.25629704487848,0.08047540081973,0.409103331920855,-0.0033003422953263,2.96625639365298
42.241267053,41.303,-809.151578645143,6551.98573113974,280.569186539979,-23.9327702940587,4.66860079792403,0.0782856411136483,0.40962815272368,-0.00321053868315543,2.94905686878502
42.313588305,41.366,-814.096319841649,6552.96240714861,280.585274500918,-23.881202379927,4.92561966849955,0.0768099630331472,0.408682637374685,-0.00315002008370881,2.93830622589664
42.416071162,41.468,-822.079291806667,6554.65470841501,280.610625093682,-23.7921038790735,5.33945018325405,0.074301736744337,0.405486101900597,-0.00304715597959794,2.92094563057058
42.518284267,41.57,-830.032042351313,6556.48382488637,280.635658421509,-23.6970025250106,5.74683902481829,0.073270407597418,0.420812136740911,-0.00300486045838387,2.90378893193784
42.655680222,41.706,-840.584594013653,6559.13491100933,280.66906752484,-23.5534220225139,6.30955890213142,0.0723428645623908,0.449945091394945,-0.00296682129123342,2.87997147242179
42.722975132,41.773,-845.758783732761,6560.53535670712,280.685290125942,-23.4725881541104,6.60393471654026,0.0714675265603448,0.461535206035563,-0.00293092308881228,2.86745196396947
42.860965283,41.899,-855.438685795329,6563.34909095953,280.715041071549,-23.3027649087385,7.18023867463794,0.0691099375220803,0.477771342650557,-0.00283423678684215,2.84281194250603
42.928733892,41.967,-860.633133230598,6564.96645424804,280.730589639805,-23.2019890188646,7.49950708419953,0.0674912045503928,0.483975974674062,-0.00276785148045499,2.8290816464945
42.996353837,42.035,-865.804765852511,6566.65538732857,280.745708508141,-23.0950271193224,7.82271478704556,0.065663676943235,0.488386547001481,-0.00269290338264556,2.8151195857021
43.165326506,42.203,-878.475140200341,6571.13970810217,280.780949078133,-22.8062048566004,8.62860506716281,0.0604204756333986,0.492185108507888,-0.00247787636209365,2.78000929020183
43.234040162,42.271,-883.557414403233,6573.08108875468,280.794280352662,-22.6803745338318,8.95414395556897,0.0580777774312765,0.491198857686667,-0.00238180085599878,2.76569600117092
43.372222505,42.399,-893.045688633976,6576.93372873798,280.81779048634,-22.4317781420724,9.55991266739348,0.053433854642045,0.485783473193608,-0.0021913507660897,2.7388416727503
43.439388494,42.467,-898.043722862054,6579.08268389436,280.829431049883,-22.2943681918532,9.87613347941748,0.0508961981182272,0.481248467259867,-0.00208727996692685,2.72470169373672
43.541205191,42.569,-905.482707048412,6582.43770929883,280.845765343169,-22.0826954327162,10.3407835542885,0.0470521989312144,0.472547448478547,-0.00192963532276993,2.70376160132919
43.676442195,42.704,-915.218078685623,6587.11474629379,280.865316329764,-21.7950137815377,10.9341239429634,0.0419983650699068,0.458058592994831,-0.00172237472639329,2.6767182469685
43.74488117,42.772,-920.073348229138,6589.56916802167,280.874291914607,-21.647981465291,11.2224236958408,0.0395078425383306,0.449676499436288,-0.00162023701082216,2.66344597424616
43.849634317,42.866,-926.730786046169,6593.06718581591,280.886427485858,-21.445221947231,11.6051916884922,0.0379144764930402,0.458609028486781,-0.00155489218435214,2.64568183848842
