Real_time_s,Simulation_time_s,x_ft,y_ft,alt_ft,vx_fps,vy_fps,vz_fps,roll_rad,pitch_rad,yaw_rad,adsb_x_ft,adsb_y_ft,adsb_alt_ft
0.0,0.0,3.8075174448634613e-17,9800.0,300.0,1.7483827159451285e-14,-79.90018711022753,-3.995009355512359,-5.210671580281461e-17,0.049958395721955026,-1.5706800000000003,1.6959989426729827,4275.239494679686,221.05378984774777
0.06748374300000393,0.06799999999999784,1.3918707224709294e-06,9794.566801065204,299.7283723347618,0.0001042503646284013,-79.89933523939396,-4.01198279714322,2.1962864714614587e-05,0.05017083078879162,-1.5706786954047276,1.6959989426729827,4275.239494679686,221.05378984774777
0.10141849600000086,0.10200000000000387,5.214124673490918e-06,9791.85023712408,299.5919971712305,0.00012520316374165126,-79.89849920169479,-4.028584914807356,2.6355416254926657e-05,0.05037862022638614,-1.5706784336480348,1.6959989426729827,4275.239494679686,221.05378984774777
0.16948273500000255,0.1700000000000017,1.7242628905037665e-05,9786.41719249862,299.317567811468,0.00018543364582261003,-79.89689454560454,-4.060259847095519,4.9746584971154735e-05,0.050775064645470366,-1.5706776796306143,1.6959989426729827,4275.239494679686,221.05378984774777
0.2041562520000042,0.20399999999999352,2.4488744423306852e-05,9783.7007102873,299.17954827242505,0.0002041358587558558,-79.89612635496957,-4.075336185450475,6.323623372711472e-05,0.0509637633619825,-1.5706774452825476,1.6959989426729827,4275.239494679686,221.05378984774777
0.2718133420000015,0.269999999999996,4.5302223881535965e-05,9775.711203407107,298.77068315098035,0.000135179456992508,-79.894002923423,-4.116721819079207,8.875508365711253e-05,0.05148176430815217,-1.5706783083985068,1.6959989426729827,4275.239494679686,221.05378984774777
0.3386652080000019,0.33799999999999386,5.360886630367608e-05,9770.917580454097,298.5233383284758,4.871751537893434e-05,-79.89402616941878,-4.116299388166869,0.00010372763627974992,0.051476475964783726,-1.5706793905528333,1.6959989426729827,4275.239494679686,221.05378984774777
0.4760913730000027,0.4650000000000034,4.816391147210092e-05,9760.131642178245,297.9711320433032,-0.0002754736433335814,-79.89770940991306,-4.044236896616451,0.00013152174644947333,0.05057451892258465,-1.5706834480764122,1.6959989426729827,4275.239494679686,221.05378984774777
0.5434605710000042,0.5319999999999965,2.747318892050261e-05,9754.778435648577,297.7007034894157,-0.0004925732123414353,-79.89953769484005,-4.007984738777392,0.00014271501971408815,0.05012079102892509,-1.570686165119123,1.6959989426729827,4275.239494679686,221.05378984774777
0.6110431020000036,0.5999999999999943,-8.384429354331962e-06,9749.425106371755,297.4327083969315,-0.0007418467587706301,-79.90136436098823,-3.9714336302041175,0.00015230619652373048,0.0496633319741283,-1.5706892847102596,3.902199243250402,9799.96299735678,270.933778022417
0.7457048939999993,0.7330000000000041,-0.00013376289958690887,9738.71808022196,296.9040965267521,-0.0013231561269548481,-79.90500781519103,-3.897503714140398,0.00016686670504497848,0.04873808646592436,-1.570696559232056,3.902132251692127,9794.37004331592,271.2292063488314
0.8136010240000005,0.8010000000000019,-0.00022822946414046167,9733.284477530166,296.63963585795466,-0.001652278164218703,-79.90684854692502,-3.85961333684891,0.00017206775153960944,0.04826389820869928,-1.5707006776437993,3.902059332727393,9791.57337199594,271.3810168382011
0.953721637000001,0.9309999999999974,-0.00047374607167280884,9722.896356976598,296.14129390315935,-0.0023306626461103573,-79.91034730129635,-3.786549691069246,0.0001781638665337195,0.047349556146961666,-1.5707091660093546,3.9018515528209505,9786.379214387707,271.67023089337783
1.0212819720000041,0.9989999999999952,-0.000635200816435566,9717.54230272759,295.8881559033832,-0.0026983276971673086,-79.91213698242119,-3.7486238603424065,0.0001795460429825013,0.046874955775854175,-1.5707137661985033,3.9016984020926784,9783.582171525932,271.83006801528995
1.1563267810000042,1.1329999999999956,-0.0010364742586011432,9706.75391996519,295.3858289662746,-0.0034625551917501574,-79.91571010845841,-3.6717305004217775,0.0001789882529017651,0.04591275170127229,-1.5707233275661556,3.8661591844295433,9776.19850639772,272.1905761908933
1.2232756160000022,1.2000000000000028,-0.0012706500718957902,9701.479423563713,295.14404450149226,-0.003842118386743012,-79.91743883014526,-3.633944573867028,0.0001772379514296836,0.045439933644205774,-1.5707280760517923,3.8654710133465215,9773.376404488492,272.3589645529799
1.358380626000006,1.3349999999999937,-0.001809944352757102,9691.010010400854,294.67154150096366,-0.004595140078299201,-79.92082982816638,-3.5586589560072435,0.00017127532254284907,0.04449790945490084,-1.5707374960740195,3.8640121091806368,9767.731826595482,272.7043027064396
1.4325019950000026,1.3969999999999914,-0.0021237783005631714,9685.655254319665,294.43368304779756,-0.004975560003884103,-79.92254169486897,-3.520039633148078,0.00016707782367844388,0.04401469399887034,-1.5707422546865581,3.8632424029579995,9764.909351990325,272.8812912195738
1.500086526000004,1.4650000000000034,-0.002463077721950036,9680.300383745438,294.1984128771002,-0.005350531933181637,-79.924237017602,-3.4813708790767466,0.0001622132257927714,0.04353087036931325,-1.570746944945383,3.862448398276793,9762.086762463623,273.06099588149954
1.6354758189999998,1.5999999999999943,-0.0032281270486306853,9669.430449190131,293.72880117776486,-0.0060868738817312865,-79.92762437310417,-3.4027900231609736,0.0001505577774587124,0.04254769771681353,-1.5707561546955877,3.8724071616678053,9753.444906965511,273.16483430786946
1.7033048850000014,1.6679999999999922,-0.0036416130577875713,9664.075238830155,293.50138777994096,-0.00643423842330961,-79.9292650769255,-3.3640686482586672,0.00014407332485161253,0.04206324636900723,-1.5707604990228798,3.871896492869885,9750.52739816985,273.34499050275014
1.8725279350000008,1.8359999999999985,-0.004742747510840213,9651.046434709126,292.9589927567754,-0.007226539662197512,-79.93317399255899,-3.2699705601209743,0.00012674184622812776,0.040886006165375084,-1.5707704071151873,3.8707313107747785,9744.275207745452,273.74065720649264
1.9476116230000002,1.8979999999999961,-0.005239370736742335,9645.610919218165,292.73722510368594,-0.007531893967560045,-79.93476828139514,-3.2308027344088894,0.00011902197880268774,0.040396003104341854,-1.5707742253512906,3.870074775317835,9740.940501943882,273.956861723041
2.015465320000004,1.965999999999994,-0.005756558585488454,9640.175295710518,292.5181199094111,-0.007822078651876702,-79.93634046568626,-3.1917069853080946,0.00011110194780467152,0.039906911444281455,-1.570777853691875,3.8694824667551404,9738.022522218786,274.14893857238326
2.150611062000003,2.0990000000000038,-0.00682360417325213,9629.543548148595,292.0972788911584,-0.008340762621812733,-79.9393491956098,-3.1155219806481784,9.523225979706171e-05,0.038953856911469305,-1.570784338473863,3.718334594882318,9726.640614326861,273.7777777349727
2.2516463400000006,2.200000000000003,-0.007678299666657454,9621.46955067105,291.78443955882585,-0.008690318807294319,-79.94157375448569,-3.0579716660090286,8.304161026942939e-05,0.0382339410720834,-1.5707887082156509,3.711141987347283,9723.060891144387,273.9742802469814
2.319718563000002,2.2680000000000007,-0.008273128825772174,9616.033466436842,291.57707933909046,-0.008903562355767546,-79.94304144103724,-3.019400802760698,7.48496040754453e-05,0.037751456591686085,-1.5707913736640817,3.7039340935778933,9719.48103679954,274.1743618892249
2.460578536,2.397999999999996,-0.009449044360868814,9605.640675777733,291.1879866388956,-0.009259838300110703,-79.94577831974334,-2.9461304469431635,5.939235748699868e-05,0.036834938872944756,-1.5707958263247095,3.689480439204678,9712.320946993545,274.58514341430055
2.561739681000006,2.4989999999999952,-0.01039279786768017,9597.566035046031,290.8922225203641,-0.00949180441776497,-79.94784147325583,-2.8896663406509138,4.770347167479901e-05,0.03612866692250445,4.712386582371499,3.6831434763384303,9709.188243749046,274.7695220237106
2.6294076400000037,2.566999999999993,-0.011031331488680613,9592.20947598884,290.69916702681144,-0.009624085469607338,-79.94917915317795,-2.852459843942584,4.015718359273758e-05,0.03566328549747392,4.712384929790029,3.6768008020840335,9706.055452921724,274.95644084197767
2.764667024000005,2.701999999999998,-0.012352632800420413,9581.336189153422,290.31491529645893,-0.009840726118404008,-79.95181762424004,-2.7776109399072078,2.5472284641144354e-05,0.03472709362740318,4.712382224113666,3.5565657548120466,9688.142572041108,274.31585289133966
2.8653826670000058,2.8019999999999925,-0.013341362753562588,9573.340898773022,290.0388668108384,-0.009956907312776212,-79.9536914665237,-2.7232055538956668,1.5306087060935418e-05,0.034046623486753365,4.71238077388471,3.546483224724267,9684.626569472553,274.47353317670036
2.936602451000006,2.8640000000000043,-0.013959911765453421,9568.383724263427,289.8704779968867,-0.010010704469996207,-79.95482463409088,-2.6897743605311697,9.315115554621573e-06,0.033628493864045865,4.712380102800584,3.5363993719771027,9681.110481299718,274.63384631721084
3.0722542860000033,2.9989999999999952,-0.01531653818250892,9557.589639983637,289.5108775076409,-0.010085855128108933,-79.95721791795594,-2.6177562598560744,-2.9200945075995306e-06,0.03272777127655628,4.712379166650392,3.5147914489048673,9673.575735609355,274.98588027921784
3.139417946000002,3.0660000000000025,-0.01598289663031859,9552.312415444881,289.3386136962184,-0.010101671924213683,-79.95835051999504,-2.582975594561728,-8.455508840105531e-06,0.03229278282891676,4.712378970618091,3.506149969206117,9670.561736735433,275.1299117300564
3.2065460230000014,3.1329999999999956,-0.01701405805169792,9544.156560422525,289.07686110357895,-0.010101263726333064,-79.96005280514484,-2.5297996901222803,-1.6423505256057484e-05,0.0316277440228314,4.712378978403023,3.0942713897572367,9649.999111662482,274.07676262574495
3.3759185600000023,3.3019999999999925,-0.018366706135785307,9533.441746176897,288.7412029513625,-0.010057921957240507,-79.96220064337064,-2.4610687708857895,-2.576533299264644e-05,0.03076818880127387,4.712379523811764,3.047351513723433,9641.880358780474,274.34296607697235
3.4472731359999997,3.3640000000000043,-0.019000187093083,9528.404085188322,288.5865939028627,-0.010021635906671234,-79.96317547826033,-2.4292356201998344,-2.970024077428826e-05,0.03037008821188409,4.7123799791240835,3.023898349586721,9637.820876362712,274.47966818254594
3.5157400010000046,3.432000000000002,-0.019681259995315316,9522.966542777398,288.42192056008787,-0.00997305241615476,-79.9642036864803,-2.3951977008317247,-3.365140123668192e-05,0.029944420499701113,4.712380588294466,3.000450744896932,9633.76132329666,274.6188186986219
3.6516389390000015,3.567999999999998,-0.02103231609141763,9512.091252075686,288.0994761432719,-0.0098472483055742,-79.96618428812376,-2.3282303793600647,-4.0577635246767435e-05,0.02910696366388177,4.712382164587034,2.953573851919045,9625.642020665002,274.90406932799306
3.7192725049999993,3.6359999999999957,-0.021691225138493232,9506.733474302766,287.9439669795853,-0.009772638142966576,-79.96712323546814,-2.2958017463272298,-4.3520356639517e-05,0.028701436235693756,4.712383099037179,2.5119138671732646,9600.91754245588,273.4244808077089
3.8545961390000016,3.771000000000001,-0.023012456015461414,9495.857795958906,287.6349273776231,-0.009599193068707995,-79.96895563460525,-2.2311582901807463,-4.85783158993347e-05,0.027893069195952747,4.712385270730627,2.439380160256321,9591.520543293911,273.62350925129317
3.9231726630000026,3.8389999999999986,-0.02357791741660431,9491.139593009435,287.5036338292957,-0.009515786934975217,-79.96972028858164,-2.2036287353110566,-5.039712596742982e-05,0.027548817371299703,4.712386314844132,2.403124910733107,9586.821957198783,273.72627912187437
4.059304137000005,3.9650000000000034,-0.024852953896737955,9480.343541896113,287.2091698261047,-0.009309733706039281,-79.97140183041301,-2.14183216870743,-5.377191760716881e-05,0.02677607510528807,4.712388893922376,2.335816284944719,9578.095860075673,273.9229821818079
4.1273220120000005,4.0319999999999965,-0.02547520665861099,9474.985418756947,287.0661144509617,-0.009200987340256539,-79.97220238247252,-2.111777512266004,-5.5057181886857414e-05,0.026400259025231777,-1.5707950522946867,2.299585539920554,9573.397115094762,274.03193989451285
4.262850735000001,4.167999999999992,-0.02671547220314185,9464.10906772723,286.78186184807265,-0.008969865186624406,-79.97375915634372,-2.0520723202786733,-5.6934451740195565e-05,0.025653691221707724,-1.570792160089674,2.4518675806695125,9539.956133649448,270.16913203068134
4.330476905000005,4.234999999999999,-0.027314759509678137,9458.75078882487,286.64480115665435,-0.00885194791501152,-79.97449291374956,-2.023321838736419,-5.751674859193816e-05,0.025294193556947335,-1.570790684628875,2.421794043080618,9534.591113639659,270.171822922416
4.397936680000001,4.302999999999997,-0.027914895489890224,9453.312486260902,286.5076505117834,-0.008730301575685356,-79.97521586313427,-1.9945892850893794,-5.789756946493854e-05,0.024934923346602588,-1.5707891625820087,2.3917291716749065,9529.226048311715,270.1764111898356
4.536557942000002,4.430999999999997,-0.029021732994370747,9443.075550202426,286.2547849103096,-0.008497565073334644,-79.9765173863016,-1.9417975999068622,-5.806326414311998e-05,0.024274827472294105,-1.5707862507519064,2.335918042935381,9519.262237063627,270.1899880694015
4.604029414999999,4.498000000000005,-0.029589241525396374,9437.717089320919,286.125086577073,-0.008374744051125585,-79.97716916579958,-1.9148120286498296,-5.790117228834884e-05,0.023937409829773076,-1.5707847141883695,2.3058790775125364,9513.8970443687,270.20006363186474
4.738735144000003,4.632999999999996,-0.030699518225309388,9427.000040037647,285.8710628106484,-0.008128957616507303,-79.97841309606125,-1.8622259332212387,-5.711089787345764e-05,0.02327990048714019,-1.5707816394061074,1.996758560435759,9481.31906933826,268.028862138503
4.806601535000006,4.700000000000003,-0.03125037134762613,9421.561475250055,285.74482511332616,-0.008004912559010095,-79.97901461507502,-1.8362571154094138,-5.649739034141347e-05,0.022955203567312166,-1.5707800876742857,1.9603192177685185,9475.387144029313,267.98769814887237
4.942021368000006,4.8359999999999985,-0.03227991030725388,9411.164107663435,285.50838611161345,-0.007770612215944392,-79.98011068142122,-1.7879733598240848,-5.4979446441006765e-05,0.022351501832804946,-1.57077715682464,1.8874666694120874,9463.523179792908,267.91064938065506
5.047771793999999,4.932000000000002,-0.03305895445614486,9403.086057821536,285.32895907793653,-0.007592319165522141,-79.98091436219039,-1.7517230654603284,-5.353206840882506e-05,0.02189826234241989,-1.5707749266560045,1.851052559149749,9457.59114603671,267.8745718131045
5.148858601000001,5.0319999999999965,-0.033820099640497425,9395.007929046817,285.1531596779862,-0.00741813580982429,-79.98167826688908,-1.7165583624050775,-5.1897587307987604e-05,0.02145860037831198,-1.5707727479610316,1.7834475284451905,9446.574424201335,267.81182454254525
5.216492826,5.099000000000004,-0.03431534753499678,9389.649128741381,285.0384892585522,-0.007305225560448972,-79.98216352880081,-1.693842020633123,-5.072461258063677e-05,0.021174581672990054,-1.5707713357067243,1.3462757544132105,9423.645625268118,264.814218728946
5.283597369000006,5.165999999999997,-0.0348030597925275,9384.290296617406,284.9253335789828,-0.007194632079515158,-79.98263207152013,-1.6716158746041305,-4.949344620742878e-05,0.02089669346499675,-1.5707699524540581,1.3001124554051366,9417.294078046541,264.7124421050511
5.452577842000004,5.334999999999994,-0.03596600106642069,9371.17302765368,284.6545566391035,-0.006934612972240106,-79.98371075165555,-1.619291557386537,-4.62927125846825e-05,0.02024250134211794,-1.570766700342118,1.2078077464082255,9404.59089675863,264.51332972654797
5.528866142000005,5.397999999999996,-0.0364290078979177,9365.814094255416,284.54637002716356,-0.0068331332645400564,-79.98412416435887,-1.598783884234749,-4.4930637096272106e-05,0.01998610367214104,-1.5707654311463264,1.1616659256393136,9398.239264821761,264.41592579087137
5.596199897000005,5.465000000000003,-0.03712100079033667,9357.655666588686,284.3842746479789,-0.006683955189004592,-79.98472521868023,-1.5684896630501024,-4.282230808038974e-05,0.019607351867505906,-1.5707635654226966,1.0891700609631285,9388.258079637626,264.2654832781039
5.766029872000004,5.634999999999991,-0.03802043994090129,9346.777671571741,284.17287663247265,-0.006495582348325411,-79.9854744505518,-1.5298887097499771,-3.9985305353431075e-05,0.019124749695465303,-1.570761209551912,1.4496039687512092,9362.757049427597,262.155781968244
5.833751730000003,5.701999999999998,-0.0384542223095913,9341.418623018564,284.07064700216296,-0.006407322747249254,-79.98582229719327,-1.5116335580077813,-3.85915013795789e-05,0.018896519177398433,-1.570760105758037,1.4138476510986264,9356.10493300648,262.0197500474274
5.968760692000004,5.837000000000003,-0.03926669716753668,9331.180378117877,283.87871477781925,-0.006247043251815809,-79.98644952916864,-1.4781508704132849,-3.5962564228858174e-05,0.01847791270671769,-1.570758101296145,1.3474582761461098,9343.750944977699,261.7703639637154
6.038974093,5.896999999999991,-0.03968396406792108,9325.821266162615,283.779929230438,-0.006167599806362441,-79.98675851890872,-1.4613733426277764,-3.461397163492188e-05,0.018268158327964686,-1.5707571077865463,1.3117174675641048,9337.098770081373,261.6376551936807
6.106721564000004,5.965000000000003,-0.040095948828270514,9320.462134102589,283.68226121183375,-0.006090916073143153,-79.98705550940615,-1.445064034419908,-3.3290047888763594e-05,0.018064258452988084,-1.5707561487979373,1.2759817739607615,9330.446576069953,261.50605888828494
6.241663346000003,6.099000000000004,-0.04090483521601789,9309.74381301597,283.4901475467044,-0.005946205559926533,-79.9876129751379,-1.4139437556692334,-3.0731356190123296e-05,0.017675193090092634,-1.5707543391044299,1.0349138000276246,9311.271930526767,259.59209512525337
6.3085914310000035,6.164999999999992,-0.04130212074216119,9304.384625599238,283.39563511225083,-0.005878065247344791,-79.98787407167846,-1.3991306315444652,-2.9503326455080723e-05,0.017490000532601992,-1.5707534869780266,0.9953566632536441,9304.4817717997,259.4262188987864
6.443881829000006,6.301000000000002,-0.04209486260487666,9293.506224009881,283.20677733874334,-0.005747899477341288,-79.98836988459625,-1.3705602404336106,-2.7128729604768716e-05,0.017132817364553625,-1.570751859212192,0.9219044317545606,9291.87143683473,259.12061851426057
6.516482895000003,6.364000000000004,-0.0424561185869342,9288.466942372534,283.12060605544826,-0.005691340036871762,-79.98858402529477,-1.3580376899281918,-2.608907753150966e-05,0.016976262816998804,-1.570751151925152,0.8823587705039276,9285.081236484884,258.9573032071309
6.652282653,6.5,-0.04322423751414074,9277.588450077357,282.9371918281444,-0.005576294056305503,-79.98901593406401,-1.3324181326925242,-2.3972962601801657e-05,0.016655973296206862,-1.570749713266868,0.7976305864666713,9270.5307627554,258.61014342244306
6.753985780000001,6.600999999999999,-0.043779260213391534,9269.58952325847,282.80450969865655,-0.0054977779432118104,-79.98930719384823,-1.3148610896661674,-2.2538390336067075e-05,0.016436480372857696,-1.5707487314289983,0.735232345991385,9261.69254888444,258.24972334023175
6.821221053000002,6.667999999999992,-0.04415227023514426,9264.150237257632,282.7152720997087,-0.00544712006544554,-79.98949306398241,-1.3035329991147333,-2.16225035322669e-05,0.016294860383370538,-1.5707480979616877,0.6795806703681964,9252.190847704285,258.0210177492116
6.8889360180000025,6.734999999999999,-0.044694638088019774,9256.15126547279,282.58542193976183,-0.005376423009913596,-79.98974900755758,-1.2877722473431676,-2.0365073737370538e-05,0.016097825293004363,-1.5707472139159515,0.6279506310798995,9243.374817823602,257.81002921192965
7.062383443000002,6.896999999999991,-0.045384083248942136,9245.832556584528,282.42018691503984,-0.005291446730481203,-79.99004954481987,-1.2690177993202505,-1.8899046769718025e-05,0.015863364932024338,-1.5707461513259382,0.5419112842847733,9228.6814002953,257.4606764893548
7.129658732000003,6.965000000000003,-0.04573793528727165,9240.473212874196,282.33529926188754,-0.005249764942363273,-79.99019333779736,-1.2599451924456546,-1.820556771827127e-05,0.015749943267690282,-1.5707456301198777,0.5017637618500255,9221.824459290896,257.29851328674204
7.1967898150000025,7.0319999999999965,-0.04609425194547922,9235.033869704846,282.2497567076751,-0.005209089482114444,-79.99033075592101,-1.251213130491406,-1.75483799358871e-05,0.01564077913674466,-1.5707451215015107,0.461618934813756,9214.967510389677,257.1368914839443
7.331840619000005,7.167000000000002,-0.046793618356039374,9224.235148174537,282.0816387138674,-0.005132767179207312,-79.99057910137368,-1.2352763653992982,-1.638022823181903e-05,0.015441545677722403,-1.5707441671564375,0.2985404779132077,9202.291101855584,257.72755230484387
7.399571373000001,7.233999999999995,-0.0471369392659477,9218.87577114168,281.99898429140023,-0.005096888914904373,-79.99069060978977,-1.2280536614694282,-1.5865799898828873e-05,0.015351251252074455,-1.5707437185356588,0.25662050626245114,9195.449815620066,257.58635999550944
7.573525864000004,7.397999999999996,-0.047967387918064916,9205.7572676416,281.7986229015139,-0.005013956772182267,-79.9909319621779,-1.2122744140293635,-1.4779165560776977e-05,0.015153987878049214,-1.5707426815721153,0.16679957900434872,9180.789898889396,257.28506929915125
7.641630240000005,7.465999999999994,-0.048302815157100325,9200.3978687256,281.7174868690744,-0.004981806116283581,-79.99101834013447,-1.2065767349203944,-1.440199934204978e-05,0.015082758810551287,-1.5707422795753665,0.12488653335126204,9173.948597303266,257.14498423490414
7.709001052000005,7.533000000000001,-0.04864107104707283,9194.958473396582,281.6355220237296,-0.004950089065836047,-79.9910988857953,-1.201239245680833,-1.4056317030020378e-05,0.015016032697603108,-1.570741883004699,0.08297566245290926,9167.107291690802,257.0051976644169
7.8782199460000015,7.701999999999998,-0.0494725714410734,9181.439955630838,281.43329549306924,-0.004874687033470425,-79.99126919405921,-1.1898748691621424,-1.334914926043794e-05,0.014873962251404622,-1.5707409402430503,0.11975907070742467,9155.550514031798,257.45216998562563
7.945425376999999,7.768999999999991,-0.049793869488959835,9176.160527670687,281.35481957300016,-0.004846377552952807,-79.99132442881245,-1.1861659945130696,-1.3127454313371911e-05,0.014827596246522,-1.570740586293498,0.08618350160471468,9149.754373479316,257.3465583420103
8.012996600000001,7.8359999999999985,-0.0500939792747714,9171.201062092108,281.281320448427,-0.004820275587027911,-79.99137068550401,-1.1830515226013643,-1.294485606626624e-05,0.014788661112176719,-1.5707402599481242,0.047013815401151134,9142.992207621777,257.223496643801
8.15169589,7.965000000000003,-0.050904000254957456,9157.68250730041,281.081860378823,-0.004751094423721013,-79.9914702909439,-1.1763154329204737,-1.2561219693895697e-05,0.014704450912421127,-1.5707393950151367,-0.04250941632200756,9127.535822991707,256.94268817994663
8.253430749000003,8.066000000000003,-0.051221916951237643,9152.323076543724,281.0030782427873,-0.004724309660526157,-79.99149939296022,-1.1743399781515333,-1.2450801822660583e-05,0.014679755085515937,-1.570739060147973,-1.7118179597985104,9121.597665245925,256.89925298261863
8.321410290000003,8.134,-0.0516977933359326,9144.243931919735,280.8845478714689,-0.004684454255914803,-79.99153246564,-1.1720907538406138,-1.2323417695646504e-05,0.014651636784765101,-1.5707385618776444,-1.803847618428678,9113.293284422101,256.75033637984876
8.42193648,8.233999999999995,-0.05201125859137551,9138.88449808915,280.8060343146047,-0.004658297433665714,-79.99154725150821,-1.1710836924554582,-1.226302271997572e-05,0.014639047179779333,-1.570738234871647,-1.899047547378504,9104.702546305598,256.59627975966583
8.523418582000005,8.335999999999999,-0.052327620982344,9133.445072124305,280.7264119936167,-0.004631920924135204,-79.99155671808471,-1.1704382819527628,-1.2218905636225777e-05,0.014630978693040603,-1.5707379051232602,-1.973089807650933,9098.020862089927,256.47641762035573
8.663538493000004,8.465999999999994,-0.05307864859813337,9120.406448009522,280.535656843892,-0.004569175272896158,-79.99155645816352,-1.1704550521339754,-1.2175406376174032e-05,0.014631188345751027,-1.5707371207193557,-2.1317454146904042,9083.70297228637,256.21931263003785
8.731252289000004,8.533000000000001,-0.0533889592348177,9114.967022854826,280.4560579471278,-0.004543106012790927,-79.99154725850616,-1.1710814380629397,-1.217894174616791e-05,0.014639019002866124,-1.5707367948255238,-2.22693461556987,9075.112242863355,256.06479673280035
8.832641047000003,8.634,-0.053846586038173806,9106.887878682988,280.3377339950465,-0.004504412929681955,-79.99152383961503,-1.1726748676188767,-1.2203583018534294e-05,0.01465893899408152,-1.570736311127094,-1.6510980588577018,9074.217839135077,256.248004069001
8.967742591000004,8.768999999999991,-0.05445216475232768,9096.089028163764,280.17927493217616,-0.00445261818502528,-79.99147473990969,-1.1760091192029642,-1.2265301947909938e-05,0.014700621596030328,-1.5707356636580707,-1.7715592080247589,9061.08927901837,256.019527030136
9.035453766000003,8.835999999999999,-0.05472346650040791,9091.209550342626,280.10751354473285,-0.004429145569854364,-79.99144588031757,-1.177963985998016,-1.2301733112468714e-05,0.014725060057509684,-1.5707353702389844,-1.8317869768396102,9054.525004112393,255.904971530167
9.173823842000004,8.965000000000003,-0.055314478793110314,9080.490704880196,279.94942638822795,-0.004377360642171253,-79.99136851285247,-1.183190568952769,-1.2394560880864823e-05,0.014790399405255198,-1.570734722910954,-1.9522367197751158,9041.396466644284,255.67509254389094
9.241663901999999,9.031999999999996,-0.05561174472705978,9075.051295332094,279.8689236065956,-0.0043509440168463245,-79.99132211927349,-1.1863138867558243,-1.244640004829405e-05,0.014829445126923885,-1.570734392699011,-2.012458664859658,9034.832204803566,255.5597217036279
9.309311147000003,9.099999999999994,-0.05590287441234727,9069.69188054416,279.78939164932586,-0.004324812622669895,-79.99127173048271,-1.1896967918759918,-1.2499336289294182e-05,0.014871736069162308,-1.5707340660551816,-2.782074743039106,9032.745004646991,255.36061127176256
9.444808668,9.235,-0.056488440896214895,9058.813080152679,279.62722376852827,-0.004271430477717735,-79.9911553528677,-1.1974739610934508,-1.2608889850141479e-05,0.01496896142474024,-1.5707333987832501,-2.943454587355031,9018.91481371595,255.10825113102644
9.545770242000003,9.335999999999999,-0.05689311967758049,9051.213928636162,279.5132856632989,-0.004233858271961813,-79.9910629188878,-1.2036141038303514,-1.268425804739584e-05,0.015045721792493125,-1.5707329291399512,-3.0187620793912275,9012.460733944703,254.98989669868226
9.617625481000005,9.397999999999996,-0.05718061800006768,9045.774541723064,279.4313693070589,-0.004206819275924868,-79.99099119960454,-1.2083578609607288,-1.273636504826779e-05,0.015105025446067902,-1.5707325911619323,-3.115583221138039,9004.162640334744,254.83716487569222
9.753535220000003,9.533999999999992,-0.05775008558176456,9034.895783739867,279.2665390650412,-0.004152404044759262,-79.99083466793522,-1.21864742927167,-1.2833281502293109e-05,0.01523365974372142,-1.5707319109966358,-3.255430000359331,8992.176525630222,254.61526873470433
9.821589193000001,9.602000000000004,-0.058172317998893504,9026.736730295246,279.1419714139361,-0.004111304937254682,-79.99070567138915,-1.2270623559560598,-1.2897510473975199e-05,0.01533885853211998,-1.570731397281925,-1.8104238859968302,8990.544695509836,255.7243590487728
9.923592424000006,9.703999999999994,-0.05845147428777694,9021.29736904491,279.05844276906646,-0.004083779610758749,-79.99061424164246,-1.2329919941467524,-1.2935472130104828e-05,0.01541298771209624,-1.5707310532338052,-1.8528147145656297,8984.227309107719,255.6306003357544
10.059992197,9.838999999999999,-0.058963725359332676,9011.218570221221,278.9025685593222,-0.00403253682282463,-79.99043335417798,-1.2446378447863868,-1.2993982351858339e-05,0.015558578192887109,-1.5707304127379875,-1.9375904159332589,8971.592560244988,255.44160363718603
10.128280019000002,9.897999999999996,-0.0592375205523385,9005.779228318335,278.8178338021282,-0.004004767331702667,-79.99032957093033,-1.2512723009431783,-1.3018723502228773e-05,0.015641518921081943,-1.5707300656428869,-1.9799751662831013,8965.275198861675,255.34630330624822
10.196033498000006,9.965999999999994,-0.05950942616585007,9000.3398937208,278.73264492448806,-0.003976936509396732,-79.99022187877668,-1.2581197135449347,-1.3038400744710624e-05,0.015727122040198247,-1.5707297177825872,-2.0344669878886665,8957.152889672438,255.22300530111661
10.365176378000001,10.134,-0.060173052970639684,8986.901570816892,278.520132438014,-0.003907961247607659,-79.98993822939087,-1.2759791445142135,-1.3064134085164313e-05,0.01595039276156823,-1.5707288556599281,-2.0145619487566897,8952.978639898776,253.73504058177213
10.433022142000006,10.201999999999998,-0.060438372039980995,8981.462263715453,278.43325220705134,-0.0038799844964501192,-79.98981649315516,-1.283568256592016,-1.306510471701134e-05,0.016045268730858923,-1.5707285059804832,-2.0547332187286917,8946.836909824631,253.60956032566045
10.501030729,10.269999999999996,-0.060825076421342814,8973.463298293389,278.30453662869263,-0.003838815342028623,-79.98963029986844,-1.295089258428761,-1.3056373978754045e-05,0.016189299854376175,-1.570727991412416,-2.1121171475024925,8938.06302768183,253.42922859098732
10.60529459,10.364000000000004,-0.06106273862577195,8968.503949486156,278.2241427886626,-0.0038132896289920838,-79.98951041935443,-1.3024518588319924,-1.3044590896352492e-05,0.016281344427531548,-1.570727672371178,-2.152283562033904,8931.921322211747,253.30228143236886
10.740899501000001,10.498999999999995,-0.06157482299429607,8957.705393617876,278.0475143821665,-0.003757755407580168,-79.98923899371658,-1.3189739788411126,-1.3003879520929632e-05,0.016487898502789734,-1.570726978262008,-2.232610175115139,8919.637944568289,253.04642486234602
10.809342436000001,10.566999999999993,-0.06182992640720382,8952.266135271719,277.95769543426303,-0.003729829273060711,-79.98909673037663,-1.3275520085612191,-1.297533323531425e-05,0.01659513846857069,-1.5707266292214048,-2.2727705306914734,8913.496272117784,252.91753943985378
10.944124795,10.701999999999998,-0.062330751756736226,8941.467637217356,277.77762953441936,-0.0036745385596713615,-79.98880348527692,-1.34506126381092,-1.2903130216685985e-05,0.016814034546375457,-1.570725938161896,-0.9391965466544868,8907.162020079308,253.1377423165787
11.011660475,10.768999999999991,-0.06257653640727207,8936.108397684722,277.68737881920254,-0.003647194830972517,-79.98865272185522,-1.3539750525643128,-1.2859900321837146e-05,0.016925472686531332,-1.5707255964034808,-0.9497399752006012,8901.139605625694,253.01684984321977
11.187034835000006,10.932000000000002,-0.06316323449846507,8923.150279523314,277.4666551673352,-0.003581428506908642,-79.98827418755911,-1.376099950589341,-1.2736303606954933e-05,0.017202074003678975,-1.5707247744199169,-0.9708210306688119,8889.094812704136,252.77301948035694
11.254719692000002,10.998999999999995,-0.06340635254598997,8917.711087962834,277.37293746420033,-0.0035539912175040103,-79.98810968404814,-1.3856062443705455,-1.267702608207344e-05,0.01732092030283018,-1.5707244314949862,-0.9798533420017028,8883.932774104294,252.66764637391807
11.288589893000001,11.033000000000001,-0.06352365726431061,8915.071484410022,277.32722136745446,-0.0035407170078206327,-79.98802866265981,-1.3902641143084002,-1.2646751646025005e-05,0.01737915240473498,-1.5707242655875797,-0.9918941637042086,8877.050070871846,252.5263163212538
11.457450717,11.200999999999993,-0.06411757953574335,8901.553557336792,277.0906812363367,-0.00347320165670438,-79.9876019637812,-1.414543657390446,-1.2477224022991522e-05,0.017682693144972117,-1.5707234217512047,-0.4341606706719427,8871.042122230843,251.5783319422744
11.52489182,11.268,-0.06434988419542002,8896.194399471591,276.9957617340414,-0.0034466708779803536,-79.98742748000484,-1.4243527715525037,-1.2403827994036747e-05,0.017805326302318496,-1.57072309015913,-0.43247348215527665,8865.141866293188,251.4376593644746
11.666134945000003,11.397999999999996,-0.06479554807518857,8885.796067496465,276.8096972856439,-0.0033956212749434497,-79.98708059091116,-1.4436552396001612,-1.225258358430038e-05,0.018046645787474808,-1.5707224521230176,-0.4290934942316665,8853.341395024034,251.15410871982195
11.733333304000006,11.465999999999994,-0.06502266078493989,8880.436944926076,276.7128233343843,-0.00336953721476262,-79.98689775588959,-1.4537267925989585,-1.2170540579194642e-05,0.018172560773946515,-1.5707221261159479,-0.4274007395346871,8847.441179921507,251.01122800634474
11.800370119,11.533000000000001,-0.0652513851539345,8874.997848046205,276.6138148091014,-0.0033432334597330512,-79.9867094279044,-1.4640289886095086,-1.2084708234971314e-05,0.018301359567241413,-1.5707217973636114,-0.4252215182326686,8839.855210687438,250.82637184270212
11.969264925000004,11.700999999999993,-0.06580882393934336,8861.560135119873,276.3661817821046,-0.003279016236688348,-79.98623269079744,-1.4897897097653168,-1.1862973074211907e-05,0.018623423292855542,-1.5707209947593843,0.3864301090304166,8833.018326790758,251.8074355927084
12.037081566000005,11.768999999999991,-0.06603140183779133,8856.121083814025,276.26471737765854,-0.003253346342130725,-79.9860353187138,-1.5003258743681556,-1.1769931512415221e-05,0.01875514828333913,-1.5707206739308743,0.4052780133701819,8827.200194671563,251.68784267141348
12.105089002,11.837000000000003,-0.06622954862985558,8851.241946616256,276.1730728793283,-0.0032304877703210385,-79.98585613336728,-1.5098252464229174,-1.1685082051787259e-05,0.018873911401115395,-1.5707203882393497,0.42951361079764766,8819.719760446893,251.532972371428
12.244026027000004,11.965999999999994,-0.06666320572302481,8840.443894760452,275.9682175227803,-0.003180469972484258,-79.98545303411983,-1.5309851859835626,-1.1493573957033632e-05,0.019138458291562327,-1.5707197631067569,0.4672192007710262,8808.083578515427,251.28954081973933
12.311679984000001,12.033000000000001,-0.06687909378279913,8835.004896772385,275.86394899373727,-0.0031555747329540976,-79.98524672468345,-1.5417030372849512,-1.1395538982521693e-05,0.019272456077605037,-1.5707194519614451,0.486074642033567,8802.265510632918,251.16665014387544
12.446549818000001,12.167999999999992,-0.06729645612735519,8824.366897597716,275.6578940447012,-0.003107482685530255,-79.98483724330228,-1.5627574161543971,-1.1201635210115744e-05,0.01953568524521578,-1.570718850898892,0.5042832188422101,8794.405228947096,250.98987283836436
12.547209746,12.268,-0.06761223854152569,8816.208469095165,275.4979730455531,-0.0030711453992129214,-79.98451824451338,-1.5789660213563141,-1.1051698685042191e-05,0.01973833178652586,-1.5707183967498533,0.5227469076220764,8788.66203104916,250.86610480060946
12.615238018,12.335999999999999,-0.06780234822930649,8811.249440538108,275.39994453865944,-0.0030492935652323,-79.98432234245543,-1.5888361808588463,-1.0960311963483658e-05,0.019861732922799146,-1.5707181236424357,0.5438503834855738,8782.098396173378,250.72367330475797
12.757176304000005,12.465999999999994,-0.06821169178293945,8800.45159746306,275.18440385141065,-0.0030023291836138418,-79.9838911382239,-1.6103528364556035,-1.0761341766099012e-05,0.020130744783401374,-1.5707175366749597,0.5834249794338965,8769.791634260151,250.45399357049362
12.824665544000005,12.533000000000001,-0.0685108342217461,8792.453232931328,275.02286771219735,-0.002968081946701416,-79.98356791289997,-1.6262947015779845,-1.0614493398075025e-05,0.02033005880325822,-1.5707171086482337,0.6045346038857657,8763.228058996372,250.30865522339795
12.925457831000003,12.632999999999996,-0.0687123080194644,8787.014363468505,274.91211621854734,-0.0029450565544004398,-79.9833464564625,-1.6371281768460417,-1.051512028651454e-05,0.020465505366289643,-1.5707168208736402,0.6039940017318863,8761.063578592146,250.67271764343505
13.061970765000005,12.768999999999991,-0.06911058253668018,8776.136669825772,274.68840447086615,-0.002899642044153396,-79.98289992847148,-1.6587571795050455,-1.0318095008339097e-05,0.02073592517555354,-1.5707162532764336,0.6427391221066325,8748.91132163997,250.4185897027015
13.129600563000004,12.835999999999999,-0.06928718758363223,8771.257724367419,274.58709217863736,-0.0028795535412418738,-79.9826982221888,-1.668433484246294,-1.023065849037331e-05,0.020856905112465123,-1.5707160022072402,0.6530723820955247,8745.670732489227,250.3502209532332
13.269429917000004,12.965000000000003,-0.0696737682645873,8760.460101279941,274.3608131056758,-0.0028356943264065348,-79.98224933290066,-1.6897736758832582,-1.0039621860765091e-05,0.021123716191426466,-1.5707154540474066,0.6969943001088968,8731.898287391548,250.05690039186499
13.336744209000003,13.033000000000001,-0.06986625874620933,8755.021321452314,274.2457469108573,-0.002813906540187077,-79.98202206386446,-1.7004762417465131,-9.944827917932653e-06,0.021257528262170176,-1.570715181739586,0.7150824578919363,8726.227309153674,249.93479419467883
13.404337886,13.099999999999994,-0.07014943408567459,8746.94316231343,274.0734957205441,-0.002781925779799223,-79.98168337065363,-1.7163020504535977,-9.805988154984233e-06,0.02145539593079315,-1.570714782037483,1.5668401272053973,8722.83353333837,247.5267459613161
13.573307434,13.268999999999991,-0.07052292373885885,8736.145676207176,273.8407700892916,-0.0027398737503738077,-79.98122908473853,-1.7373031476253842,-9.624380936211943e-06,0.021717970743335015,-1.570714256461264,1.6389878108084286,8711.614626891596,247.18046861689461
13.640915558000003,13.337000000000003,-0.07068980320248265,8731.266832476233,273.7346706802294,-0.002721132052026443,-79.98102339854286,-1.7467269548653475,-9.543915306252475e-06,0.02183579624915054,-1.570714022222524,1.6802176662153203,8705.203852417852,246.98127220965046
13.712275181000003,13.397999999999996,-0.07087452054633163,8725.828135817428,273.61573541579224,-0.002700430323112509,-79.98079403633311,-1.757178249458689,-9.455399105734423e-06,0.021966468733110117,-1.5707137634863155,1.7162953849490612,8699.594442846828,246.80616209736505
13.847795104,13.533000000000001,-0.07123708278453594,8715.030769465315,273.37751159422845,-0.002659882259672446,-79.98033847457077,-1.777754506313365,-9.283557376369864e-06,0.02222373467370154,-1.5707132567031898,1.7884549970611285,8688.37567156827,246.45380691416557
13.914951858000002,13.599999999999994,-0.07141499345568103,8709.672099309997,273.2582517382383,-0.002640034963233678,-79.98011254528639,-1.7878711479670488,-9.200214584205805e-06,0.022350224077792434,-1.5707130086442147,1.8776767555323017,8685.287681851914,246.3212060267746
14.051429081000002,13.736000000000004,-0.07177206722768266,8698.794844914148,273.01410051978655,-0.0026002922219659627,-79.97965476393391,-1.8081969143431025,-9.035051252859516e-06,0.02260436029487044,-1.5707125119224576,1.9522159333893911,8674.167917486677,245.96627658275656
14.119352467000006,13.804000000000002,-0.07194858457177772,8693.356240946021,272.8909912185748,-0.0025806907351722383,-79.97942650457283,-1.818246990633718,-8.954500457341603e-06,0.022730018501621554,-1.570712266933608,1.9841629623547337,8669.402323825621,245.81330765508972
14.256579865000006,13.930999999999997,-0.0722746705824927,8683.198889948944,272.65922662796174,-0.0025445670329729136,-79.97900189079931,-1.8367939290688766,-8.807774325705896e-06,0.02296191571667139,-1.5707118154400401,2.058709799309769,8658.282650040359,245.45444497497624
14.324510935,13.998999999999995,-0.07244487099800594,8677.840308898998,272.5360177002699,-0.0025257429925096813,-79.97877883658943,-1.8464632851590688,-8.732203731208597e-06,0.02308281468548445,-1.5707115801658063,2.09598529500778,8652.722837938136,245.27394862162038
14.392326072000003,14.066000000000003,-0.07261632947280619,8672.401764159946,272.41031114550157,-0.0025068052193194215,-79.97855331314011,-1.8561887964228263,-8.656819748690306e-06,0.02320441611980021,-1.5707113434691875,0.8660527394222242,8649.215762703701,246.4547979643553
14.561939125000002,14.235,-0.07303690734009663,8658.885446819044,272.0950461011518,-0.0024604466233321223,-79.97799714185166,-1.879958228296575,-8.475104081628191e-06,0.023501615010224505,-1.5707107640452191,0.8875939676479064,8636.807883634583,246.112119797434
14.629769440000004,14.302999999999997,-0.0732039345014195,8653.44695488151,271.96706681897524,-0.0024420705685155412,-79.9777753538583,-1.889353719824001,-8.404186672100816e-06,0.023619091240911317,-1.5707105343659924,0.897200423912438,8631.275733412323,245.9582730779546
14.769500081000004,14.430999999999997,-0.07351251742960697,8643.28981182606,271.7263282997787,-0.002408177570879139,-79.97736483829928,-1.9066200476215325,-8.275114926374887e-06,0.023834981092891727,-1.5707101107403059,0.9164172245943817,8620.211479915477,245.6486169335843
14.836471670000002,14.497,-0.07367359761609722,8637.931339697016,271.5984514025521,-0.0023905050117245517,-79.97715025612776,-1.9155844104536823,-8.208650967215314e-06,0.02394706760384118,-1.5707098898509688,0.9246545789154729,8615.469676098224,245.51511315511055
14.903884010000006,14.564999999999998,-0.0738358779502496,8632.492904901195,271.46805557431287,-0.002372712590611767,-79.976933985208,-1.92457735807096,-8.142320527689728e-06,0.024059511828270076,-1.570709667462367,0.9342659396400933,8609.937585084339,245.35880344214473
15.039260637000005,14.700000000000003,-0.07423397910137662,8618.976857846419,271.1413563926897,-0.0023291183722527003,-79.97640388883038,-1.9464440177349014,-7.982186475490784e-06,0.02433292508330446,-1.5707091225704537,1.2184877875767843,8598.192926112735,244.64610054900803
15.141193749000003,14.801999999999992,-0.07439209294808309,8613.538473355047,271.0088680190931,-0.0023118215996035855,-79.97619378635895,-1.9550433065982835,-7.919573307263433e-06,0.024440448156854085,-1.570708906372925,1.2357746659857827,8591.884585464171,244.4565335086758
15.215664998000001,14.864999999999995,-0.07453751456398991,8608.499982924615,270.88559195350433,-0.0022959260666159487,-79.97600101317121,-1.9628991705233851,-7.862501599564444e-06,0.024538675911175162,-1.5707087076887989,1.2509019262209211,8586.364802226148,244.29006030536218
15.350697835000005,15.0,-0.07484353818706424,8597.783233264743,270.6217670435248,-0.002262486068297933,-79.97559667143162,-1.9792774555654362,-7.743710669192592e-06,0.024743466635694426,-1.57070828970638,1.2833215167260297,8574.536743179662,243.9313980802351
15.418481541000006,15.066999999999993,-0.07499712925678093,8592.344903116415,270.4870530664133,-0.0022457116770967017,-79.97539472745741,-1.9874071259424615,-7.684763227221315e-06,0.02484511875508766,-1.570708080033397,1.027198585294653,8569.236760735572,243.72655741517926
15.520000561000003,15.167999999999992,-0.07522315410304264,8584.267408414154,270.2859468499234,-0.002221033806768961,-79.97509902025874,-1.9992516585663656,-7.598788058518128e-06,0.024993221390431482,-1.570707771567775,1.0363819520448752,8563.734053565297,243.55219052586236
15.655350821000006,15.304000000000002,-0.07552359131999427,8573.390828244841,270.0132820427817,-0.0021882400414408626,-79.97470795520678,-2.0147594198206984,-7.48577034485226e-06,0.025187129828830413,-1.5707073616516696,1.0547521827979003,8552.729017467354,243.18906081628006
15.726995616000004,15.364000000000004,-0.07565469700982712,8568.592419868308,269.8916237629045,-0.002173904939578677,-79.97316855973767,-2.0748569219526543,-7.440893878247368e-06,0.025938594269107006,-1.570707182929485,1.0639389655683167,8547.22668224826,243.00081140417677
15.861769853000006,15.498000000000005,-0.07594445235411504,8557.876301343089,269.6072366756907,-0.0021421764717281812,-79.96968279551092,-2.204924557038348,-7.341853158207868e-06,0.02756502207625847,-1.5707067873581595,1.0810032727389076,8537.008407751393,242.6390531446629
15.929251474000004,15.566000000000003,-0.0760898743713947,8552.438447240302,269.4563377386501,-0.0021262326391722403,-79.96790551909763,-2.2683764253005623,-7.291851413828099e-06,0.028358480798907452,-1.5707065885756126,1.0901933436191262,8531.506437885098,242.43825537949985
16.064914098000003,15.700999999999993,-0.0763753752377769,8541.643061304578,269.1441515019311,-0.002094894765907707,-79.96438212671245,-2.3891927352763043,-7.19308410365114e-06,0.029869325584418044,-1.5707061978492551,1.2276776263251066,8522.081741408101,244.00985674042823
16.132490076000003,15.768999999999991,-0.07651758707211098,8536.205562823945,268.98080044175634,-0.0020792668469198357,-79.96261721031362,-2.447472144572059,-7.143576228342435e-06,0.03059815159514279,-1.5707060029871722,1.2393907423065835,8516.6084518974,243.83925175287635
16.201238433,15.835999999999999,-0.07664423347346778,8531.327910050259,268.83082808025785,-0.002065340215688927,-79.96104514758895,-2.4982316662084467,-7.099286571599975e-06,0.031232949352554155,-1.5707058293306972,1.2511049789503288,8511.135285731683,243.66485709787096
16.374463452,15.998999999999995,-0.07699075058797485,8517.814897271443,268.399726990499,-0.002027195607891866,-79.95675999125486,-2.6316458560799645,-6.97715552726065e-06,0.03290148568591092,-1.5707053536495206,1.2778843562850826,8498.625623984091,243.25331365531378
16.442255357,16.066000000000003,-0.07712432597093025,8512.537819732766,268.22531409715174,-0.002012473852757885,-79.95512250017963,-2.680873780861334,-6.9296596313289636e-06,0.03351717466323947,-1.5707051700435364,0.7846709594601581,8492.486009725144,244.50954981823313
16.543216788000002,16.167,-0.07732686828504666,8504.462496326643,267.95222587388895,-0.001990134543991215,-79.9526651172719,-2.7531009400041033,-6.857181887102753e-06,0.03442053598090284,-1.5707048914104638,0.785518573384446,8484.905970171381,244.29170263317192
16.611035997000002,16.233999999999995,-0.07746196770704361,8499.025781786757,267.76430705357205,-0.0019752239279710467,-79.95104825514782,-2.7996079889626015,-6.808523670824421e-06,0.03500222495112432,-1.5707047054170271,0.7861315871798258,8479.435974761818,244.13068669677395
16.749651969000006,16.364000000000004,-0.0777174151957001,8488.632363184784,267.39636015695163,-0.0019470134679959103,-79.94805538161324,-2.8837113800996956,-6.715790405004786e-06,0.036054182195573145,-1.5707043534820113,0.7873606338012223,8468.496282714994,243.80047453294426
16.818247187000004,16.432000000000002,-0.07784958710063414,8483.195956119458,267.19963384977774,-0.001932405215446818,-79.94654263959899,-2.925303567309158,-6.66744250707232e-06,0.0365744280071478,-1.5707041712175656,0.7879767027348041,8463.026584780038,243.6313791874322
16.919605293000004,16.533,-0.07804406943949967,8475.121478118319,266.9022889668659,-0.0019109004777578351,-79.94437202333414,-2.983970321894473,-6.595822501965168e-06,0.037308263831329146,-1.5707039028775815,0.7886820970017285,8456.775622525287,243.4349208948721
17.054869611,16.667,-0.07829875623452218,8464.409131498365,266.49888235394326,-0.0018827232369044578,-79.94164279399699,-3.056136564871614,-6.501206749207066e-06,0.03821098631081998,-1.5707035512210004,1.1678699151267538,8446.928741810581,243.5081513230783
17.122675735,16.735,-0.07842656362206486,8458.973150851694,266.2905428645065,-0.001868576942399155,-79.94032685075939,-3.090330961723171,-6.453391154976423e-06,0.038638732471741,-1.5707033746480095,1.176559685714171,8441.476043025366,243.3385536921366
17.190147894000006,16.802999999999997,-0.07855341066977115,8453.5372574746,266.0799028028971,-0.001854533792043411,-79.93906009449586,-3.1228934628776153,-6.4056811455506324e-06,0.03904607143293197,-1.5707031993452154,1.1889753545091246,8433.686609071881,243.09281340372803
17.364026447,16.967,-0.07885358244032785,8440.5074376492,265.56624388456726,-0.0018212979097357285,-79.93623684562479,-3.1942684266627874,-6.291951086609287e-06,0.03993895581223416,-1.5707027843846593,1.2063606780877867,8422.781652691105,242.74245039290372
17.431042417,17.033,-0.07897540522020935,8435.15175011026,265.3518260535983,-0.0018078066788910685,-79.93516460430666,-3.2209621659899224,-6.245462515088707e-06,0.04027289649835127,-1.5707026159131132,1.2162968798693978,8416.550367690912,242.53928401251815
17.498434393000004,17.099999999999994,-0.07909632558944187,8429.796132261805,265.13564211824314,-0.0017944140849894433,-79.93414521573953,-3.2461365079821514,-6.199145814606472e-06,0.04058783353343727,-1.570702448656184,1.3831948227191364,8410.85656506267,241.12523907253004
17.633328670000004,17.235,-0.07933726029270394,8419.00515890088,264.6951019519241,-0.0017677285339514316,-79.93225601221037,-3.292282640508771,-6.1063531096121665e-06,0.04116514317279367,-1.570702115334659,1.4074615056211086,8399.931501795376,240.7088901380269
17.701160469,17.302999999999997,-0.07945726138876427,8413.569797813218,264.47090455036476,-0.0017544380670850026,-79.93138933564357,-3.3132373063230727,-6.059920510353521e-06,0.04142730033968913,-1.57070194930101,1.4195962936940458,8394.469045943473,240.49885971979364
17.840429396000005,17.432000000000002,-0.07973950349037326,8400.621071160675,263.9313095377013,-0.0017231905814512369,-79.92956387760911,-3.35694329588779,-5.95016206633177e-06,0.04197410134215829,-1.5707015588645135,1.442134654257935,8384.32459113056,240.1062155933343
17.941667612000003,17.533,-0.07985476429986983,8395.265814597535,263.70615651248715,-0.0017104307851695418,-79.9289043033977,-3.372596417848452,-5.905161177036908e-06,0.04216993892825557,-1.5707013994030898,1.4542720364566784,8378.862246124572,239.89348154539158
17.97537302,17.566000000000003,-0.07996917170994906,8389.910600055231,263.4799761719916,-0.0016977693153217596,-79.92830288041908,-3.3868064018536876,-5.860400972788799e-06,0.042347722691638744,-1.5707012411537637,1.3775144432530155,8371.445153672337,239.7424162591939
18.144339673000005,17.735,-0.08019713149554522,8379.120354415812,263.02150853849685,-0.0016725466016596928,-79.92726310955557,-3.411234014447311,-5.7709561651066105e-06,0.04265334424404285,-1.5707009258592395,1.397801198251685,8360.493313010831,239.31786941249078
18.211721206,17.801999999999992,-0.08030900510373326,8373.765243484533,262.79280171857323,-0.0016601737797440376,-79.92683385724173,-3.421267670367744,-5.726955304481839e-06,0.04277887962736346,-1.5707007711697667,1.4093951727415288,8354.235151103483,239.07445806029452
18.314980375000005,17.897999999999996,-0.08046949802120346,8366.012368098529,262.4605531089382,-0.00164243333817699,-79.92631571148733,-3.433339749362046,-5.663751345037244e-06,0.042929919501985256,-1.5707005493444584,1.419540883132085,8348.759273825539,238.86110648264943
18.450450545000002,18.033,-0.08069002955130032,8355.222354772943,261.99639820285415,-0.0016180646859307558,-79.92578690886882,-3.445617369742492,-5.576792279561577e-06,0.043083531994857475,-1.5707002445894176,1.441284532183509,8337.025273848347,238.4033037565924
18.517406349000005,18.099999999999994,-0.08079825929017538,8349.867333676004,261.7654751572329,-0.00160611182706011,-79.92560865973816,-3.449746221396641,-5.534084817827593e-06,0.04313519069901028,-1.5707000950847618,2.065287775344711,8331.744063903127,236.20043638521176
18.653427317000002,18.236000000000004,-0.08101550358974728,8338.997466938303,261.29603329940926,-0.0015821311088113222,-79.9254135868274,-3.4542597349671023,-5.448331184885447e-06,0.04319166227190859,-1.5706997950950843,2.112296905322228,8320.790579730045,235.68634816557258
18.721097057,18.304000000000002,-0.08112290653716007,8333.562539573511,261.0611331775667,-0.001570282137187576,-79.92539898056968,-3.454597964798605,-5.405941140593075e-06,0.043195894084149394,-1.5706996468483059,2.1358027037584417,8315.313823259008,235.4295949014872
18.858963362000004,18.429999999999993,-0.08131977368053013,8323.491933068506,260.6259392860626,-0.0015485823628147175,-79.92551970642573,-3.451806232102196,-5.3283175657129954e-06,0.0431609648217001,-1.570699375318675,2.182816843112769,8304.360259628298,234.91718314862226
18.926786148000005,18.498000000000005,-0.08142335567529611,8318.136919281469,260.3947005387694,-0.0015371458961717737,-79.92564213060588,-3.4489740024295568,-5.2874916482475445e-06,0.04312552890264829,-1.570699232200163,2.206325121785084,8298.883446138063,234.6616758362336
18.993858362000005,18.564999999999998,-0.0815261734922051,8312.781894808386,260.16367827919237,-0.0015258206341010805,-79.92582771583523,-3.4446753664239043,-5.246950788935273e-06,0.043071745914899304,-1.570699090458349,1.7930491260181016,8294.491419273527,236.6694186778949
19.128330606000006,18.698999999999998,-0.08173105187960313,8301.991873773097,259.6991880223532,-0.0015032677461047693,-79.92634854915283,-3.432582155679235,-5.166334984626278e-06,0.04292044069426506,-1.5706988081630575,1.8244665476785542,8282.22242596802,236.20926605145684
19.229834684000004,18.799999999999997,-0.0818823482995876,8293.919286200731,259.35285822388755,-0.0014866249781435223,-79.92686210140577,-3.4206158472634356,-5.106939248562474e-06,0.04277072419852831,-1.5706985998172378,1.838475630037918,8276.752116535976,236.00541649062978
19.304477102,18.864000000000004,-0.08197734319554764,8288.803953826891,259.1340588055371,-0.0014761829963823297,-79.92724203080348,-3.4117363967349936,-5.069736779705349e-06,0.04265962954627747,-1.5706984690852304,1.852485460300577,8271.28176967941,235.8024278793651
19.440415324,19.0,-0.08217555862674646,8278.013713130531,258.674489165413,-0.0014544024876629472,-79.92816818495301,-3.3899921210429724,-4.992287063988874e-06,0.042387579749308076,-1.5706981963701754,1.880507514118558,8260.340942738834,235.39954190026148
19.507943347,19.066999999999993,-0.0823219381110378,8269.940926145146,258.3326846885109,-0.0014383303061589095,-79.92897084497677,-3.3710335731074705,-4.9352788191664694e-06,0.042150385680529354,-1.5706979951066344,1.52091459207096,8252.272792772419,234.1224088441376
19.609127769000004,19.167999999999992,-0.08241814701994003,8264.58566413477,258.1070256712651,-0.0014277710403355613,-79.9295518792691,-3.3572429203085106,-4.8979058553543654e-06,0.041977849643792704,-1.5706978628686605,1.526706117029052,8246.774574218261,233.9015608677564
19.744274785,19.302999999999997,-0.08261127604770274,8253.715155158088,257.651916140991,-0.0014065867872282854,-79.93084483717188,-3.326349059024138,-4.823103363129895e-06,0.0415913384559199,-1.5706975975474329,1.5391190359768916,8234.992495092298,233.4326608185968
19.815706080000005,19.364000000000004,-0.08269695224764022,8248.83935175131,257.4492039932599,-0.001397197918784683,-79.93147437735232,-3.3112041065769886,-4.79004570822371e-06,0.041401863136038185,-1.5706974799473605,1.545740636879808,8228.708612179109,233.18516631209098
19.916953573,19.464,-0.082836188223652,8240.84614682736,257.11889538425373,-0.0013819401134717274,-79.93256156051994,-3.2848825230804377,-4.736431683848795e-06,0.04107256292796165,-1.5706972888261248,1.5523631871190562,8222.424650303505,232.93959242959687
19.984194813000002,19.531999999999996,-0.08293000266729944,8235.410703820742,256.8958055960553,-0.0013716631181743223,-79.9333400228155,-3.2659044866289824,-4.700423660379197e-06,0.04083513807317184,-1.5706971600881738,1.560642717552261,8214.569580458956,232.6355104173937
20.153622117000005,19.700999999999993,-0.08315879523991983,8221.98172533816,256.3503631963812,-0.0013466134579498221,-79.93539084628965,-3.2153716660239153,-4.612944672965131e-06,0.04020295808319442,-1.5706968462740645,1.9480720884820206,8204.116963980743,232.6307478392074
20.220458759000003,19.766999999999996,-0.08324886986864853,8216.626021889188,256.1352492744277,-0.001336757159134929,-79.93625563601954,-3.1938232377452977,-4.5786331039452295e-06,0.03993338601728043,-1.5706967227898256,1.9638078002682215,8197.821160708747,232.40235891301006
20.36113915,19.89699999999999,-0.08342175725081531,8206.234187985898,255.72207921111638,-0.001317847312430252,-79.93800231964524,-3.149851795010839,-4.5129953509142926e-06,0.03938330974120725,-1.570696485868007,1.9913474694544302,8186.803284608611,232.00829417006787
20.429105522,19.965000000000003,-0.0835099078489423,8200.878306609871,255.51138730844525,-0.0013082073504603919,-79.9389337683791,-3.1261495168065374,-4.479641833200727e-06,0.0390868027123839,-1.5706963650843333,2.0051183339281673,8181.294238359728,231.81405265393064
20.497136574000002,20.031999999999996,-0.08359871728017494,8195.442422164962,255.29917944249826,-0.001298497918619946,-79.93989958054998,-3.1013809998620325,-4.446110463424955e-06,0.038776961107273925,-1.5706962434274656,2.016922467217027,8176.572140729221,231.64907366683866
20.632862800000005,20.167999999999992,-0.08377436380047819,8184.570452273578,254.87989418590806,-0.0012792991286658044,-79.94188628847563,-3.049798604476506,-4.380003287912616e-06,0.03813170340773552,-1.5706960028644454,2.216756734934547,8164.704329909292,231.5485399110062
20.701090929000003,20.236000000000004,-0.08386121085546329,8179.134364434611,254.67290862590534,-0.0012698088534846943,-79.94290436845502,-3.023024203015649,-4.347416584314183e-06,0.03779678169783569,-1.5706958839474785,2.234155565695741,8159.188658786891,231.36841098193094
20.876200670000003,20.397999999999996,-0.08406550891635553,8166.183398819819,254.18729744684398,-0.0012474934005979018,-79.94538736890557,-2.956710647504249,-4.271037044872612e-06,0.03696728180594206,-1.5706956043204192,2.268955180439199,8148.15708683462,231.01441573333764
20.943324812,20.465000000000003,-0.08414895379941795,8160.827016667644,253.98961593778927,-0.0012383794824817008,-79.94643309191507,-2.928331901982922,-4.239951014541114e-06,0.03661230693143368,-1.5706954901159973,2.2863559640358546,8142.641183825719,230.84065458637127
21.078026173000005,20.599999999999994,-0.08431524423977121,8150.034091309206,253.59713123855593,-0.001220218913526671,-79.94856688890506,-2.86955389569056,-4.178147892930786e-06,0.03587709828622838,-1.570695262549413,1.3413819905826592,8132.692131421265,230.79893731308204
21.146635579000005,20.667999999999992,-0.08439808070283722,8144.597544870882,253.40245719100005,-0.0012111730079102433,-79.94965251677483,-2.839181613574739,-4.147429539599889e-06,0.0354972025370111,-1.5706951491971335,1.337435768415957,8127.194459536371,230.63805858733846
21.214605850000005,20.736000000000004,-0.08448030308429519,8139.160924080033,253.20985588730068,-0.0012021946037209731,-79.95074368818415,-2.8083232140272085,-4.116981364591509e-06,0.03511123170410802,-1.5706950366911774,1.333490198974881,8121.696705564008,230.47956555621616
21.354564356000004,20.864000000000004,-0.08463341035800069,8128.927080281672,252.85310087031667,-0.0011854803389633503,-79.95280947335394,-2.7489585514406714,-4.060397538751425e-06,0.034368724737946284,-1.5706948272510348,1.325600896945426,8110.700964292032,230.16947269089636
21.422269396000004,20.932000000000002,-0.08471270727761113,8123.5701972688585,252.66938818361407,-0.0011768221082536078,-79.95389323501982,-2.717293948363596,-4.031160014790009e-06,0.033972685699910445,-1.5706947187597553,1.3216572013709666,8105.2029712834465,230.0181023338636
21.557171708000006,21.066999999999993,-0.08487073206652461,8112.7762563511305,252.3057015405082,-0.0011595681188234842,-79.9560776525154,-2.6523219857554,-3.972982375624442e-06,0.03316007783017982,-1.5706945025642844,1.3137716957204324,8094.2067418742545,229.7228422667541
21.624583313000002,21.132999999999996,-0.08494829573703996,8107.41915335549,252.12848046006238,-0.0011510997079096801,-79.95716000854404,-2.619532436628589,-3.944465104806944e-06,0.032749985523655656,-1.5706943964561124,1.1992945414178549,8088.460627019992,228.68733587215155
