Real_time_s,Simulation_time_s,x_ft,y_ft,alt_ft,vx_fps,vy_fps,vz_fps,roll_rad,pitch_rad,yaw_rad
0.0,0.0,0.00045504444899917084,4061.1859958680748,281.330933469035,0.0005834860925184815,24.374830380635633,0.668655049174719,0.0001393395116159775,-0.027425313226344093,1.5708887155392381
0.06748374300000393,0.06799999999999784,0.0005894390240473163,4066.623984870252,281.4811655585421,0.0006753617387683675,24.374240180856052,0.6898341466101673,0.00014333927802034308,-0.028294215828891897,1.5708849455849971
0.10141849600000086,0.10200000000000387,0.00066436760250247,4069.34292934997,281.5580509158724,0.0007222432719372714,24.373944176034833,0.7002148112565048,0.00014491665428458485,-0.0287201051269309,1.5708830218203054
0.16948273500000255,0.1700000000000017,0.000830019061780592,4074.780717957346,281.7152825752624,0.0008174212973618978,24.37335125319492,0.7205581310378307,0.00014728328723096198,-0.029554749160305857,1.5708791160959164
0.2041562520000042,0.20399999999999352,0.0009208433723449153,4077.4995620213,281.7955977898067,0.000865537666675411,24.37305468548755,0.7305207382943548,0.0001480914739397407,-0.02996350165982982,1.5708771415254186
0.2718133420000015,0.269999999999996,0.0011126960922516452,4082.7772215573127,281.9546958701586,0.0009595533746827066,24.372479841144823,0.7494541161719801,0.00014897774423530008,-0.030740326783483114,1.57087328323435
0.3386652080000019,0.33799999999999386,0.001331582982099971,4088.2146793925294,282.12284412066685,0.0010567411322944952,24.37188936722754,0.7684162640913758,0.0001490444164109649,-0.0315183509238943,1.5708692945815326
0.4760913730000027,0.4650000000000034,0.0017990907921431683,4098.369572009326,282.4481426028052,0.0012371385962552757,24.37079743119414,0.8023010888621749,0.0001470339133102372,-0.03290870600950567,1.5708618904408658
0.5434605710000042,0.5319999999999965,0.0020757698329282757,4103.726693714459,282.6253425848256,0.001330862822495049,24.37022799008366,0.8194156089236998,0.00014503962420305106,-0.03361096946055747,1.5708580434052248
0.6110431020000036,0.5999999999999943,0.002377537970493781,4109.163643592194,282.80899308138805,0.001424399804642467,24.369656558798056,0.8362375125026208,0.00014241858980756943,-0.034301242080738654,1.5708542038684918
0.7457048939999993,0.7330000000000041,0.0030277173707027555,4119.797305915996,283.17888599029584,0.0016012716459206163,24.368562407049527,0.8675365408224709,0.00013578326455701228,-0.03558561507011134,1.570846943046142
0.8136010240000005,0.8010000000000019,0.003389593094922327,4125.2338805283935,283.37319138868565,0.0016880063267491975,24.36801679667253,0.8827290341435808,0.00013174791351360687,-0.036209068503093446,1.5708433822090495
0.953721637000001,0.9309999999999974,0.004134752451389571,4135.626989815274,283.7539726483068,0.001845513514589749,24.367005205374046,0.9102252003512844,0.00012304885908448566,-0.037337462994100526,1.5708369153793613
1.0212819720000041,0.9989999999999952,0.004550753063808747,4141.0632138550245,283.9577234661978,0.0019233350209982695,24.36649303671056,0.9238340720705828,0.00011809058892950999,-0.03789596475703295,1.570833719995319
1.1563267810000042,1.1329999999999956,0.00542027254452058,4151.775437731693,284.36794533566643,0.002066534464906924,24.36552335716067,0.9490644135640492,0.00010770614803145334,-0.038931437656507584,1.5708278397195559
1.2232756160000022,1.2000000000000028,0.005878213219424887,4157.131389203385,284.5771488585137,0.002132876345065513,24.365059561631735,0.9608975018059935,0.00010229050044644427,-0.0394170911513613,1.570825115276278
1.358380626000006,1.3349999999999937,0.00684384761672416,4167.922923268846,285.00637688718746,0.0022555900676546094,24.36417064373047,0.9831783945433112,9.110692616597928e-05,-0.04033156868164999,1.5708200754351314
1.4325019950000026,1.3969999999999914,0.007305369524686476,4172.878901117668,285.2067965568597,0.0023067949722714322,24.36378486421862,0.9926921822848896,8.590541246965313e-05,-0.04072205452855763,1.570817972287952
1.500086526000004,1.4650000000000034,0.00782309805970471,4178.314400815643,285.42876440062713,0.0023595363586207136,24.363376833750795,1.0026563166130105,8.019376385659111e-05,-0.04113103115493524,1.570815805920541
1.6354758189999998,1.5999999999999943,0.008884472828874153,4189.105198041783,285.8758429643464,0.002453108432088383,24.362618705578623,1.0209112541497891,6.892728466854817e-05,-0.04188032065848301,1.5708119621010281
1.7033048850000014,1.6679999999999922,0.0094342825384566,4194.540435562697,286.10403070383353,0.0024947171996694347,24.36226373270876,1.0293471690007407,6.333511023729517e-05,-0.042226587914603486,1.570810252714861
1.8725279350000008,1.8359999999999985,0.010829971588714356,4207.968335630045,286.67552403462145,0.0025819690666026365,24.361467436734884,1.048023693597637,4.991443797220579e-05,-0.042993217458071865,1.5708066678149104
1.9476116230000002,1.8979999999999961,0.011356747370757266,4212.923758789752,286.8889805434458,0.002608597818066951,24.361204172814933,1.0541254411321301,4.5148024876864066e-05,-0.04324368600197429,1.5708055735890718
2.015465320000004,1.965999999999994,0.011940441735724512,4218.3586782746515,287.12447004909893,0.0026348202167776223,24.360932534282522,1.0603844198487535,4.0041333251451586e-05,-0.04350061149741975,1.5708044959828906
2.150611062000003,2.0990000000000038,0.01309786264179939,4228.988568265219,287.58893963244395,0.0026767063591117066,24.360458258790715,1.0712246528896914,3.049126963484434e-05,-0.04394560021391101,1.570802774445092
2.2516463400000006,2.200000000000003,0.013987986529197236,4237.060755244415,287.9446621841817,0.0027006576755625906,24.3601486309699,1.078242729399896,2.3659331759542877e-05,-0.044233695053421736,1.570801789830998
2.319718563000002,2.2680000000000007,0.014591479255583677,4242.4954372155935,288.18542700909546,0.0027131961928445977,24.359964667273545,1.0823908941556297,1.927402145340752e-05,-0.04440398060050507,1.570801274275364
2.460578536,2.397999999999996,0.015752099411544394,4252.885158065902,288.6481528416806,0.0027294740723009716,24.359668983085523,1.0890250614530947,1.1404917994373649e-05,-0.04467632127074808,1.5708006046923144
2.561739681000006,2.4989999999999952,0.016657762382710394,4260.957087891165,289.00946283014235,0.002735809462350683,24.35948813907662,1.0930627235123476,5.746240789708568e-06,-0.0448420738616411,1.5708003437812585
2.6294076400000037,2.566999999999993,0.017268476388526938,4266.39162082121,289.253435882483,0.002737166950372971,24.359390486902328,1.0952367846862334,2.171843731845177e-06,-0.044931323123436256,1.5708002876033598
2.764667024000005,2.701999999999998,0.01848096802926502,4277.180705666291,289.7390739074388,0.002733400014017762,24.359253966631144,1.0982689641840457,-4.368436009219633e-06,-0.04505580035788429,1.5708004416141796
2.8653826670000058,2.8019999999999925,0.01937736440852561,4285.172583977806,290.09954131873536,0.002725544488178518,24.359201181815997,1.099439109374404,-8.74120713301192e-06,-0.045103837445166196,1.5708007638578212
2.936602451000006,2.8640000000000043,0.0199316716453384,4290.127539690335,290.3231965546527,0.002718676563414719,24.359188995085997,1.099709102662725,-1.1252462547582506e-05,-0.04511492131058588,1.570801045745617
3.0722542860000033,2.9989999999999952,0.02113323302742564,4300.91655062829,290.8102329140986,0.002699021194082459,24.359214690843412,1.0991398276304265,-1.621305040095133e-05,-0.04509155134941333,1.5708018527597976
3.139417946000002,3.0660000000000025,0.021726121349616843,4306.271101483545,291.0518050570621,0.0026871052424285433,24.359253280322434,1.0982843004278848,-1.8422261487446063e-05,-0.04505643011039627,1.5708023421107922
3.2065460230000014,3.1329999999999956,0.022316313057666945,4311.6256605059325,291.2931707828942,0.0026738712048241364,24.359308857315643,1.0970509761706981,-2.046840974051836e-05,-0.04500579957041439,1.5708028856469858
3.3759185600000023,3.3019999999999925,0.02379121269997712,4325.1319971308,291.9005283525054,0.0026354000615676355,24.359520880867464,1.0923330578395358,-2.4945347406359945e-05,-0.04481212018287972,1.5708044659084157
3.4472731359999997,3.3640000000000043,0.024326696229282796,4330.087015237586,292.12262316199474,0.0026196330836849363,24.359624336762664,1.0900235361324797,-2.63486248403182e-05,-0.04471731059500013,1.5708051136264813
3.5157400010000046,3.432000000000002,0.02491034083499504,4335.521574600711,292.3656659379153,0.0026014719734825695,24.35975275559216,1.0871499062980783,-2.7753398188188795e-05,-0.04459934401267434,1.5708058597308845
3.6516389390000015,3.567999999999998,0.026065156431162105,4346.390781608414,292.8497040328361,0.0025628505414499736,24.360053604774215,1.0803878027470495,-3.015396208948045e-05,-0.04432175250750874,1.5708074464908537
3.7192725049999993,3.6359999999999957,0.0266359941428356,4351.825435829466,293.0905472522619,0.002542518681641181,24.360225718560905,1.076500105138658,-3.116141504875404e-05,-0.04416215995127997,1.5708082818676012
3.8545961390000016,3.771000000000001,0.027755579990300618,4362.614938959702,293.56599804372576,0.0025005170421509284,24.360608085846003,1.0678124532096465,-3.280823400937015e-05,-0.04380553015163096,1.57081000766794
3.9231726630000026,3.8389999999999986,0.028312408325792945,4368.049715983477,293.80398789584035,0.0024786856794693835,24.36082004646995,1.0629659070853248,-3.347268949900752e-05,-0.04360658091352857,1.5708109047280001
4.059304137000005,3.9650000000000034,0.02933102991909195,4378.120165946295,294.24198124061684,0.0024372887915118198,24.361246309796684,1.053151600217688,-3.442765437127113e-05,-0.043203711890391454,1.570812605801003
4.1273220120000005,4.0319999999999965,0.029865723714102187,4383.475159006032,294.4732108384426,0.0024149159967726797,24.361488609873206,1.047531803430848,-3.480844016706883e-05,-0.04297302713058475,1.5708135251633677
4.262850735000001,4.167999999999992,0.030935896724925565,4394.345160494808,294.93867802082485,0.002368976257629791,24.362012294989686,1.0352812790365769,-3.532702148632872e-05,-0.04247016823023178,1.5708154130062033
4.330476905000005,4.234999999999999,0.031455534255756805,4399.70032095838,295.16593935028993,0.0023461812100753587,24.362285056354835,1.0288427131220481,-3.546766353403526e-05,-0.042205882619296115,1.5708163497644212
4.397936680000001,4.302999999999997,0.03197781456836928,4405.135469946743,295.3951376056727,0.0023229961429418705,24.362571210266776,1.022044337771038,-3.554025370352572e-05,-0.04192683100921595,1.570817302563058
4.536557942000002,4.430999999999997,0.03294675920372807,4415.366514095882,295.8223349641342,0.0022793666913507597,24.363134003304868,1.0085397074473181,-3.550050031690734e-05,-0.04137251870227811,1.5708190955636747
4.604029414999999,4.498000000000005,0.03344668097565308,4420.721919829593,296.0436703126661,0.0022566054365604727,24.363439571406232,1.0011309395725922,-3.539840673989409e-05,-0.041068423142046256,1.5708200309752391
4.738735144000003,4.632999999999996,0.03443883145838232,4431.51286705083,296.48461873602963,0.0022110560003355544,24.364076243427146,0.9855150509764384,-3.5044664426181695e-05,-0.04042747574768183,1.5708219029282793
4.806601535000006,4.700000000000003,0.03492374381799228,4436.868478864831,296.7008599191363,0.002188663815929058,24.364401799653898,0.9774334528618117,-3.480340227724248e-05,-0.04009577658788747,1.5708228231942138
4.942021368000006,4.8359999999999985,0.03589300114390121,4447.739791213126,297.13426983201805,0.002143762226616498,24.365079092690138,0.960402109138662,-3.420165702583412e-05,-0.039396760637944964,1.5708246685578624
5.047771793999999,4.932000000000002,0.03656508553824091,4455.4138420986255,297.43553580692384,0.002112605393921825,24.365569426583324,0.9478808233355027,-3.3698189392351704e-05,-0.03888286290226311,1.57082594905226
5.148858601000001,5.0319999999999965,0.037254842997932094,4463.407808083195,297.7451440518935,0.0020806642972214374,24.366088432971726,0.934444298734877,-3.3117647669228e-05,-0.038331413422049244,1.5708272617823478
5.216492826,5.099000000000004,0.03771114294058771,4468.76386009209,297.9501028858563,0.0020595859663082583,24.36644035514585,0.925222231264317,-3.270201782190797e-05,-0.037952936571656104,1.570828128071483
5.283597369000006,5.165999999999997,0.038162821333784805,4474.119989095513,298.15302628435006,0.0020387802496357865,24.366795102335743,0.9158320174368151,-3.22680117931266e-05,-0.037567564524047026,1.5708289831573556
5.452577842000004,5.334999999999994,0.0392820343833412,4487.6305704355755,298.65560623530996,0.001987571467691688,24.367699456268888,0.8914456004230495,-3.110955892587776e-05,-0.03656677793980177,1.5708310877651692
5.528866142000005,5.397999999999996,0.03969197269224953,4492.667188352803,298.8394420106716,0.00196898093047321,24.368039301732438,0.8821069732965297,-3.065987301024743e-05,-0.03618354268087671,1.5708318518093
5.596199897000005,5.465000000000003,0.04012379446576117,4498.023667191992,299.03285513790274,0.0019494923868129282,24.368401358880146,0.8720478266752225,-3.0175043838057125e-05,-0.035770744944510185,1.5708326527563419
5.766029872000004,5.634999999999991,0.041200497246868334,4511.615087880006,299.5136089590132,0.0019014278034993996,24.36932126986022,0.8459510806844961,-2.89249872558695e-05,-0.03469983964088378,1.5708346281161647
5.833751730000003,5.701999999999998,0.04161752267391408,4516.971847219948,299.69905282426544,0.0018830393248106948,24.369683362066056,0.8354551375173621,-2.8429057501318982e-05,-0.03426913971837151,1.570835383839221
5.968760692000004,5.837000000000003,0.042445653012878885,4527.765557706364,300.06566827663534,0.0018469421609317968,24.370410110031006,0.8139801334817692,-2.7433170111329655e-05,-0.03338793491683075,1.5708368673317148
6.038974093,5.896999999999991,0.04280852226396612,4532.562866983335,300.22549027479283,0.0018313257769199559,24.370731486706767,0.8043005962233868,-2.6994555988774415e-05,-0.03299075353670763,1.5708375091155036
6.106721564000004,5.965000000000003,0.043216179180835465,4537.9998914356165,300.40438097241275,0.0018139009997451025,24.371093681136536,0.7932499574723761,-2.6501468573746138e-05,-0.032537317977875416,1.570838225209528
6.241663346000003,6.099000000000004,0.04400821104070926,4548.714263391275,300.74963625687593,0.0017804794828478667,24.371800625571563,0.7712244143453781,-2.554731694722136e-05,-0.03163357430053899,1.5708395986876345
6.3085914310000035,6.164999999999992,0.04439294034858746,4553.99160524927,300.9161094740337,0.0017644611272365715,24.37214495300733,0.7602652670459297,-2.508770797529727e-05,-0.03118391242650738,1.570840256960056
6.443881829000006,6.301000000000002,0.04517494284732678,4564.8663600697,301.2516745532236,0.001732330474463341,24.372844830591482,0.7374875340924396,-2.416559627591248e-05,-0.030249345361825296,1.5708415773361826
6.516482895000003,6.364000000000004,0.045532313759169565,4569.904036734117,301.40362883735264,0.0017178454026550707,24.373164207343677,0.7268559491868899,-2.375121354140885e-05,-0.02981314207778948,1.5708421725716735
6.652282653,6.5,0.04629379653144776,4580.779241935601,301.7242334270494,0.0016874007870684694,24.37384195004249,0.7037625643833234,-2.2886327319382594e-05,-0.028865663055621257,1.5708434236007263
6.753985780000001,6.600999999999999,0.046850594947718434,4588.855875367286,301.95563944977135,0.0016654876785968653,24.374333989844843,0.6865098525482521,-2.2271919796575413e-05,-0.028157833043605533,1.5708443240221701
6.821221053000002,6.667999999999992,0.0472159691037343,4594.2137316522985,302.10598646184656,0.0016512738240222753,24.374654720473213,0.6750263187523248,-2.18779850624752e-05,-0.02768670394684439,1.570844908062047
6.8889360180000025,6.734999999999999,0.04757823155037948,4599.57165813606,302.2538079965259,0.001637301994406934,24.374970680975064,0.6635191186762491,-2.1495066445261348e-05,-0.027214610071129703,1.5708454821441702
7.062383443000002,6.896999999999991,0.048441563529179756,4612.526929377102,302.60072023437186,0.0016045108786650714,24.375713947434562,0.6356280188836738,-2.061651525316222e-05,-0.02607037602187386,1.5708468294295452
7.129658732000003,6.965000000000003,0.04879883149128061,4617.965060489934,302.7419463763892,0.0015911324671879913,24.37601678837599,0.6239062438464961,-2.0267084588230725e-05,-0.025589499769670142,1.570847379082353
7.1967898150000025,7.0319999999999965,0.04914792715607403,4623.323285138232,302.8785285455447,0.001578168041903813,24.376309680673042,0.612355992305856,-1.9934346193869093e-05,-0.02511566591834429,1.5708479117119507
7.331840619000005,7.167000000000002,0.04984276317075403,4634.119901227162,303.1460307220472,0.0015526674512234666,24.376882774514144,0.5891008290783909,-1.9297742962975933e-05,-0.024161670486046605,1.570848959331317
7.399571373000001,7.233999999999995,0.05018343595445793,4639.478315484244,303.27496327981737,0.001540307081877412,24.37715851420677,0.5775780472729511,-1.899843343811143e-05,-0.02368898016961114,1.570849467098975
7.573525864000004,7.397999999999996,0.0510059543109854,4652.594686773217,303.5798570411154,0.001510839359005162,24.37780841909,0.5494637381212197,-1.8311672477128522e-05,-0.022535690243722123,1.5708506775764823
7.641630240000005,7.465999999999994,0.0513424037695589,4658.033283333698,303.70186539013054,0.0014989215946833389,24.378067310258416,0.5378549709217773,-1.8044871878909014e-05,-0.02205949053037616,1.5708511671070706
7.709001052000005,7.533000000000001,0.05167130454556789,4663.39195703518,303.8195388979554,0.0014873468531644946,24.37831622138991,0.5264522748727292,-1.7792252351021944e-05,-0.02159174887003988,1.5708516425314738
7.8782199460000015,7.701999999999998,0.05248974575882492,4676.908850529519,304.10526447966794,0.0014588382295196336,24.378916632167517,0.4978731902996074,-1.7197615955594047e-05,-0.020419447662805845,1.5708528134307538
7.945425376999999,7.768999999999991,0.05280986430159911,4682.267710334953,304.2141568293107,0.0014477938069358913,24.379143710019346,0.4866270338968216,-1.6978172080119365e-05,-0.01995814316434359,1.5708532670156423
8.012996600000001,7.8359999999999985,0.0531275626832548,4687.626619918892,304.3205797173362,0.0014368894351406932,24.379364529558817,0.4754356636182293,-1.676749800775309e-05,-0.01949909014677458,1.5708537148323072
8.15169589,7.965000000000003,0.05373251057037248,4697.944656342997,304.5185376538993,0.0014162677674913816,24.379772066158925,0.45405726106452254,-1.6385713562574784e-05,-0.018622191872096863,1.5708545616690894
8.253430749000003,8.066000000000003,0.05420013221779569,4706.023237273826,304.6672657281027,0.001400434120340528,24.380075102842714,0.4374837351677628,-1.6106712300246423e-05,-0.017942389682618798,1.5708552118414678
8.321410290000003,8.134,0.054512027989738636,4711.462338050604,304.7643180523983,0.0013899232058340438,24.380271195925445,0.4264158548241411,-1.5928441096466374e-05,-0.017488419146455807,1.570855643427258
8.42193648,8.233999999999995,0.054966440366085854,4719.461094889649,304.90255067164645,0.0013746723475011155,24.380548061913633,0.41028077093571247,-1.567938964396727e-05,-0.01682661387967052,1.5708562696085366
8.523418582000005,8.335999999999999,0.05542482978943899,4727.619919230224,305.03813119121725,0.0013593552754634908,24.380816505207637,0.39400595370178304,-1.5440196528883334e-05,-0.016159084700023568,1.5708568984721418
8.663538493000004,8.465999999999994,0.056001629266696246,4738.018549868902,305.20303182467933,0.0013401672636671814,24.381138414391227,0.3735556481330958,-1.5155917217947383e-05,-0.015320303535414404,1.570857686210591
8.731252289000004,8.533000000000001,0.05629573182685994,4743.377897185223,305.2846374821169,0.001330411518865015,24.381295671627328,0.36314680598328486,-1.5017451800905233e-05,-0.014893383003249867,1.5708580866974677
8.832641047000003,8.634,0.0567350464795689,4751.456978153688,305.4033501276049,0.0013158694005596758,24.381521780806256,0.34763475166046093,-1.4818292455105009e-05,-0.014257158319471535,1.5708586836436593
8.967742591000004,8.768999999999991,0.05731477006364329,4762.25586490584,305.5540505626327,0.0012967237626962547,24.381803876305074,0.32725228174406656,-1.4568733665439544e-05,-0.013421182970280823,1.5708594695109759
9.035453766000003,8.835999999999999,0.057599343140809445,4767.615358605107,305.6254998625716,0.0012873404735146397,24.381935506324094,0.3172937254525849,-1.445127768613396e-05,-0.01301274192500713,1.5708598546440558
9.173823842000004,8.965000000000003,0.058141438747654775,4777.934464846001,305.7569049702425,0.0012694859923122173,24.382173694183145,0.2984297825171578,-1.4236108757539138e-05,-0.01223906051533051,1.5708605874358776
9.241663901999999,9.031999999999996,0.05842003580656589,4783.294040047986,305.8220341649386,0.0012603147036596115,24.382289741027247,0.28879299889214205,-1.4129353822215595e-05,-0.011843822548092221,1.5708609638291926
9.309311147000003,9.099999999999994,0.05870074084175561,4788.73363498635,305.8859829787168,0.0012510746593198015,24.38240230865223,0.27912737925075565,-1.4024223763374429e-05,-0.011447403773731858,1.5708613430314926
9.444808668,9.235,0.05925193250709389,4799.532904533308,306.0065866694406,0.0012329305912670144,24.382610586736252,0.26029878114070454,-1.382425356348189e-05,-0.010675186296808116,1.5708620876094797
9.545770242000003,9.335999999999999,0.05965906968846658,4807.612417780442,306.0913997823186,0.0012195226452472064,24.38275365102799,0.24653378277570354,-1.3681378865463284e-05,-0.010110646338905679,1.5708626378008377
9.617625481000005,9.397999999999996,0.05990676727438879,4812.572142911223,306.141179999126,0.001211363340181096,24.382836188725783,0.23823082581213925,-1.3596310810488122e-05,-0.009770121098774372,1.5708629726032894
9.753535220000003,9.533999999999992,0.06044439092682205,4823.451597452671,306.2445842987693,0.0011936316983965057,24.383004057605227,0.22038081144889435,-1.3415296091727587e-05,-0.009038050700652594,1.5708637001585082
9.821589193000001,9.602000000000004,0.060710243755769125,4828.891352832008,306.29331695435525,0.0011848533937531117,24.38308135781918,0.21165560256631957,-1.3327474330092209e-05,-0.008680211478629145,1.57086406032992
9.923592424000006,9.703999999999994,0.06110536051218988,4837.051018311376,306.36278814038667,0.0011717921637451798,24.38318937742766,0.1988225626195853,-1.3198645649439753e-05,-0.00815390344527081,1.5708645962105612
10.059992197,9.838999999999999,0.061621609149980085,4847.850630648602,306.4481927394792,0.001154696851294916,24.383318373658945,0.18231773217733394,-1.3032673444943442e-05,-0.007477011411101883,1.5708652975716955
10.128280019000002,9.897999999999996,0.06184481323846349,4852.570479665229,306.4831942902222,0.0011472970382850449,24.383369904344054,0.17529059199789393,-1.296159334182643e-05,-0.0071888171291992035,1.570865601149642
10.196033498000006,9.965999999999994,0.06210034422744715,4858.0103178482195,306.52190420969464,0.0011388123511818266,24.38342597369613,0.16730955857979887,-1.2880471792915975e-05,-0.006861502879278844,1.5708659492272825
10.365176378000001,10.134,0.06272356364819473,4871.449971238648,306.6099927651142,0.0011180752156517294,24.383549531801496,0.14821261787201678,-1.2683482506126546e-05,-0.006078311377746224,1.5708667999199348
10.433022142000006,10.201999999999998,0.06297258457044796,4876.889850425203,306.6426865274643,0.0011097704795099393,24.383593839123503,0.14073470457978624,-1.260486151487384e-05,-0.0057716330289488875,1.5708671405903023
10.501030729,10.269999999999996,0.06321975532490057,4882.329739785977,306.67371927420834,0.0011015166138931358,24.3836350471369,0.1334041779839959,-1.2526753397129668e-05,-0.005470999715196073,1.570867479167433
10.60529459,10.364000000000004,0.0635583612462079,4889.849602558987,306.7139037759746,0.0010901919083175621,24.38368711725929,0.12352076380408746,-1.2419487219885341e-05,-0.005065670326249125,1.570867943701688
10.740899501000001,10.498999999999995,0.06403863027353708,4900.64943350656,306.7664051346008,0.0010740949652962354,24.383752647459108,0.10982565208978726,-1.2266525629984028e-05,-0.004504020506335383,1.5708686039722068
10.809342436000001,10.566999999999993,0.06427785306319353,4906.089359666823,306.79057458709804,0.001066060405604504,24.383781802921803,0.10314965351952711,-1.2189840893451785e-05,-0.004230231852576371,1.570868933529128
10.944124795,10.701999999999998,0.06474748065235994,4916.889232841139,306.8341941295796,0.0010502562073931327,24.38383261058762,0.09034442878144193,-1.2038055788113789e-05,-0.003705079037425226,1.5708695817627312
11.011660475,10.768999999999991,0.06497795908923383,4922.249178647486,306.8537529799345,0.0010424849425194301,24.383854562154205,0.08421166749896837,-1.1962874881418008e-05,-0.0034535698153664624,1.5708699005068587
11.187034835000006,10.932000000000002,0.06553155078320597,4935.289067619796,306.8957866828367,0.0010237824164887124,24.38389972672945,0.0699218755431425,-1.1780174084581266e-05,-0.002867535357674074,1.5708706675891282
11.254719692000002,10.998999999999995,0.06575621796253706,4940.649029400368,306.9108811088244,0.0010161760232925562,24.383915200246996,0.06429987991398688,-1.1705112652367661e-05,-0.0026369736279129876,1.5708709795588376
11.288589893000001,11.033000000000001,0.06586959200523093,4943.369011461085,306.91807130399354,0.0010123341084718627,24.383922415307833,0.06150300346531679,-1.1667020755129302e-05,-0.0025222719423778645,1.5708711371305144
11.457450717,11.200999999999993,0.06642351622787232,4956.808935527518,306.9490908399123,0.0009935327448659728,24.383952243952937,0.04824911939640004,-1.1478705242113283e-05,-0.0019787221348229926,1.5708719082361164
11.52489182,11.268,0.06664154350434168,4962.1689103505405,306.95945032309294,0.0009861184268555696,24.38396167072241,0.04322346952503359,-1.1403546397139942e-05,-0.0017726173526567636,1.5708722123172287
11.666134945000003,11.397999999999996,0.06705993013065256,4972.568868309815,306.97643768186225,0.0009718725309448223,24.383976408291744,0.033905388109009164,-1.1257605945311984e-05,-0.0013904776844006687,1.5708727965735383
11.733333304000006,11.465999999999994,0.06727638010195769,4978.008849314655,306.9837693736776,0.0009644911035741716,24.383982439905854,0.0292479080864072,-1.1181235429273666e-05,-0.0011994719338757267,1.570873099299636
11.800370119,11.533000000000001,0.06748803288949538,4983.368832322397,306.9899805991745,0.0009572672388424763,24.383987360115693,0.024809380589811567,-1.1105958093820215e-05,-0.0010174455841930267,1.5708733955620693
11.969264925000004,11.700999999999993,0.06801179818191491,4996.808795770465,307.00136899745627,0.0009393647588306229,24.383995774190954,0.014324867861207059,-1.0917134353466279e-05,-0.0005874703180254918,1.5708741297653848
12.037081566000005,11.768999999999991,0.06822100684312868,5002.248782929331,307.0043658473682,0.000932204726466024,24.383997788594442,0.010342960081807804,-1.0840707874202363e-05,-0.0004241702618040207,1.5708744234050949
12.105089002,11.837000000000003,0.06842862056559124,5007.688770951098,307.0064816516952,0.0009250939911882987,24.383999113491146,0.006509798136078771,-1.0764305399227533e-05,-0.00026697035780231225,1.570874715021986
12.244026027000004,11.965999999999994,0.06881810123629241,5018.008750112646,307.0081786914578,0.0009117445727854172,24.383999980556847,-0.00034195552709560383,-1.0619499812965871e-05,1.4023501646198644e-05,1.5708752624896476
12.311679984000001,12.033000000000001,0.06901817715373164,5023.368739990909,307.00793847113755,0.0009048803310766846,24.383999703322637,-0.003694531314206828,-1.0544385105853983e-05,0.00015151431831215365,1.5708755439952047
12.446549818000001,12.167999999999992,0.06941675569576043,5034.168720554006,307.005271678943,0.0008911950940481541,24.383997925366746,-0.010019056344172274,-1.0393312737945516e-05,0.00041088627703443826,1.5708761052309486
12.547209746,12.268,0.06970810013507141,5042.16870665751,307.00153267395757,0.000881184412927779,24.383995771655417,-0.014332878757871158,-1.0281707218162125e-05,0.0005877983240836691,1.5708765157708215
12.615238018,12.335999999999999,0.06990434958400617,5047.608697312312,306.9981966498978,0.0008744374967807457,24.383993994811313,-0.01709082717577034,-1.0206004010182916e-05,0.000700903198601913,1.5708767924626554
12.757176304000005,12.465999999999994,0.07027533261181393,5058.008679493345,306.99014429574487,0.0008616793414978663,24.383990097411928,-0.021958753010993,-1.0061795210314519e-05,0.0009005393498007112,1.570877315675453
12.824665544000005,12.533000000000001,0.07046442102209594,5063.3686702418745,306.9852031069837,0.0008551731387341375,24.383987906904085,-0.02426982987041468,-9.987758233584156e-06,0.0009953178175204993,1.570877582495034
12.925457831000003,12.632999999999996,0.07074398720812007,5071.36865628428,306.97690372476825,0.0008455511667659532,24.383984514914687,-0.02746746169345387,-9.877676868853412e-06,0.0011264543827263207,1.5708779770922798
13.061970765000005,12.768999999999991,0.07111916926518434,5082.248636929337,306.96400472250303,0.0008326332561936718,24.383979839987358,-0.03134437460807608,-9.728868445619782e-06,0.001285448651423876,1.5708785068560307
13.129600563000004,12.835999999999999,0.07130188346180506,5087.608627228574,306.95702975327004,0.0008263409141760297,24.38397758126814,-0.033055005384776744,-9.655974537220878e-06,0.0013556025441313613,1.5708787649051923
13.269429917000004,12.965000000000003,0.07164977639098422,5097.928608291375,306.94258046708694,0.0008143610237999472,24.38397344618068,-0.03597655875154423,-9.516516428702985e-06,0.0014754170439862503,1.5708792562012655
13.336744209000003,13.033000000000001,0.07183114288478565,5103.368598180961,306.93448546474116,0.0008081141776767602,24.383971410648773,-0.03733084010139771,-9.443489574577875e-06,0.0015309568700965937,1.5708795123850559
13.404337886,13.099999999999994,0.07200847649719336,5108.72858815885,306.92621906450574,0.0008020057596270326,24.38396953073697,-0.038539342049531966,-9.37189105920295e-06,0.00158051820750407,1.5708797628920876
13.573307434,13.268999999999991,0.07244985625594631,5122.248562802532,306.9042774135287,0.0007868030573763077,24.38396545211424,-0.04103914045127035,-9.192926880454322e-06,0.0016830363469719544,1.5708803863578782
13.640915558000003,13.337000000000003,0.0726250852916552,5127.688552644696,306.89508093152295,0.0007807677349914518,24.383964110472338,-0.04182881312475191,-9.12161265503717e-06,0.001715421273310287,1.5708806338680514
13.712275181000003,13.397999999999996,0.07278110474742,5132.568543619042,306.8866825349035,0.0007753968229942145,24.383963081539136,-0.04242448473375189,-9.058027331371855e-06,0.0017398501078687684,1.570880854130816
13.847795104,13.533000000000001,0.07312264277287353,5143.368523966572,306.8677172571003,0.0007636362093984755,24.38396133413367,-0.043417419805121295,-8.918506055056805e-06,0.0017805709515280148,1.5708813364379368
13.914951858000002,13.599999999999994,0.07329021622657274,5148.728514470007,306.85815626404775,0.0007578667558123942,24.38396076148583,-0.043737946520708226,-8.8499229414501e-06,0.0017937159419092693,1.570881573045754
14.051429081000002,13.736000000000004,0.07362649192857547,5159.608495918343,306.83857544547624,0.0007462916726383014,24.38396020882218,-0.04404517719831036,-8.712095918007231e-06,0.0018063156629689605,1.570882047745764
14.119352467000006,13.804000000000002,0.07379269892464682,5165.048487084782,306.8287482841615,0.0007405717347807679,24.383960236059913,-0.04403019204864268,-8.64389638526113e-06,0.0018057011220392223,1.5708822823236879
14.256579865000006,13.930999999999997,0.07409967901081005,5175.208471583342,306.810439242741,0.0007300125946478638,24.383960833111864,-0.04369847088977724,-8.517852826228089e-06,0.0017920970654274442,1.5708827153607354
14.324510935,13.998999999999995,0.07426226064639975,5180.648463855414,306.8007048973285,0.0007244202247270921,24.383961415752573,-0.04337222976651815,-8.451090078636821e-06,0.0017787177410729651,1.570882944707696
14.392326072000003,14.066000000000003,0.074421228827691,5186.00845669073,306.7911902252232,0.0007189534788152916,24.38396216870526,-0.04294692383015648,-8.385803288188385e-06,0.001761275713073506,1.5708831689029403
14.561939125000002,14.235,0.07481690661416424,5199.528440791715,306.76767576303473,0.000705350290718712,24.383964783885975,-0.04143574180242446,-8.223307884072421e-06,0.0016993013110544917,1.5708837267804436
14.629769440000004,14.302999999999997,0.07497399599280263,5204.968435356183,306.7584689171434,0.0006999518291412309,24.38396610013501,-0.04065387488684878,-8.15882016253872e-06,0.0016672365208755312,1.5708839481759171
14.769500081000004,14.430999999999997,0.07526641140128133,5215.208426773973,306.7416471522738,0.000689907361134752,24.383968935887335,-0.038916034209864114,-8.038865723309871e-06,0.0015959667269566707,1.5708843601084281
14.836471670000002,14.497,0.07541555094430183,5220.488423210446,306.73326822889317,0.000684785406766167,24.38397054832308,-0.0378923421047451,-7.97775320255255e-06,0.0015539845579860614,1.5708845701644585
14.903884010000006,14.564999999999998,0.07556806053694672,5225.928420172065,306.7248698656765,0.0006795484480453996,24.383972297827448,-0.036749381027618086,-7.91529507300337e-06,0.0015071111061189153,1.5708847849370091
15.039260637000005,14.700000000000003,0.07586738555170242,5236.728416113897,306.7089853973083,0.000669272837961233,24.38397598069913,-0.03421877803589516,-7.792843769606513e-06,0.001403329718757083,1.5708852063495329
15.141193749000003,14.801999999999992,0.0760905401488956,5244.888414816852,306.69775419276294,0.0006616145232594598,24.383978883006584,-0.032084191806918586,-7.701687424773829e-06,0.0013157892016877634,1.5708855204243812
15.215664998000001,14.864999999999995,0.0762270758173728,5249.928414793183,306.691185331106,0.000656929947130001,24.383980700673252,-0.030671772786948107,-7.645974665273255e-06,0.001257865151568324,1.570885712543362
15.350697835000005,15.0,0.07651643987220999,5260.728416691893,306.67811062918366,0.0006470062277542205,24.383984580943228,-0.02741418820702481,-7.5280899085098836e-06,0.0011242699000079616,1.5708861195245922
15.418481541000006,15.066999999999993,0.07665842099874794,5266.088418606517,306.67216754741656,0.0006421377469437632,24.383986462869167,-0.02568591601226876,-7.470341653603722e-06,0.001053392559083205,1.5708863191855795
15.520000561000003,15.167999999999992,0.07687043778387981,5274.168422672062,306.66393751300774,0.0006348689105940917,24.383989195483835,-0.022945837933943117,-7.384215070367928e-06,0.0009410205430749232,1.5708866172872706
15.655350821000006,15.304000000000002,0.07715214478837236,5285.048430283921,306.65432355647715,0.0006252138777987658,24.383992582902827,-0.019008578502600893,-7.269996469185172e-06,0.0007795515209347888,1.5708870132487232
15.726995616000004,15.364000000000004,0.0772750375663192,5289.848434384923,306.6506577813957,0.0006210027898538721,24.3839939372983,-0.017183717998119855,-7.220250606086016e-06,0.000704713066057525,1.5708871859490097
15.861769853000006,15.498000000000005,0.07754656394666525,5300.568445001196,306.64377060572167,0.0006117029734757903,24.383996567029257,-0.012924586411457417,-7.1105420594167675e-06,0.0005300439312554008,1.5708875673419223
15.929251474000004,15.566000000000003,0.07768279797307098,5306.008451082556,306.6409977227034,0.0006070369485974253,24.383997656749543,-0.010672729180262125,-7.055595878753956e-06,0.0004376941369511101,1.5708877586990717
16.064914098000003,15.700999999999993,0.07795018734102216,5316.808464335046,306.63700488969175,0.0005978803275248892,24.383999247679096,-0.006027581091550258,-6.947924601656471e-06,0.00024719429464360845,1.5708881342183088
16.132490076000003,15.768999999999991,0.07808334296672673,5322.2484715028095,306.63577926153533,0.0005933211569489806,24.383999726443324,-0.0036039966490825953,-6.89439068537019e-06,0.00014780189024571935,1.570888321192654
16.201238433,15.835999999999999,0.07821354371752584,5327.608478817856,306.63510502752075,0.0005888636502107482,24.383999965140926,-0.0011632957099036363,-6.842100003547106e-06,4.770753108957386e-05,1.5708885039974692
16.374463452,15.998999999999995,0.07852621882372274,5340.648497306465,306.63574565105733,0.0005781628128146149,24.383999483754796,0.004984173375566699,-6.716774737055562e-06,-0.00020440323423476646,1.5708889428436859
16.442255357,16.066000000000003,0.07865309325865126,5346.008505021327,306.6369673374099,0.0005738205998756771,24.383998812105986,0.007589595151380407,-6.666009156910348e-06,-0.00031125288063577023,1.5708891209193618
16.543216788000002,16.167,0.07884255504295087,5354.088516574922,306.6398975491045,0.000567337491818755,24.3839972341703,0.011600091128073545,-6.590290286739034e-06,-0.00047572532863942554,1.570889386793367
16.611035997000002,16.233999999999995,0.07896705397602431,5359.448524080714,306.64257876723127,0.0005630776256434495,24.38399579311992,0.014312374528579237,-6.540595958820151e-06,-0.0005869574361275678,1.5708895614912608
16.749651969000006,16.364000000000004,0.07920594716776345,5369.848537957595,306.64950274561767,0.0005549041571009295,24.383992047424854,0.01968560930595085,-6.445347461441003e-06,-0.0008073165220748688,1.5708898966858484
16.818247187000004,16.432000000000002,0.07932953179690276,5375.288544708344,306.65403588037736,0.0005506772612155429,24.383989565397897,0.02255152615222815,-6.396138483546116e-06,-0.0009248492427633361,1.5708900700307167
16.919605293000004,16.533,0.07951135238167582,5383.368553840518,306.6619565798306,0.0005444573958772631,24.383985188500688,0.026870626263487695,-6.323824469556602e-06,-0.0011019777796012686,1.5708903251066006
17.054869611,16.667,0.0797494119037165,5394.088563858656,306.6746912667483,0.0005363138975566313,24.383978055379067,0.03270943549527462,-6.229245903898276e-06,-0.001341430432592785,1.5708906590693013
17.122675735,16.735,0.07986885620862064,5399.528567827146,306.6821370110785,0.0005322286163721724,24.38397383678973,0.035716151779118646,-6.181837186219184e-06,-0.0014647374862193955,1.5708908266050967
17.190147894000006,16.802999999999997,0.07998739062586761,5404.968570913888,306.6902548549021,0.0005281740976304381,24.383969205471363,0.03874929248291575,-6.134819314267386e-06,-0.001589128242196559,1.5708909928789985
17.364026447,16.967,0.08026955020054671,5418.088574123627,306.7126457380562,0.0005185243648319324,24.383956292328655,0.046165625198162884,-6.023021902326814e-06,-0.0018932762033326517,1.5708913886085967
17.431042417,17.033,0.08038164227798202,5423.368573489487,306.7227863981312,0.0005146906232283543,24.383950387965267,0.049185489260042105,-5.978648686536389e-06,-0.0020171225697948186,1.5708915458274246
17.498434393000004,17.099999999999994,0.08049458830155094,5428.728571577982,306.73374792061156,0.0005108276978844744,24.383943972249266,0.052269467915109856,-5.933952699857831e-06,-0.0021435983447971943,1.570891704242732
17.633328670000004,17.235,0.08071960093127904,5439.528563438098,306.7578974150428,0.0005031317115791867,24.38392974121662,0.058533087079265946,-5.8449665046483914e-06,-0.002400473151677936,1.5708920198476553
17.701160469,17.302999999999997,0.08083165512289553,5444.968556962977,306.77111295594915,0.0004992992635542516,24.383921908125483,0.061710040927684055,-5.800674863424991e-06,-0.002530762008452946,1.5708921770121371
17.840429396000005,17.432000000000002,0.0810418712419174,5455.288539797627,306.79814988367474,0.0004921104952995148,24.383905817537805,0.06777048978378887,-5.717621068765162e-06,-0.0027793049134264636,1.5708924718147388
17.941667612000003,17.533,0.08120435462453356,5463.368521565364,306.8211028032906,0.00048655299411302287,24.383892097622617,0.07253919476027242,-5.653477384103803e-06,-0.0029748726914377837,1.57089269972029
17.97537302,17.566000000000003,0.08125704253232384,5466.008514622301,306.82894661045265,0.00048475078408676654,24.383887401703905,0.07410091804580068,-5.632676166690006e-06,-0.00303892003149668,1.5708927736263214
18.144339673000005,17.735,0.0815238371851116,5479.528470956288,306.87175910258514,0.0004756250988368777,24.383861719271895,0.08211838539804812,-5.527389670627847e-06,-0.0033677220534995386,1.5708931478564132
18.211721206,17.801999999999992,0.08162821045150946,5484.888449636541,306.8899649075163,0.0004720549176234318,24.38385078810751,0.08530252332652154,-5.4862028492401005e-06,-0.0034983059073233776,1.5708932942634788
18.314980375000005,17.897999999999996,0.081776384870271,5492.568414809919,306.91728112458554,0.0004669872076189275,24.38383439561426,0.08986628508271205,-5.427751359787361e-06,-0.0036854692605037464,1.570893502081193
18.450450545000002,18.033,0.0819820860701569,5503.368356948359,306.9581091982636,0.0004599502810726243,24.383809915327983,0.09627980895121466,-5.34660197116735e-06,-0.0039484929899145866,1.5708937906520863
18.517406349000005,18.099999999999994,0.08208301956162231,5508.72832413392,306.9794277128464,0.0004564971533326964,24.383797159345473,0.09945794849631569,-5.306787224629319e-06,-0.004078831127861255,1.570893932257889
18.653427317000002,18.236000000000004,0.0822855808869578,5519.60824872457,307.0248422536658,0.00044956701750976084,24.383770065605503,0.10589233014566062,-5.226872686331096e-06,-0.0043427106692288,1.570894216448097
18.721097057,18.304000000000002,0.08238570541226319,5525.048206401698,307.0486252646124,0.00044614124487002264,24.38375593158908,0.10909844025222869,-5.18736348746379e-06,-0.004474196121994082,1.5708943569314624
18.858963362000004,18.429999999999993,0.08256919580003476,5535.128119357232,307.0946026573021,0.0004398644635973551,24.38372875126095,0.1150130056222432,-5.114958870187772e-06,-0.004716757960726166,1.5708946143278646
18.926786148000005,18.498000000000005,0.08266715943824533,5540.568067675407,307.12041904979293,0.0004365125182717088,24.383713561452147,0.11818951952092016,-5.076309291035093e-06,-0.004847029870265654,1.5708947517831928
18.993858362000005,18.564999999999998,0.0827629495966392,5545.928013372428,307.1465508470455,0.0004332348323194801,24.38369825258653,0.12130679754090481,-5.038514632994381e-06,-0.0049748725391528465,1.5708948861931544
19.128330606000006,18.698999999999998,0.08295237745940558,5556.647894424862,307.20086516725905,0.0004267526059114451,24.38366665715748,0.12749968832523767,-4.963742557609063e-06,-0.005228849386948622,1.5708951520131076
19.229834684000004,18.799999999999997,0.08309328090709017,5564.727795370566,307.24359683006867,0.00042193065942320657,24.38364202666657,0.13212621756904247,-4.908109637867236e-06,-0.005418588349488384,1.570895349748765
19.304477102,18.864000000000004,0.08318173336191484,5569.847728254544,307.2714739631908,0.0004189036158687262,24.383626078404777,0.13503737657967768,-4.873179651262226e-06,-0.005537978225304388,1.5708954738799183
19.440415324,19.0,0.08336761307420383,5580.727574346393,307.3327165799285,0.0004125424396975514,24.38359136236249,0.1411669336136939,-4.799749047085982e-06,-0.005789358451474592,1.5708957347348413
19.507943347,19.066999999999993,0.08345814308187505,5586.087492688725,307.363893081666,0.0004094440066806664,24.3835738730196,0.14415620474781943,-4.7639785168945515e-06,-0.0059119520513264455,1.5708958617932118
19.609127769000004,19.167999999999992,0.0835933315240265,5594.16736217284,307.4121276891571,0.00040481686003000203,24.383547064082197,0.14862170039220224,-4.71054460960584e-06,-0.006095087557784059,1.5708960515398689
19.744274785,19.302999999999997,0.08377164696022008,5604.967173497191,307.47889825669074,0.0003987132258047754,24.383510470468014,0.15450882699848126,-4.640043190173652e-06,-0.0063365262242424105,1.5708963018330653
19.815706080000005,19.364000000000004,0.0838513220181492,5609.847082728498,307.5099337342556,0.0003959858048490293,24.38349368101313,0.1571360913469794,-4.608530219099824e-06,-0.006444273847470684,1.570896413677024
19.916953573,19.464,0.08398077739612843,5617.846926602939,307.5619278936501,0.00039155552919852645,24.383465855000598,0.1613962351484659,-4.557332599531672e-06,-0.006618988199201028,1.5708965953502874
19.984194813000002,19.531999999999996,0.0840679818875921,5623.2868151299945,307.5980770226197,0.00038857034845456905,24.38344672932392,0.16426030333441063,-4.522826543907348e-06,-0.006736447684848964,1.5708967177642224
20.153622117000005,19.700999999999993,0.08428183963832621,5636.806519118931,307.69066823231725,0.00038124900744175957,24.383398613130264,0.1712539864141249,-4.43816999679452e-06,-0.007023268910204104,1.5708970179920314
20.220458759000003,19.766999999999996,0.08436425600580899,5642.086396075292,307.727879442556,0.00037842749176047633,24.383379637987392,0.17393471933762558,-4.405533115810206e-06,-0.007133209860736313,1.5708971336945745
20.36113915,19.89699999999999,0.08452480832285293,5652.486141384905,307.8028649781582,0.00037293146262905265,24.383342042481196,0.17912760900399552,-4.341937028691726e-06,-0.007346178441847251,1.5708973590716258
20.429105522,19.965000000000003,0.08460786495401634,5657.926001672215,307.84296040270885,0.00037008786180430073,24.383322280290173,0.1817977957959117,-4.309023870569666e-06,-0.0074556871354171834,1.5708974756799605
20.497136574000002,20.031999999999996,0.08468907846775585,5663.285859585968,307.8830493918618,0.00036730731223947086,24.38330276843841,0.18439622492304397,-4.276835842790579e-06,-0.007562253016650802,1.5708975897028017
20.632862800000005,20.167999999999992,0.08485206271450886,5674.165557701165,307.9661638644867,0.00036172666840114014,24.383263093234973,0.18957002731400524,-4.212211202692063e-06,-0.007774439477158845,1.5708978185501972
20.701090929000003,20.236000000000004,0.08493262385588164,5679.605399961952,308.00858231237635,0.0003589681547770924,24.3832432548638,0.19210477687362174,-4.180255514611694e-06,-0.007878394007158323,1.570897931669659
20.876200670000003,20.397999999999996,0.08512206722794588,5692.5650057998355,308.1119081999046,0.0003524823807834036,24.383196126861787,0.19799624937236657,-4.10508833529733e-06,-0.008120013969851089,1.570898197634803
20.943324812,20.465000000000003,0.08519941729738718,5697.924835318614,308.1555471403662,0.00034983370429154254,24.383176709086392,0.2003732794075208,-4.07439108329864e-06,-0.008217500412438227,1.570898306250504
21.078026173000005,20.599999999999994,0.08535351312517458,5708.72447855546,308.2450479018357,0.00034455724559661596,24.38313781202571,0.20505199599055549,-4.013215833662465e-06,-0.008409383549572583,1.5708985226254732
21.146635579000005,20.667999999999992,0.08543025038916126,5714.164292176928,308.2909087760779,0.0003419294592948338,24.38311835947916,0.207352238309957,-3.982741524942114e-06,-0.008503721010366408,1.5708986303849246
21.214605850000005,20.736000000000004,0.08550640240797959,5719.604101347631,308.33728092317364,0.00033932168787319597,24.383099021901742,0.20961386646185395,-3.952497550887152e-06,-0.008596474902080934,1.570898737323763
21.354564356000004,20.864000000000004,0.08564816159795584,5729.84373005067,308.4259379668336,0.0003344672928353193,24.383062993570242,0.21376374747477922,-3.896177210262466e-06,-0.008766670011894408,1.570898936392015
21.422269396000004,20.932000000000002,0.08572265179219048,5735.283526542787,308.47373469076507,0.000331917372921188,24.383044084033028,0.2159099023903517,-3.866573851244769e-06,-0.008854688314353626,1.5708990409589652
21.557171708000006,21.066999999999993,0.08586885566275552,5746.083109710725,308.570032007026,0.00032691069675183903,24.383007022921756,0.2200554777678124,-3.808473832172822e-06,-0.009024707228069513,1.5708992462729257
21.624583313000002,21.132999999999996,0.08593952538315199,5751.36289977569,308.61777652727864,0.000324490688422052,24.382989179963243,0.22202374764687266,-3.780380086122699e-06,-0.00910543027718461,1.5708993455129787
21.760402366,21.26899999999999,0.08608351055434518,5762.242454770293,308.71748162581014,0.0003195598941119276,24.382953030063153,0.22595891580864774,-3.7231293629636283e-06,-0.009266820301777884,1.5708995477162675
21.828179335,21.337000000000003,0.08615468055756942,5767.682226061331,308.76798730572733,0.0003171225773676175,24.38293529341299,0.22786482108141184,-3.6948212413640404e-06,-0.009344985815213957,1.5708996476666752
21.899253921000003,21.397999999999996,0.08621805120264649,5772.562017342443,308.81366270616275,0.00031495330104851796,24.382919616258132,0.2295362453233911,-3.6696202402938e-06,-0.009413534774907539,1.5708997366253596
22.068512590000005,21.566999999999993,0.08639139168083552,5786.081422556987,308.9419051259913,0.0003090169641816751,24.382877189032413,0.23399976301230507,-3.600651619599676e-06,-0.009596594138847466,1.570899980066233
22.136259793,21.63499999999999,0.08646021364313905,5791.521176431644,308.99419562170647,0.0003066601581804843,24.382860595786013,0.235722447899242,-3.5732660243321023e-06,-0.00966724558562854,1.5709000767159158
22.203276832,21.700999999999993,0.08652650569264063,5796.800933869521,309.04531650310855,0.0003043899809170145,24.382844768787635,0.23735393101929758,-3.5468831858513517e-06,-0.0097341566734565,1.5709001698132659
22.338510255000003,21.834999999999994,0.08665959659846735,5807.520430615991,309.1501765498792,0.00029983225893608924,24.382813502198985,0.24054443893395538,-3.4939074330207852e-06,-0.009865007283467024,1.5709003567208073
22.411652476,21.897999999999996,0.08672147236587235,5812.560189075457,309.1999608573358,0.00029771393967659024,24.382799240891416,0.2419857222433938,-3.4692814327228655e-06,-0.009924117927227144,1.5709004435912235
22.547022231,22.033,0.08685261011199333,5823.359661418387,309.3076201137804,0.00029322296126006974,24.38276957250149,0.24495691117777832,-3.417071598402299e-06,-0.010045973948202332,1.5709006277629278
22.61502049,22.101,0.08691791452188803,5828.7993905180165,309.36234084069764,0.00029098645879725146,24.382755126413418,0.24639066683849342,-3.3910657598842973e-06,-0.010104775970672157,1.5709007194805682
22.750218562,22.236000000000004,0.08704608891451279,5839.598842887325,309.4719110982835,0.000286596942389658,24.382727479695927,0.24911155886817057,-3.3400144379635423e-06,-0.01021636687630775,1.5709008994926907
22.817564558,22.302999999999997,0.08710898076013518,5844.958566406464,309.5267331454699,0.0002844430571636311,24.382714278336067,0.2504003596977178,-3.31496227435237e-06,-0.010269224017007299,1.5709009878228932
22.923941708,22.397999999999996,0.08719733899522505,5852.558169191223,309.6049502039133,0.00028141798425811545,24.382696198293456,0.25215475912289464,-3.2797711445976223e-06,-0.010341176637358484,1.5709011118806269
23.060473035,22.533999999999992,0.08732221151560877,5863.437590578071,309.7178483697395,0.0002771414219003676,24.382671529245858,0.2545290162543621,-3.2300175517657705e-06,-0.010438551368512702,1.5709012872624626
23.128234989,22.602000000000004,0.08738393435157722,5868.877297004431,309.7746893002237,0.0002750275714417104,24.382659762875285,0.2556536959271369,-3.2054221372263547e-06,-0.01048467757008321,1.5709013739518052
23.264368372,22.738,0.08750597126597148,5879.75670175057,309.8891085077335,0.00027084811385483124,24.382637386894924,0.25777894765421744,-3.1567855654381338e-06,-0.010571840040308422,1.5709015453526751
23.331154416000004,22.804000000000002,0.08756452164007873,5885.0364091290185,309.9449738104263,0.00026884302373270146,24.3826270965995,0.2587504510414533,-3.1334487876942104e-06,-0.01061168411674503,1.5709016275823642
23.401510739000003,22.864000000000004,0.08761736572603526,5889.836141050182,309.99594501389356,0.0002670333637037925,24.38261807111198,0.25959955122271733,-3.1123844051172706e-06,-0.010646508108852775,1.5709017017975504
23.537249694000003,23.0,0.08773585569148239,5900.715526732579,310.1120732483808,0.00026297631304083257,24.382598753263984,0.26140766666611875,-3.0651565154474695e-06,-0.010720664062740012,1.5709018681801084
23.604946627000004,23.066999999999993,0.08779356412329692,5906.075220785603,310.1695759584993,0.00026100006182602146,24.382589815748553,0.26223998332189846,-3.0421553337283343e-06,-0.010754799754780888,1.5709019492278913
23.774265092,23.236000000000004,0.08793721028740879,5919.594440112366,310.31540455184074,0.00025608055045217717,24.382568994069654,0.26416885485371894,-2.9848830806181037e-06,-0.010833908354578233,1.5709021509822085
23.842116406000002,23.304000000000002,0.08799424260070765,5925.034122607129,310.37437539679416,0.00025412745159665616,24.382561320479002,0.2648761758240376,-2.9621390237078398e-06,-0.010862917650269062,1.5709022310811884
23.912474107,23.364000000000004,0.08804419415878112,5929.8338409113985,310.4265415979068,0.0002524167408047319,24.382554891013097,0.26546736718139324,-2.9422184103464103e-06,-0.010887164139392164,1.5709023012397019
24.047886294,23.498999999999995,0.0881553794908437,5940.633202354796,310.5443204398507,0.00024860989405290956,24.382541577353877,0.26668739531846575,-2.8978839581016044e-06,-0.01093720108626357,1.5709024573640733
24.115650026000004,23.566999999999993,0.08821074798020007,5946.07287836258,310.60384582564166,0.0002467136704286301,24.382535455849954,0.2672464843003125,-2.8758048028556552e-06,-0.010960130981449684,1.5709025351312618
24.251011617000003,23.700999999999993,0.08831862047909501,5956.792235711773,310.7214983178401,0.0002430194213539983,24.382524567471044,0.2682380614891664,-2.8327804850178915e-06,-0.011000798513761876,1.57090268663891
24.353010619000003,23.802999999999997,0.08839965062463222,5964.951743166223,310.81133439035057,0.0002402444548712398,24.382517310111123,0.2688969401712213,-2.8004573997807444e-06,-0.011027821100365199,1.5709028004456245
24.42406914,23.864000000000004,0.08844765812376565,5969.83144732807,310.86516481096646,0.0002386004077884406,24.382513402034647,0.2692510774165481,-2.781305801381129e-06,-0.01104234533245074,1.570902867871348
24.491944396,23.930999999999997,0.08850001746866708,5975.191121424767,310.9243682515214,0.00023680793980982663,24.38250948060332,0.269605957335729,-2.7604178420578638e-06,-0.011056900025878866,1.5709029413842743
24.660796284,24.099999999999994,0.08863034901693288,5988.710295353731,311.07402522633294,0.00023234452699250757,24.382501203100556,0.27035352196009554,-2.708427104314042e-06,-0.011087559909944273,1.5709031244390173
24.728943602,24.167999999999992,0.08868209499756645,5994.149961564728,311.1343527010725,0.000230572360250352,24.3824985342866,0.2705941100045233,-2.6877796708826685e-06,-0.011097427155294708,1.5709031971198926
24.797395454000004,24.236000000000004,0.08873344629368038,5999.589627096465,311.19473216238634,0.00022881370918369698,24.382496240516858,0.27080071795835176,-2.667288151509809e-06,-0.011105900775274935,1.5709032692466092
24.935311001000002,24.364000000000004,0.08882903813852507,6009.828995952316,311.30850291943045,0.000225540028126554,24.38249293701913,0.2710979995603732,-2.6291381767698385e-06,-0.011118093199796973,1.5709034035089307
25.003134880000005,24.432000000000002,0.08887926874102944,6015.268659997043,311.36898988077525,0.00022382043962157567,24.382491718815807,0.2712075437831709,-2.6090921775278324e-06,-0.011122585943018683,1.570903474034014
25.139150847000003,24.567999999999998,0.08897858365004296,6026.147987116278,311.4900258998314,0.00022041915675549462,24.38249031245293,0.27133395396895965,-2.5694597923106544e-06,-0.01112777041348154,1.5709036135304295
25.206894976,24.63499999999999,0.08902695316608795,6031.507655296702,311.54967071141766,0.0002187627155848381,24.382490136932446,0.27134972739396523,-2.5501551940792302e-06,-0.011128417331904722,1.5709036814660506
25.342193926,24.769999999999996,0.0891233141842843,6042.306986440571,311.6698499781981,0.00021546268152755353,24.382490782531754,0.2712917126497038,-2.511691699320579e-06,-0.011126037975619398,1.5709038168107092
25.446265516000004,24.864000000000004,0.08918954292463602,6049.826520770251,311.75350676419004,0.00021319450794705184,24.382492009419835,0.2711814247852832,-2.4852516184907207e-06,-0.011121514738833436,1.570903909835838
25.582028325000003,25.0,0.08928414306140459,6060.705847556215,311.8744684665935,0.00020995542028256708,24.382494879198955,0.2709232765522369,-2.4474897553174998e-06,-0.011110927301032017,1.5709040426816694
25.649683534000005,25.066999999999993,0.08933021637554596,6066.0655162865105,311.93401401250117,0.00020837751911940703,24.382496743916764,0.2707554052822538,-2.4290976951216055e-06,-0.011104042393949945,1.570904107396832
25.717649307000002,25.134,0.08937594343812504,6071.425185360281,311.99352133145914,0.00020681156417930947,24.382498905859755,0.2705606456959632,-2.4108420658779275e-06,-0.011096054716168226,1.5709041716221372
25.852027295,25.26899999999999,0.0894670401961363,6082.224519879732,312.11328452991637,0.00020369188672524522,24.3825041312231,0.27008933599959056,-2.3744705907999148e-06,-0.01107672488659339,1.570904299571334
25.918821353000006,25.334999999999994,0.0895110730905574,6087.504195301216,312.1717559546514,0.0002021839436786132,24.382507098141552,0.2698213635367611,-2.356889994908946e-06,-0.01106573453064629,1.5709043614176343
26.054785834,25.465999999999994,0.08959750802174116,6097.983552846375,312.2876322367205,0.00019922424813802455,24.382513763446898,0.26921837911657764,-2.3223814689450348e-06,-0.011041004331798752,1.5709044828058916
26.122775892,25.533,0.08964122644717706,6103.343225293867,312.34679445312855,0.00019772698699458782,24.382517546989995,0.2688754947009385,-2.3049235437707027e-06,-0.011026941616716765,1.5709045442143197
26.224651543,25.63499999999999,0.08970715466767472,6111.502728132341,312.4367141498151,0.00019546916917871125,24.38252378476106,0.2683092383330677,-2.278596134911615e-06,-0.011003717754398292,1.5709046368162363
26.360453244000006,25.769999999999996,0.08979325526620745,6122.302073219746,312.55542254362376,0.00019252048094001707,24.382532889891333,0.26748053447934844,-2.2442092234599907e-06,-0.010969730148234443,1.570904757753683
26.428300556000003,25.837999999999994,0.08983613192415324,6127.74174479481,312.6150746953351,0.0001910520395424554,24.382537825115325,0.2670302798228066,-2.2270839156556548e-06,-0.010951263872699818,1.5709048179804075
26.566089513,25.965000000000003,0.0899153282867119,6137.901134287703,312.72620520675616,0.00018834043880739532,24.38254766003242,0.2661307400474271,-2.1954593421477692e-06,-0.010914371096085188,1.5709049291942918
26.634299452,26.031999999999996,0.08995665832897792,6143.260813787879,312.78468089535454,0.00018692504584761122,24.382553139966053,0.2656282022168609,-2.1789535924309695e-06,-0.010893760545283876,1.5709049872454441
26.769526886,26.167999999999992,0.09003960176229127,6154.140166815852,312.9030317259503,0.00018408438435404706,24.382564861168436,0.26455010309864846,-2.1458247873051064e-06,-0.010849544552767256,1.5709051037529325
26.836705533,26.235,0.09007999784074563,6159.499849955578,312.96115719134156,0.00018270088801456314,24.38257091901208,0.26399118543847205,-2.1296885388387005e-06,-0.01082662171591269,1.5709051604960094
26.905002079,26.302999999999997,0.09012068756080055,6164.939529677307,313.0200241349233,0.00018130741211967852,24.382577249216922,0.2634058714591817,-2.1134343354391532e-06,-0.010802616295301399,1.5709052176484315
27.075916683000003,26.465000000000003,0.0902163716072105,6177.898772282333,313.15972564053885,0.00017803099465341156,24.382593034286526,0.26194062817546726,-2.0752163009183115e-06,-0.010742522453747667,1.5709053520285152
27.144034983000005,26.533,0.090256021275914,6183.338456793912,313.2181322682698,0.00017667305665982366,24.382599926823282,0.26129825350748187,-2.0593777826999467e-06,-0.010716176833064571,1.5709054077234919
27.212242496000002,26.601,0.0902953685148445,6188.778142803369,313.27639479860096,0.00017532547344445963,24.38260697045173,0.2606401614532352,-2.043659371004614e-06,-0.010689186605100775,1.5709054629938028
27.381491947,26.769999999999996,0.09039186200247197,6202.29736916021,313.42054743475296,0.00017202078193768943,24.38262508619663,0.25893990887211704,-2.0051083392084747e-06,-0.010619454443820033,1.5709055985338363
27.449206742,26.837000000000003,0.09042961080154496,6207.657065184814,313.47743284910416,0.00017072793569411935,24.382632490434485,0.2582417613087454,-1.9900260166144486e-06,-0.01059082145497572,1.5709056515592223
