Real_time_s,Simulation_time_s,x_ft,y_ft,alt_ft,vx_fps,vy_fps,vz_fps,roll_rad,pitch_rad,yaw_rad,adsb_x_ft,adsb_y_ft,adsb_alt_ft
0.0,0.0,1230.0,6150.0,300.0,5.827942386483761e-15,50.0,1.1063432027226172e-25,5.106689440218326e-19,-2.2126864204836638e-27,1.5709126535897928,1231.9185445290418,13526.984647224139,261.1214529482532
0.03346756199999845,0.03200000000001069,1230.0,6151.599999999994,300.0,-4.402274873315079e-08,50.0,1.3318158665382583e-25,5.121633571520044e-19,-2.2126949427236677e-27,1.5709126535897928,1231.9185445290418,13526.984647224139,261.1214529482532
0.16867919500000994,0.1670000000000016,1229.9999981005824,6161.699999999961,300.00000000009493,7.046328837543755e-05,49.99999999995065,3.855472109771441e-10,4.296840462321564e-05,-7.692269984502752e-12,1.5709112438894217,1231.9185445290418,13526.984647224139,261.1214529482532
0.3380476700000088,0.32500000000001705,1230.000019181092,6169.4999999999345,300.0000000002725,0.0002973242110084275,49.999999999117406,7.058969346955815e-10,6.706225995047651e-05,-1.410075477740894e-11,1.5709067068493345,1231.9185445290418,13526.984647224139,261.1214529482532
0.5070010029999992,0.4830000000000041,1230.0000853179458,6177.499999999695,300.0000000004849,0.0006449745458985752,49.99999999584354,7.381697482001513e-10,8.426554223650055e-05,-1.474735188567583e-11,1.5708997539084877,1231.9185445290418,13526.984647224139,261.1214529482532
0.676703668000016,0.6520000000000152,1230.0002209132147,6185.899999998644,300.00000000067416,0.0010989923980230093,49.99999998792849,4.540458852278983e-10,9.626212116185372e-05,-9.069968354927932e-12,1.5708906736280857,1231.9185445290418,13526.984647224139,261.1214529482532
0.8799911290000182,0.8379999999999939,1230.0004695845157,6195.299999995385,300.00000000076324,0.0016778667915610325,49.99999997185817,-2.4793757008440293e-10,0.00010311237336800597,4.9628799943875375e-12,1.5708790962139156,1229.5180375941864,6154.146194298,291.8893594613742
1.0542265649999933,1.0010000000000048,1230.0008483416893,6205.099999988122,300.000000000646,0.002317492000633249,49.99999994630738,-1.2851361991473546e-09,0.00010421204582872693,2.5700710758528016e-11,1.5708663037690824,1229.5182752404635,6158.8961942888955,291.88935946091476
1.2575901879999947,1.200000000000017,1230.0012650938813,6213.349999977635,300.00000000035106,0.0028583116300985546,49.99999991831936,-2.2618106510475885e-09,0.00010130981558731164,4.523028755324494e-11,1.5708554874156486,1229.5500734818388,6164.61489059163,291.6768376647583
1.4609561430000042,1.3910000000000196,1230.001854763146,6222.849999959363,299.99999999978866,0.003459201942610439,49.999999880362104,-3.3649530914297812e-09,9.462220601823068e-05,6.729029878742082e-11,1.5708434696434965,1229.5514549257346,6168.906027880543,291.6702079534504
1.6284313170000075,1.5459999999999923,1230.0024149947105,6230.549999939023,299.99999999917367,0.003915201549925779,49.99999984673775,-4.1648397327270136e-09,8.727041250141037e-05,8.328688417782353e-11,1.5708343496722752,1229.5529143127399,6173.197165163074,291.66357824201816
1.8310674540000207,1.7450000000000045,1230.00321695819,6240.24999990589,299.99999999823416,0.004437842706275897,49.999999803084116,-4.976613457471792e-09,7.635142717286917e-05,9.952243157595976e-11,1.570823896864397,1229.6489378803908,6180.610782816479,291.21041880341784
2.0374283609999964,1.9399999999999977,1230.0039609994844,6248.349999871767,299.9999999973446,0.004822976054109422,49.9999997674194,-5.457326737919464e-09,6.639199328556645e-05,1.0913748630004974e-10,1.5708161942048497,1229.6577503777348,6185.321629676259,291.16976191177605
2.2109084810000184,2.0999999999999943,1230.004965399377,6258.39999982159,299.9999999961603,0.005229227389070439,49.999999726583745,-5.816344915485177e-09,5.361209914254316e-05,1.1631952329845528e-10,1.5708080691793835,1229.6661262751365,6189.7707628159615,291.13136373632017
2.380028264999993,2.2680000000000007,1230.005803258165,6266.249999776887,299.99999999520406,0.005489602801076636,49.9999996986754,-5.93471202922682e-09,4.3705882359264906e-05,1.1868835928113028e-10,1.5708028616681164,1229.5911020738313,6198.277719012636,291.1803038218829
2.5835109620000196,2.4569999999999936,1230.0066790575734,6274.099999728024,299.99999999424625,0.005701617818345021,49.999999674948896,-5.90672270524298e-09,3.413515901696001e-05,1.1813009915422924e-10,1.5707986213607588,1229.592161339724,6202.7860197249065,291.1514603326687
2.7531774680000183,2.616000000000014,1230.0078375883604,6284.099999660901,299.99999999305146,0.0059037072168046404,49.99999965149613,-5.732504397658837e-09,2.2735403132724365e-05,1.146474328487531e-10,1.5707945795619653,1229.5935113820865,6208.421395612154,291.1154059712113
2.9566113909999956,2.805000000000007,1230.0087600524669,6291.849999606025,299.999999992164,0.0060108040411455095,49.99999963873622,-5.498531223724624e-09,1.4683536960477685e-05,1.0996906334055374e-10,1.5707924376149993,1229.9312737952525,6220.90071875618,290.3753402703318
3.132755483000011,2.967000000000013,1230.0099521963343,6301.699999533913,299.9999999911015,0.006091914146186853,49.999999628919774,-5.137260394371055e-09,5.5713776948076174e-06,1.0274469481520612e-10,1.5707908153986587,1229.9591876422055,6225.985870031897,290.29019098546416
3.303258490000019,3.1340000000000146,1230.0109721485635,6310.049999471622,299.9999999902646,0.00611735759081241,49.99999962581335,-4.792037136059246e-09,-1.1027806498297203e-06,9.584083049214571e-11,1.5707903065172621,1229.9905892741617,6231.706665217255,290.1943980400576
3.4718241090000106,3.290999999999997,1230.0119328392548,6317.899999412828,299.9999999895326,0.006109121534660045,49.9999996268204,-4.465589895936374e-09,-6.4726917635411005e-06,8.931223395260623e-11,1.5707904712261613,1230.0876025214711,6248.6564344476,288.2446333977255
3.674165329999994,3.480000000000018,1230.0128784050105,6325.64999935516,299.9999999888626,0.0060753210656621735,49.99999963093888,-4.1206591460034105e-09,-1.0915121989815972e-05,8.241380566878444e-11,1.5707911472252347,1230.1225635017847,6254.972024752274,288.0086443216387
3.8435887939999986,3.647999999999996,1230.0141064125776,6335.799999280903,299.99999998806607,0.005999888625632203,49.99999964004764,-3.6956363036233848e-09,-1.5559455950274882e-05,7.39133852626988e-11,1.5707926558593583,1230.3798594047917,6274.1000374154355,288.71988257265036
4.01317313200002,3.8060000000000116,1230.0150500492741,6343.6999992245555,299.9999999875043,0.005920951836380651,49.999999649457735,-3.3789290095186263e-09,-1.8273808386222527e-05,6.757917081904913e-11,1.5707942345851098,1230.4366754853195,6282.081728575272,288.54091338907926
4.183482136999999,3.9680000000000177,1230.0159978718755,6351.74999916876,299.9999999869834,0.005827057516605527,49.99999966048862,-3.0712857660785258e-09,-2.0318924131683308e-05,6.142617322824312e-11,1.5707961124617333,1230.4855318769332,6288.947699467492,288.38696140326124
4.352897503999998,4.135999999999996,1230.0169758266588,6360.1999991121775,299.999999986487,0.005717918722899199,49.99999967308886,-2.760330819972855e-09,-2.175967506092118e-05,5.520692618027725e-11,1.5707982952293225,1230.0018652997453,6312.184363793851,288.40344564400783
4.566066460000002,4.338999999999999,1230.0181140923903,6370.24999904774,299.9999999859621,0.0055788633996271516,49.99999968879788,-2.4085224411786633e-09,-2.265800517998844e-05,4.817057417825978e-11,1.5708010763271014,1230.0183127798907,6321.509750467004,288.2356444326868
4.77554923400001,4.534999999999997,1230.019016242297,6378.399998997825,299.999999985587,0.005462311145621807,49.99999970166686,-2.1363975627385544e-09,-2.2835309209053938e-05,4.2727942898109416e-11,1.5708034073662975,1230.0347339309617,6330.835137143,288.06784322142454
4.943935151000005,4.700000000000017,1230.0199100299121,6386.649998949432,299.9999999852515,0.005343639345468036,49.99999971449072,-1.8677343258514317e-09,-2.260487309792254e-05,3.7354569792051725e-11,1.5708057807975166,1228.8503116927573,6353.791880702766,290.93481194763103
5.147942940000007,4.896000000000015,1230.0211181730792,6398.099998885694,299.9999999848569,0.005181625546556079,49.999999731543404,-1.5097824587181926e-09,-2.175132171960814e-05,3.019542803153004e-11,1.5708090210685097,1228.7835078443547,6364.075253609527,290.9770158413814
5.351471040000007,5.0870000000000175,1230.0221028611961,6407.6999988352045,299.99999998458657,0.005051022206302164,49.99999974490784,-1.2153346819051847e-09,-2.0687261921696358e-05,2.430642451499215e-11,1.5708116331324862,1228.7237162578244,6373.276166212287,291.01477722004563
5.521773160000009,5.256,1230.0228946446819,6415.599998795522,299.99999998440916,0.004948516788377384,49.999999755158086,-9.7839860856618e-10,-1.9652523967281253e-05,1.9567686631522863e-11,1.5708136832393347,1229.2380186472476,6393.90656198741,289.95665168347733
5.690981639,5.412000000000006,1230.0235537206333,6422.299998763116,299.9999999842874,0.004865567158548465,49.999999763298966,-7.775715000124521e-10,-1.870419352807723e-05,1.555114257446909e-11,1.5708153422311018,1229.2128331818283,6403.199073024741,289.93269087994304
5.860089043000016,5.572000000000003,1230.024488647259,6431.99999871807,299.9999999841574,0.004752686907088478,49.999999774156294,-4.907828277090555e-10,-1.7269839096969005e-05,9.815383164381883e-12,1.5708175998356777,1229.1829077690918,6414.233929883237,289.9042374257932
6.029692647000019,5.740000000000009,1230.0254163219413,6441.849998674383,299.9999999840791,0.004647027261621643,49.99999978408815,-2.0882163513683354e-10,-1.5802654337548682e-05,4.1761859964785765e-12,1.5708197130288153,1229.433384482606,6432.642079389739,288.9164281979221
6.240471807999995,5.937000000000012,1230.0261731990117,6450.049998639483,299.99999998405605,0.004566016748381235,49.99999979155183,2.7701407160759738e-11,-1.4614185745300896e-05,-5.542477521586816e-13,1.5708213332396714,1229.4218190737147,6442.929627500014,288.8386839084878
6.41822430000002,6.100999999999999,1230.0269306951752,6458.3999986051485,299.9999999840717,0.004489767448689029,49.9999997984569,2.599180832293647e-10,-1.3462133440193195e-05,-5.198551474785583e-12,1.570822858226599,1229.4102409233637,6453.217175611421,288.7609396190945
6.620876088000017,6.290999999999997,1230.027627076641,6466.1999985740595,299.99999998412204,0.0044240805304674585,49.999999804312225,4.708587245367312e-10,-1.2458582612248002e-05,-9.417337808347221e-12,1.5708241719659595,1229.5486259423246,6467.079186191871,286.91864878752693
6.790779674000021,6.460000000000008,1230.028326639714,6474.149998543288,299.99999998421,0.004362085292610066,49.99999980975931,6.781284602851731e-10,-1.1516855689369504e-05,-1.3562704717715989e-11,1.5708254118720637,1229.5449060796186,6477.567606602205,286.74793610209554
6.96121859500002,6.619,1230.0292103529937,6484.349998505007,299.9999999843669,0.004289362007075485,49.99999981605101,9.285580802962012e-10,-1.0443539705640215e-05,-1.8571268221162507e-11,1.5708268663393377,1229.5407376370936,6489.2899588264545,286.5571395713589
7.131096049000007,6.777999999999992,1230.030028981357,6493.9499984701015,299.99999998456383,0.004227096622258509,49.9999998213539,1.1544822403856487e-09,-9.578016529152803e-06,-2.308972813938419e-11,1.5708281116485472,1228.886626258685,6501.992006125014,290.56502303792416
7.369794750000011,7.004000000000019,1230.0308360696881,6503.5499984362,299.99999998480286,0.004169926677556392,49.99999982615456,1.3745030964981227e-09,-8.850668674792118e-06,-2.749012544090248e-11,1.5708292550489695,1228.8477752311646,6513.130112305636,290.6099843675714
7.537899981999999,7.170000000000016,1230.0315211533562,6511.79999840774,299.9999999850398,0.004124213763662509,49.99999982994609,1.548887541903839e-09,-8.330771682873028e-06,-3.097779985578432e-11,1.5708301693085427,1228.971398050086,6524.474112249106,289.83854617696
7.740790051999994,7.361000000000018,1230.032174341054,6519.749998380914,299.99999998529495,0.004082701221708875,49.99999983335304,1.7120834053041526e-09,-7.918483049222815e-06,-3.4241706352645983e-11,1.5708309995604381,1228.9448952429118,6534.366524925659,289.8383224923769
7.910314794000016,7.52000000000001,1230.0329585523805,6529.399998349063,299.99999998564004,0.0040349855971239185,49.999999837226504,1.898136677120962e-09,-7.522203139721487e-06,-3.7962760723530366e-11,1.5708319538741498,1228.911758134012,6546.732040772041,289.838042886681
8.114516207999998,7.724000000000018,1230.0337377438625,6539.099998317782,299.9999999860222,0.0039893222780301345,49.99999984089071,2.071550722840945e-09,-7.225965892845665e-06,-4.143103230461428e-11,1.570832867141678,1229.3102956666992,6557.92872413172,289.3266813946211
8.285292756000018,7.8840000000000146,1230.0342708559397,6545.799998296591,299.99999998630483,0.003958830819250474,49.99999984331426,2.1841781620327003e-09,-7.074401525356306e-06,-4.3683576357810255e-11,1.5708334769714711,1229.3048819546148,6567.133636849004,289.3034955345522
8.45468067500002,8.040999999999997,1230.0351569079169,6557.0499982616975,299.99999998681193,0.003908979660790378,49.99999984723646,2.3520613643242638e-09,-6.902002013595902e-06,-4.704123477875617e-11,1.5708344739954123,1229.2980178129355,6578.79319295809,289.27412677848616
8.65758704800001,8.242000000000019,1230.0357957397953,6565.249998236807,299.99999998720324,0.0038733411273488188,49.99999985000998,2.4621670090001054e-09,-6.827951718820006e-06,-4.924334334947445e-11,1.5708351867667045,1228.812151121222,6587.43971077222,288.14855093734906
8.93645608,8.501000000000005,1230.0368080943438,6578.399998197842,299.9999999878698,0.003816896048040341,49.999999854350804,2.61734718403104e-09,-6.7812792975912565e-06,-5.234694286407497e-11,1.5708363156688785,1228.764031795304,6603.737786274941,288.0191070077949
9.17461006000002,8.734000000000009,1230.0375642606796,6588.349998169131,299.9999999883989,0.0037743790915518364,49.99999985757843,2.7181921022305677e-09,-6.786914191862937e-06,-5.436383920419388e-11,1.570837166008309,1228.3104668896274,6612.486029703721,285.11391387196375
9.344642402999995,8.891999999999996,1230.0382895351088,6597.999998141879,299.9999999889288,0.0037330843764349984,49.9999998606786,2.8006449362879187e-09,-6.81386318088795e-06,-5.60128946987746e-11,1.570837991902786,1228.2586131877845,6622.620740931132,284.88811960962755
9.548603248999996,9.081999999999994,1230.0388699182674,6605.799998120289,299.99999998936846,0.0036995781136412585,49.999999863169045,2.8573869521137116e-09,-6.8445568687062174e-06,-5.714773446723395e-11,1.5708386620281212,1228.203702499373,6633.351611643004,284.64904333186934
9.71786839500001,9.251000000000005,1230.0395807286347,6615.449998094115,299.9999999899248,0.0036579122576152518,49.999999866234624,2.9147254524527064e-09,-6.887048760361645e-06,-5.829450432587253e-11,1.5708394953452613,1227.3453542759446,6638.683042393348,285.78822933180504
9.887970418000009,9.408999999999992,1230.0401566276623,6623.349998073145,299.99999999038806,0.003623610802101318,49.999999868732296,2.9548142578748196e-09,-6.92144522000089e-06,-5.90962806538502e-11,1.5708401813743385,1227.2523990580528,6648.554253159011,285.63253282034066
10.092714860000001,9.602000000000004,1230.0407594519938,6631.699998051388,299.9999999908843,0.0035871694695527806,49.99999987136002,2.9850908466754957e-09,-6.9541093675699285e-06,-5.970181286876257e-11,1.570840910200925,1227.1594370744983,6658.425463925155,285.4768363088804
10.262044986000006,9.769000000000005,1230.0414449641494,6641.299998026924,299.9999999914572,0.003545065935415791,49.999999874362935,3.010376027332543e-09,-6.983739647015696e-06,-6.020751720930092e-11,1.5708417522715032,1228.4359648800287,6664.974039330401,284.8510539646427
10.464298733000021,9.956999999999994,1230.0421013112286,6650.599998003763,299.9999999920209,0.003504115745487724,49.99999987724959,3.021233771143599e-09,-7.001996105820422e-06,-6.042467299501131e-11,1.5708425712751728,1228.409016258296,6676.366786425139,284.6399833555607
10.667767826000016,10.14700000000002,1230.0426876253707,6658.999997983307,299.99999999253,0.0034670446710994693,49.99999987983387,3.023342886805338e-09,-7.008613548557303e-06,-6.046685628568191e-11,1.5708433126965227,1229.4169273546358,6684.275197304109,284.20592932076073
10.904778606999997,10.372000000000014,1230.0436747844399,6673.349997949364,299.99999999339974,0.0034036783603876067,49.99999988418769,3.0108480098609e-09,-6.99591088794606e-06,-6.02169603798303e-11,1.5708445800225068,1229.4597039431203,6697.064079098978,283.9485333573069
11.111678855999997,10.567000000000007,1230.0442374746594,6681.649997930314,299.99999999389814,0.0033670962276206575,49.99999988666461,2.9958152751954254e-09,-6.97491914597102e-06,-5.991630655443359e-11,1.5708453116650394,1229.493172911739,6707.072769199872,283.7470930380772
11.314084494000014,10.765000000000015,1230.0448640549853,6690.999997909326,299.9999999944562,0.003326029868396891,49.99999988941328,2.96898121900157e-09,-6.939694264134292e-06,-5.937962632404623e-11,1.570846132992096,1229.9465181070632,6713.868680262639,283.02430774229794
11.483633861000015,10.917000000000002,1230.0453643967974,6698.549997892759,299.9999999949027,0.0032930239494287916,49.999999891598016,2.941549346579751e-09,-6.903179055562924e-06,-5.88309896764251e-11,1.5708467931103594,1229.9839771138122,6720.412797786751,282.87138997900087
11.652435432000004,11.069999999999993,1230.0459087463225,6706.8499978749,299.9999999953887,0.0032569450133407857,49.99999989396121,2.901652847278124e-09,-6.85526712612765e-06,-5.80330602874908e-11,1.5708475146889929,1230.052643445214,6732.410346581501,282.5910407462792
11.864754266000006,11.271000000000015,1230.0465598821754,6716.899997853824,299.99999999596656,0.003213598333916399,49.99999989676602,2.8482008988267415e-09,-6.787843194469223e-06,-5.696402201731143e-11,1.5708483816224754,1230.2044444870503,6739.327141404305,282.0981646092993
12.072459637999998,11.467000000000013,1230.047180087237,6726.599997834028,299.99999999651396,0.0031721788503209086,49.999999899411016,2.779070143461666e-09,-6.71431291905666e-06,-5.558140744182588e-11,1.570849210012063,1230.2690783074,6749.504630357217,281.8414520443021
12.274442945999994,11.664999999999992,1230.0478079808404,6736.549997814202,299.99999999705983,0.0031301645538548395,49.99999990205892,2.695739267969593e-09,-6.632014509208949e-06,-5.391479032336425e-11,1.5708500502979268,1230.9878389526903,6756.612239500871,280.59671253897176
12.444035559000014,11.819000000000017,1230.0482912483187,6744.2999977991285,299.9999999974744,0.0030978055448271234,49.99999990407424,2.6265141143952095e-09,-6.564111571231749e-06,-5.2530287467917296e-11,1.5708506974780678,1231.08020923286,6765.538716032271,280.31509805921013
12.646441365000015,12.00800000000001,1230.0488768413757,6753.799997781098,299.9999999979672,0.003058593439390959,49.999999906488334,2.5380216665916106e-09,-6.477589111929621e-06,-5.076043868038288e-11,1.5708514817201416,1231.1943041193165,6776.5655399834,279.9672213488924
12.850259768,12.211000000000013,1230.0494701509838,6763.549997763026,299.99999999845386,0.0030188833789012185,49.99999990890174,2.437892694641096e-09,-6.386237077643636e-06,-4.875785932990153e-11,1.5708522759213273,1230.4130203654215,6781.890908440027,283.27039846489674
13.022770945000019,12.370000000000005,1230.049963175563,6771.749997748245,299.9999999988484,0.0029859275532657867,49.99999991088071,2.3574374583680913e-09,-6.308240305666605e-06,-4.714875459871124e-11,1.570852935037831,1230.462334152613,6791.126014501693,283.17090944280847
13.228399811000003,12.564999999999998,1230.0505453463209,6781.549997730962,299.9999999993022,0.002947067686662596,49.9999999131863,2.2537374640511675e-09,-6.2145769576200086e-06,-4.507475464984485e-11,1.5708537122351618,1230.519858701975,6801.900304907445,283.054838917016
13.430637401000013,12.766999999999996,1230.0511228647247,6791.399997714029,299.99999999973704,0.0029085909228961254,49.999999915439396,2.1463274663338293e-09,-6.12077953946296e-06,-4.292655457880008e-11,1.5708544817704444,1229.8414696849725,6809.240070237125,283.7246322203156
13.632805246000004,12.960000000000008,1230.0516698267338,6800.849997698199,300.000000000134,0.0028722281176489103,49.9999999175415,2.040369373354961e-09,-6.031822799457959e-06,-4.080739256748605e-11,1.570855209026563,1229.852493581739,6819.369149893662,283.66043027818023
13.83696529400001,13.152000000000015,1230.0522468940028,6810.94999768174,300.0000000005374,0.002833939380941219,49.99999991972633,1.9270361589598413e-09,-5.938422041202483e-06,-3.854072808245958e-11,1.5708559748013182,1229.9150993632215,6826.658153974428,282.86366292639883
14.041214854000003,13.343999999999994,1230.052788246927,6820.549997666481,300.0000000008981,0.002798102285108236,49.99999992174471,1.8168593201584276e-09,-5.8516744779608935e-06,-3.6337191102907615e-11,1.5708566915432585,1229.9307954377653,6837.654211366476,282.7425681241889
14.278916455000001,13.569000000000017,1230.0534111835934,6831.749997649148,300.00000000129296,0.0027569504406702947,49.999999924030774,1.6832332915249806e-09,-5.753334407515318e-06,-3.3664670292466234e-11,1.5708575145801764,1229.943630859755,6846.650985596712,282.64349055872265
14.448021234999999,13.736000000000018,1230.0538423246007,6839.599997637327,300.00000000155126,0.002728517936213064,49.99999992559047,1.594483000239322e-09,-5.686327716817527e-06,-3.188966428723422e-11,1.5708580832302887,1228.6756828320604,6854.995401906593,285.85858527376445
14.651015281000014,13.926999999999992,1230.0543662532305,6849.2499976231275,300.00000000185025,0.002694020855640767,49.99999992746115,1.4852796722851597e-09,-5.606216562363401e-06,-2.970559752125707e-11,1.5708587731719272,1228.6154680360987,6864.4084572280235,285.9451790703254
14.85450341500001,14.12100000000001,1230.0549102087732,6859.399997608555,300.0000000021422,0.002658256278889352,49.99999992937538,1.3658820390817371e-09,-5.52459937361068e-06,-2.731764465844846e-11,1.5708594884634886,1228.5584167925567,6873.3260885854625,286.0272152986272
15.057089390000016,14.311000000000007,1230.0554153905175,6868.949997595174,300.00000000239305,0.0026250835798121413,49.999999931128,1.2524019527230177e-09,-5.450224431187343e-06,-2.5048042754640467e-11,1.5708601519174938,1227.8511576778762,6883.2050933201,286.14606490907653
15.22740171700002,14.468999999999994,1230.0558259184936,6876.7999975844405,300.0000000025833,0.002598150999397902,49.999999932534756,1.162998189888287e-09,-5.390742669359898e-06,-2.325996734824616e-11,1.5708606905691231,1227.7547653126453,6892.599745221883,286.2340648178477
15.430556859999996,14.670000000000016,1230.0563479548216,6886.899997570945,300.00000000280926,0.0025639219229551258,49.99999993430169,1.0479666378494284e-09,-5.316290353379592e-06,-2.0959336147891288e-11,1.5708613751506737,1227.987720519032,6900.230973565808,287.2644898292968
15.643800378999998,14.87100000000001,1230.0568580428117,6896.899997557982,300.0000000030107,0.0025304974916693077,49.99999993600445,9.39888312990508e-10,-5.244678659272497e-06,-1.8797769503492044e-11,1.5708620436393197,1227.9145516783174,6909.04430244841,287.40025023336483
15.817936126000006,15.034999999999997,1230.0572738535675,6905.149997547492,300.0000000031609,0.002503261883092065,49.99999993737542,8.488789886690048e-10,-5.187045262829902e-06,-1.6977582902731505e-11,1.570862588351507,1227.8454430464471,6917.368001948878,287.52846839274684
15.988335437000018,15.205000000000013,1230.0576926335896,6913.549997537062,300.0000000032988,0.0024758362323456153,49.99999993874096,7.583880622312961e-10,-5.129585280802498e-06,-1.5167764271966012e-11,1.5708631368645358,1228.0108635209524,6926.97408543817,286.8602688013434
16.234499002000007,15.437000000000012,1230.0582560762712,6924.999997523236,300.00000000346193,0.0024389438455164497,49.99999994055416,6.417080704462816e-10,-5.0530544984799855e-06,-1.2834164308901858e-11,1.5708638747122894,1227.947979868448,6936.249350913808,286.95608485549917
16.411526320999997,15.602000000000004,1230.0586665146013,6933.449997513248,300.00000000356437,0.0024120681023030686,49.99999994185791,5.541189563834585e-10,-4.997754744449944e-06,-1.1082381943427122e-11,1.570864412227165,1227.8917109052413,6944.548272655391,287.0418150092026
16.58069503600001,15.77000000000001,1230.0590437331387,6941.299997504203,300.00000000364804,0.002387369020668377,49.99999994304333,4.768575105637092e-10,-4.947196249352085e-06,-9.53715295739431e-12,1.5708649062088065,1228.2988256321225,6953.083773465452,284.87611789790066
16.783349471999998,15.959000000000003,1230.0594974417563,6950.849997493436,300.00000000373285,0.0023576570830300013,49.999999944453165,3.84742747065016e-10,-4.886639750824296e-06,-7.694857607476176e-12,1.5708655004475693,1228.2625105627792,6962.355821479128,284.84315027454363
16.98769035800001,16.15299999999999,1230.0598918629046,6959.2499974842085,300.0000000037924,0.0023318184854760745,49.999999945664875,3.0845550568516427e-10,-4.834138032596223e-06,-6.169112712805982e-12,1.570866017219529,1228.2281018268043,6971.139866966,284.81191778924347
17.157350690000015,16.310000000000002,1230.0603373218983,6968.849997473891,300.0000000038446,0.0023026336299185554,49.999999947017436,2.2353873338976549e-10,-4.7749367922751e-06,-4.4707772017665295e-12,1.5708666009166479,1229.312006985373,6980.933257677949,281.2875211475372
17.36177626600002,16.5,1230.0606951406692,6976.64999746568,300.0000000038756,0.002279185763851401,49.99999994809176,1.5360591766626582e-10,-4.727400139175645e-06,-3.07212083277029e-12,1.570867069873976,1229.3344562156065,6988.77524979881,281.0942931466811
17.531839622999996,16.668000000000006,1230.0611530897959,6986.7499974552975,300.0000000038991,0.002249163443904894,49.99999994945128,6.769405627278748e-11,-4.666540918770333e-06,-1.3538835474104997e-12,1.570867670320381,1229.6442069858806,6997.7452189672795,282.9515096313148
17.700498702000004,16.830000000000013,1230.0614378981434,6993.099997448929,300.00000000390503,0.002230489393208369,49.999999950287815,1.8930791974349812e-11,-4.628639987769235e-06,-3.78618223402581e-13,1.5708680438013993,1229.683159222373,7006.095557562794,282.85591303085505
17.869744243000014,16.989000000000004,1230.0617933520673,7001.099997441043,300.0000000039035,0.002207178788690613,49.999999951322266,-4.277749530373207e-11,-4.581280491228378e-06,8.555475634209741e-13,1.5708685100134934,1229.7221073104542,7014.445896158492,282.7603164303848
18.039147677000017,17.158000000000015,1230.0622411976585,7011.29999743122,300.0000000038892,0.0021777979042102214,49.99999995261066,-1.1870207270045204e-10,-4.521472469748387e-06,2.374039165462514e-12,1.5708690976311892,1230.06716240829,7022.313562918474,281.205008538508
18.243370448000007,17.352000000000004,1230.0626572302076,7020.899997422192,300.0000000038608,0.0021505004422066286,49.99999995379218,-1.8826738665712563e-10,-4.465758466147876e-06,3.76534549542093e-12,1.5708696435804346,1230.1254407819015,7031.111608027546,281.0223160480376
18.41142270100002,17.504999999999995,1230.0630616643116,7030.34999741356,300.00000000382084,0.002123959693405031,49.999999954926665,-2.4685499209633146e-10,-4.4114641886700955e-06,4.937097651479239e-12,1.5708701743954159,1230.1901893103122,7040.887213704514,280.81932439194816
18.648732077000005,17.741000000000014,1230.0634085631366,7038.549997406265,300.0000000037765,0.002101187360919456,49.99999995588882,-2.929781207288668e-10,-4.364773202945115e-06,5.859560263350239e-12,1.5708706298420696,1230.6733909729826,7050.377006857042,281.0632005117598
18.826924112,17.906000000000006,1230.0637621582166,7046.99999739885,300.00000000372427,0.0020779731813310113,49.999999956858986,-3.4608189233045776e-10,-4.317061429381801e-06,6.9216357359324135e-12,1.5708710941256656,1230.745609637011,7058.1930968028155,280.9223570563743
19.000955421000015,18.069000000000017,1230.0640994873715,7055.149997391891,300.00000000366475,0.002055825015434768,49.99999995777454,-3.875735980964852e-10,-4.271437740270158e-06,7.751469890950952e-12,1.5708715370889879,1230.8313649772497,7067.474703613593,280.755105453096
19.171033636999994,18.239000000000004,1230.0645084862967,7065.149997383551,300.0000000035824,0.002028966535627284,49.99999995887166,-4.371116843779311e-10,-4.215987449651252e-06,8.742231662823614e-12,1.570872074258589,1229.4240640337248,7076.121363528218,283.4121905277056
19.424256170000007,18.467000000000013,1230.064904112133,7074.949997375558,300.0000000034925,0.0020029859319147434,49.999999959919194,-4.83238471012685e-10,-4.162225918946085e-06,9.66476744224763e-12,1.570872593870669,1229.4244458640633,7086.3521601945495,283.4058796442334
19.627316073000003,18.665999999999997,1230.0653678459093,7086.5999973663065,300.00000000337576,0.0019725298875445554,49.99999996112997,-5.356275815099766e-10,-4.099079661999285e-06,1.071254970691279e-11,1.5708732029915629,1229.3602850591355,7095.206127118591,284.6363421609949
19.79768385700001,18.823000000000008,1230.0656782794567,7094.499997360269,300.00000000328896,0.0019521444903082253,49.999999961930044,-5.581409672230059e-10,-4.056749824344479e-06,1.116281745671858e-11,1.5708736106995118,1229.357167499312,7103.554740853916,284.6967761936208
20.000697204999994,19.013000000000005,1230.065981632573,7102.299997354341,300.0000000032001,0.0019322235654322584,49.99999996270383,-5.911682485161043e-10,-4.01534142855056e-06,1.1823363123666578e-11,1.570874009118015,1229.3536788756057,7112.8855444406245,284.76432011243315
20.205039454,19.215000000000003,1230.0664156349974,7113.599997346042,300.0000000030631,0.001903718492223397,49.999999963797265,-6.207289514665685e-10,-3.956057440556258e-06,1.2414577232551966e-11,1.5708745792194851,1229.8373730376259,7124.25970977667,282.73331866703353
20.408429223000013,19.406000000000006,1230.0667849563683,7123.349997339071,300.00000000293903,0.0018794653881847915,49.999999964714796,-6.423438003032286e-10,-3.905568318123345e-06,1.284687425426881e-11,1.5708750642815719,1229.8636067446305,7134.158785168505,282.6752851476458
20.582208648999995,19.568000000000012,1230.0671607282156,7133.39999733199,300.00000000280784,0.0018547877851584436,49.999999965636356,-6.707451161872728e-10,-3.8541732031551305e-06,1.3414900615994546e-11,1.5708755578336382,1229.8885240895045,7143.562906790924,282.6201533042243
20.785326980000008,19.768,1230.0674526302992,7141.29999732666,300.0000000027047,0.0018356198558565687,49.99999996634373,-6.779035448421409e-10,-3.814235874670338e-06,1.3558069222338956e-11,1.5708759411922286,1229.3424710165073,7153.4062390296685,283.7241585715872
21.02224618400001,19.985000000000014,1230.0678667461707,7152.649997319092,300.00000000254596,0.0018084260156334586,49.9999999673347,-6.964895470079345e-10,-3.7575667222686988e-06,1.3929789317839315e-11,1.5708764850690409,1229.3348341014964,7162.818457203843,283.73510672067175
21.19149662800001,20.15299999999999,1230.0681656951458,7160.94999731374,300.00000000242983,0.001788794294336201,49.99999996804092,-7.012258121015274e-10,-3.716668126174779e-06,1.4024514652821824e-11,1.5708768777034712,1229.2774776482618,7172.176862203514,282.8745158395473
21.395839077000005,20.345,1230.068448985072,7168.899997308662,300.00000000231864,0.00177019352625959,49.999999968702916,-7.126584539521275e-10,-3.6779120695193003e-06,1.4253167523139472e-11,1.5708772497188375,1229.2679656280668,7180.632319489138,282.83803502721815
21.565775618000004,20.503000000000014,1230.0687871501113,7178.499997302757,300.0000000021844,0.0017479903109982253,49.99999996948407,-7.133820549807231e-10,-3.631661839973235e-06,1.4267639582698575e-11,1.5708776937831483,1229.2573307051525,7190.082536455556,282.79726235461357
21.735402163999993,20.671999999999997,1230.0690830403223,7186.999997297571,300.0000000020639,0.0017285604863163063,49.99999997015955,-7.222241811027237e-10,-3.591196421445028e-06,1.44444821399269e-11,1.5708780823796473,1229.0807222602318,7199.294976157898,281.9485546696945
21.94568855,20.872000000000014,1230.0694235111412,7196.899997291777,300.0000000019252,0.0017062051343801814,49.99999997092744,-7.164541003076502e-10,-3.544642017982199e-06,1.4329080561930599e-11,1.5708785294866916,1229.0614079830427,7208.245656609958,281.86500096931115
22.15389956300001,21.067000000000007,1230.0697562030496,7206.699997286093,300.0000000017865,0.0016843621861345793,49.99999997166805,-7.20572012018889e-10,-3.4991652620562153e-06,1.4411438833447819e-11,1.5708789663456622,1229.0410166565164,7217.693597087267,281.77680539668586
22.324392437,21.23400000000001,1230.070019614451,7214.549997281733,300.0000000016767,0.0016670670639974579,49.9999999722477,-7.099871711191929e-10,-3.463165742102502e-06,1.4199742045909952e-11,1.5708793122481095,1228.8733299378139,7226.820334123191,283.7054172256393
22.527246183000017,21.42500000000001,1230.0703364303633,7224.099997276429,300.0000000015431,0.001646268555517466,49.99999997293679,-7.099767595593681e-10,-3.419890972323385e-06,1.4199533850293715e-11,1.5708797282182847,1228.847529161087,7235.241861044879,283.7304694074627
22.69757538600001,21.581999999999994,1230.070611838245,7232.499997271964,300.00000000142563,0.0016281891123387244,49.999999973528766,-6.972486277762888e-10,-3.3822951033256583e-06,1.394497124225371e-11,1.5708800898071524,1228.8202073762243,7244.158771903249,283.7569952470425
22.900986335,21.77600000000001,1230.0709244875059,7242.149997266893,300.00000000129063,0.001607663978381146,49.99999997419294,-6.853745755985238e-10,-3.3396144920631216e-06,1.3707490234147259e-11,1.5708805003098374,1229.5730979796967,7251.8123049519345,284.21076357044234
23.10601781700001,21.967000000000013,1230.071174307527,7249.949997262878,300.00000000118155,0.0015912645943257893,49.999999974717554,-6.782633460810452e-10,-3.305532065482443e-06,1.3565265668257179e-11,1.5708808282975222,1229.5879841688363,7260.671535604046,284.2604558328479
23.274169469000014,22.129999999999995,1230.071432624695,7258.099997258839,300.00000000107366,0.0015743061912253066,49.999999975254376,-6.58175948343795e-10,-3.270296444435969e-06,1.3163517741686447e-11,1.570881167465589,1229.602040145934,7269.038586775582,284.30738741401035
23.443032511000013,22.286,1230.0716788238153,7265.949997254947,300.00000000097117,0.0015581449400365315,49.99999997576062,-6.492869490096201e-10,-3.23672365878169e-06,1.2985737779236384e-11,1.5708814906906163,1229.2443359514136,7277.3105243653645,283.5662199279673
23.61256013000002,22.454000000000008,1230.071976480784,7275.549997250365,300.0000000008459,0.0015386047858475915,49.999999976365764,-6.297064019474078e-10,-3.1961418716206098e-06,1.2594126867692684e-11,1.5708818814937051,1229.23944210166,7285.707936439581,283.5730630355171
23.782030407000008,22.613,1230.0722369275775,7284.049997246405,300.00000000074124,0.0015215052129670544,49.99999997688903,-6.089335528536072e-10,-3.160632665715405e-06,1.2178669913193933e-11,1.5708822234851672,1229.2342573069554,7294.599313930023,283.58030867880746
23.952381091000007,22.772999999999996,1230.0724778881513,7291.999997242701,300.0000000006449,0.0015056871015154656,49.99999997736789,-5.991168272976742e-10,-3.1277787151195764e-06,1.1982335426160095e-11,1.5708825398474002,1229.286444156281,7303.05817699499,284.1016948524393
24.158432196999996,22.967000000000013,1230.0727685021554,7301.699997238416,300.00000000052887,0.0014866086603348768,49.99999997793876,-5.714929904178078e-10,-3.0881623630797607e-06,1.142985871697962e-11,1.5708829214162285,1229.284091224449,7312.953011952937,284.1405968261446
24.360822823999996,23.168000000000006,1230.073064257687,7311.6999972340545,300.000000000417,0.0014671910473194102,49.999999978512314,-5.452138819008249e-10,-3.0478447256378003e-06,1.0904276574000372e-11,1.5708833097684936,1229.4712405675298,7322.275378615247,284.143918614455
24.529881361000008,23.325000000000017,1230.0732951611622,7319.599997230611,300.00000000032986,0.0014520334013966036,49.999999978954804,-5.336298213767136e-10,-3.016367927340941e-06,1.0672595384925195e-11,1.5708836129214154,1229.4802079070412,7331.711898462118,284.1790443030668
24.733509569000006,23.51600000000002,1230.0735725483692,7329.199997226704,300.0000000002314,0.0014338234679585307,49.99999997948033,-5.01147745499725e-10,-2.97855764858515e-06,1.0022953893709172e-11,1.5708839771200889,1229.4887001638476,7340.65175936977,284.21232127123056
24.937921786999993,23.72,1230.0738478749436,7338.849997222784,300.00000000013773,0.0014157463886313427,49.99999997999547,-4.731521877208563e-10,-2.9410196526053423e-06,9.463042764068668e-12,1.57088433866168,1230.1754387595631,7351.059913390988,283.1279059520577
25.141301697000017,23.911,1230.074084718325,7347.249997219372,300.0000000000594,0.0014001982949798236,49.99999998043328,-4.5991835947163976e-10,-2.908730731740755e-06,9.198366220320104e-12,1.570884649623557,1230.2185671501925,7359.51229441655,283.10111581631423
25.310846025000018,24.069999999999993,1230.0743535875383,7356.899997215703,299.99999999997254,0.001382547092814246,49.99999998092447,-4.2393479697619555e-10,-2.872077891071369e-06,8.478694994605576e-12,1.5708850026476042,1230.259156090282,7367.46747655832,283.07590157091346
25.479216573000002,24.23600000000002,1230.07456705503,7364.649997212786,299.9999999999075,0.001368532118798007,49.99999998131004,-3.980302641183055e-10,-2.842969409593821e-06,7.960604357448321e-12,1.5708852829470885,1230.228122694189,7375.972231723592,283.1943797540057
25.648732757999994,24.39500000000001,1230.0747959997195,7373.049997209625,299.9999999998433,0.0013535021737442663,49.99999998171916,-3.794410325933883e-10,-2.811758109454033e-06,7.58881974577771e-12,1.5708855835459927,1230.2677796237933,7384.511147193412,283.17494663097557
25.81731545400001,24.552999999999997,1230.075010353796,7380.999997206725,299.999999999784,0.0013394300990649246,49.99999998209811,-3.6299318687474957e-10,-2.782532259911126e-06,7.259862851467379e-12,1.5708858649874902,1230.3092783222185,7393.4472215223705,283.154609641764
26.021335023999995,24.75400000000002,1230.0752635780848,7390.499997203434,299.99999999971885,0.00132280632322706,49.99999998254068,-3.247450804170914e-10,-2.7480067588710145e-06,6.494900742722945e-12,1.5708861974630106,1229.002842051098,7400.932139138759,282.6527409893424
26.190014426999994,24.909999999999997,1230.0754717584666,7398.399997200696,299.9999999996673,0.0013091379715904493,49.99999998290041,-3.005808355277759e-10,-2.71961951506122e-06,6.011615863991309e-12,1.570886470830047,1228.9727090491624,7409.327682094858,282.60864889887057
26.39422311300001,25.099999999999994,1230.0757309120104,7408.349997197249,299.9999999996116,0.0012921248905199496,49.99999998334296,-2.805042818999425e-10,-2.6842872584696874e-06,5.610084813006941e-12,1.5708868110916723,1228.9372550208516,7419.2047914550585,282.55677585126267
26.596346646,25.28800000000001,1230.0759700762244,7417.649997194207,299.9999999995596,0.0012764242254748822,49.99999998374624,-2.5009994061383934e-10,-2.651674232820117e-06,5.0019980079237815e-12,1.5708871251049774,1229.6679159599998,7429.10816610942,280.73984490368593
26.799974424,25.47800000000001,1230.076215179523,7427.29999719115,299.99999999951456,0.0012603334184339231,49.999999984154414,-2.1361197928144744e-10,-2.6182573722708417e-06,4.2722388014960225e-12,1.5708874469211223,1229.6781579350222,7439.08183076969,280.58139475152313
26.970093356000007,25.64700000000002,1230.076424773648,7435.649997188507,299.9999999994816,0.0012465718318974148,49.99999998449941,-1.9252585781339594e-10,-2.589682111461111e-06,3.85051638769687e-12,1.5708877221528557,1230.1286375373743,7446.685750665199,281.68125805231506
27.142306437000002,25.805000000000007,1230.076622191706,7443.599997185989,299.9999999994519,0.0012336114163094822,49.99999998482086,-1.7862428701738677e-10,-2.5627600991203524e-06,3.5724849876005887e-12,1.5708879813611707,1230.166191272802,7456.505450791333,281.60101732569933
27.34873147000002,26.001000000000005,1230.0768639543937,7453.449997183063,299.9999999994183,0.0012177384704215343,49.99999998520997,-1.48062248403874e-10,-2.5297880548813043e-06,2.9612442343742622e-12,1.5708882988200923,1230.2003281728878,7465.432450906067,281.528071210601
27.552305765,26.201999999999998,1230.0771050143267,7463.399997180209,299.99999999939047,0.001201911088050001,49.99999998559292,-1.113400899138007e-10,-2.4969028474691335e-06,2.226801083555436e-12,1.5708886153677435,1231.0825867068181,7475.747165235065,279.804679798382
27.788328489999998,26.42500000000001,1230.0773607335861,7474.09999717714,299.9999999993705,0.001185123042207796,49.99999998599366,-8.487363833350257e-11,-2.4620210614765902e-06,1.6974720727580756e-12,1.5708889511286648,1231.1858148777915,7487.1888236175655,279.59550423217325
27.99161983000002,26.61500000000001,1230.077596509826,7484.099997174271,299.99999999935187,0.0011696441590301337,49.999999986358155,-7.071535501038621e-11,-2.4298638704111107e-06,1.4143064237448683e-12,1.570889260706332,1231.2665994235906,7496.14316496045,279.4318016151442
28.161786344000006,26.771000000000015,1230.0777771070934,7491.849997172224,299.9999999993427,0.0011577886200513582,49.99999998663411,-4.89771648366208e-11,-2.4052285382633314e-06,9.795426345625467e-13,1.5708894978171144,1231.2508592005418,7504.923182931233,280.8976684663906
28.329998152,26.937000000000012,1230.0779650562843,7499.99999717013,299.9999999993351,0.00114544901855163,49.99999998691834,-1.9777627662352683e-11,-2.379598407380875e-06,3.9555190406673105e-13,1.5708897446091472,1231.3309266841306,7514.399102497525,280.81722944195
28.540242699999993,27.13500000000002,1230.0781963385043,7510.149997167521,299.9999999993351,0.0011302633599881765,49.99999998726389,5.832620035218861e-12,-2.3480487294150235e-06,-1.166530327534527e-13,1.570890048322322,1231.4067777604025,7523.376289455118,280.7410240503777
28.72105001600002,27.305000000000007,1230.0783854224558,7518.549997165363,299.9999999993351,0.00111784827708151,49.999999987542985,2.152946591803087e-11,-2.3222475855358357e-06,-4.3058993671417887e-13,1.5708902966239835,1230.9086468339817,7529.793073874823,282.4733992234523
28.931178313999993,27.5,1230.0786033910063,7528.349997162844,299.9999999993424,0.001103537806435134,49.99999998786088,2.9822262178228613e-11,-2.292502119758936e-06,-5.964458462123448e-13,1.5708905828333999,1230.964272125471,7540.669125859277,282.4983896755224
29.134359898000014,27.700999999999993,1230.0788240276759,7538.399997160506,299.99999999935176,0.0010890514777882586,49.999999988178494,5.6616712458582756e-11,-2.2623911931675713e-06,-1.1323348362303725e-12,1.5708908725599762,1230.6189679290142,7550.224470907395,280.79802245483745
29.30464937000002,27.860000000000014,1230.078997580324,7546.399997158689,299.9999999993624,0.0010776579593943143,49.99999998842537,8.058891916964151e-11,-2.238708225453673e-06,-1.611778957565099e-12,1.570891100430347,1230.6427284149984,7559.137521600775,280.7231604421508
29.543392341000015,28.087000000000018,1230.0792407012368,7557.749997156111,299.9999999993836,0.001061696800510742,49.99999998876683,1.0334344529884702e-10,-2.205541959528863e-06,-2.0668694637331108e-12,1.5708914196535284,1230.6717660072272,7570.031250226088,280.6316624266483
29.74703662600001,28.28,1230.079405682323,7565.5499971543395,299.99999999939814,0.001050865991055368,49.99999998899564,1.1456949837454909e-10,-2.183032591642712e-06,-2.2913905138985575e-12,1.5708916362697203,1229.582511636955,7578.237172701535,281.70115717430747
29.916276763000013,28.444999999999993,1230.079606431719,7575.149997152158,299.9999999994217,0.0010376873453156446,49.99999998927087,1.2007071351748858e-10,-2.155651344251851e-06,-2.4014148031791026e-12,1.5708918998426382,1229.5400502666341,7588.69126315131,281.6854018847036
30.119075226999996,28.637,1230.079814929047,7585.249997150015,299.9999999994499,0.0010239983656152734,49.9999999895531,1.3147453035806672e-10,-2.1272152969059133e-06,-2.6294911259098835e-12,1.5708921736222357,1229.576236069963,7598.565683241851,279.0442781926409
30.327633667000015,28.837000000000018,1230.0799842053525,7593.549997148377,299.9999999994731,0.001012884669288089,49.99999998977947,1.542416252224838e-10,-2.104124611552796e-06,-3.0848330119748825e-12,1.5708923958961647,1229.5440043930016,7607.555294714003,278.88318468823144
30.50125648400001,29.001000000000005,1230.0801837116271,7603.449997146424,299.9999999995056,0.0009997864706243523,49.999999990043115,1.7434642959836847e-10,-2.0769104994969335e-06,-3.4869290866628696e-12,1.5708926578601412,1229.5153521624109,7615.546060467068,278.73999046209155
30.671273954000014,29.170000000000016,1230.08034997674,7611.799997144776,299.9999999995367,0.0009888700859640779,49.99999999026021,1.8426725555852517e-10,-2.0542267567239394e-06,-3.685345594657102e-12,1.5708928761878371,1229.26509024635,7624.314366120758,281.9098782803526
30.909085782000005,29.393,1230.0805691603584,7622.949997142577,299.99999999957834,0.0009744813316397222,49.99999999054272,1.9034870083613153e-10,-2.024332167518162e-06,-3.8069744864603e-12,1.570893163962927,1229.2135265442532,7634.729479727622,281.93934464941105
31.112066792999997,29.583,1230.080722522253,7630.849997141017,299.9999999996078,0.0009644138586396506,49.999999990737955,1.8924352945661125e-10,-2.0034181770557034e-06,-3.7848710486228004e-12,1.5708933653123898,1229.1717824702787,7643.160762171307,281.9631983767442
31.281870622000014,29.75200000000001,1230.0808743002262,7638.749997139493,299.9999999996372,0.000954448650789918,49.999999990929176,1.855547917118459e-10,-1.9827209778717115e-06,-3.711096284579436e-12,1.570893564616549,1230.599283985677,7652.172384809781,279.59349888332093
31.451736221000004,29.911,1230.081035864355,7647.249997138069,299.99999999966894,0.0009438423535085121,49.999999991130515,2.0754550945959536e-10,-1.960691543220779e-06,-4.150910629682506e-12,1.5708937767424973,1230.6338004389677,7660.638951384983,279.4930838855507
31.621989197999994,30.070999999999998,1230.0811862768526,7655.24999713673,299.9999999997047,0.0009339680673342042,49.999999991315924,2.216268474783688e-10,-1.9401819901757447e-06,-4.432537380343296e-12,1.570893974228223,1230.6683152014937,7669.105517960214,279.3926688877819
31.792385157000012,30.239000000000004,1230.081372086517,7665.249997135055,299.9999999997513,0.0009217688095231573,49.99999999154237,2.3258340782676433e-10,-1.914843662194375e-06,-4.6516685766944885e-12,1.5708942182133823,1231.4103853303452,7679.72345871792,278.61193198640854
32.00690152600001,30.441000000000003,1230.0815518226818,7675.049997133414,299.999999999797,0.0009099688489652074,49.99999999175852,2.3776451297524127e-10,-1.8903295696813058e-06,-4.755290669193045e-12,1.5708944542125962,1231.4973392524848,7690.1985521523975,278.446224768084
32.244855005999995,30.664999999999992,1230.0817616019528,7686.6499971314715,299.9999999998511,0.0008961960559615385,49.99999999200728,2.367457662541883e-10,-1.8617175375925202e-06,-4.734915722257217e-12,1.5708947296684594,1231.2749722205435,7699.646218791611,278.4058305380785
32.448436834999995,30.852000000000004,1230.0818973088296,7694.249997130199,299.99999999988654,0.0008872879182733086,49.99999999216615,2.3103824708724205e-10,-1.8432125953199604e-06,-4.620765331143898e-12,1.5708949078312155,1231.3324928190125,7708.603664646412,278.27023382064084
32.61768174100001,31.00800000000001,1230.0820659318192,7703.799997128599,299.99999999993105,0.0008762182958652183,49.999999992361374,2.2046031647579993e-10,-1.8202242585392193e-06,-4.409206709185167e-12,1.5708951292236664,1231.3868161732355,7717.063474620411,278.14217025417236
32.786938991,31.176000000000016,1230.0822116474233,7712.149997127401,299.99999999997,0.0008666513226546387,49.9999999925281,2.256971296451678e-10,-1.800356106742655e-06,-4.513942964046828e-12,1.570895320563133,1231.7311625664333,7724.994601701788,278.5812114106058
32.96042219899999,31.339,1230.0823531949586,7720.349997126272,300.00000000000824,0.000857358364574007,49.999999992688316,2.3813344008787714e-10,-1.7810555326649546e-06,-4.762669165043885e-12,1.5708955064222967,1231.8007836049803,7733.4318205323425,278.48292143723324
33.167353147,31.533999999999992,1230.0825186748668,7730.049997124937,300.00000000005343,0.0008464944920148895,49.99999999287342,2.476566908777111e-10,-1.7584900765611104e-06,-4.953134171574558e-12,1.5708957236997507,1231.882688509606,7743.357960333033,278.3672861744431
33.370679439000014,31.73400000000001,1230.0826787078736,7739.5499971236295,300.00000000009777,0.000835987377186803,49.99999999305021,2.5040499699751333e-10,-1.7366645279094752e-06,-5.0081002853739825e-12,1.5708959338420496,1231.623358505734,7754.209573304218,276.5758640255175
33.574297559,31.92500000000001,1230.0828400630608,7749.249997122294,300.00000000014296,0.0008253946727102191,49.999999993226204,2.5007249620640647e-10,-1.7146617336852582e-06,-5.001450260515912e-12,1.5708961456961419,1231.6750735556893,7762.6484414878,276.392058840687
33.77782276100001,32.120000000000005,1230.0829789633485,7757.699997121132,300.00000000018235,0.0008162757690844552,49.99999999337591,2.4507879882222956e-10,-1.695722665430196e-06,-4.901576306067253e-12,1.5708963280742163,1231.7328709326341,7772.080117693006,276.1866295164635
33.94701768500002,32.275000000000006,1230.083130050771,7766.999997119851,300.0000000002257,0.0008063574473024012,49.99999999353688,2.3777705826129397e-10,-1.6751164617090377e-06,-4.755541486448397e-12,1.5708965264406547,1231.4789718705633,7779.936204213785,276.9278054870448
34.11687459500001,32.44,1230.083258552055,7774.999997118751,300.000000000263,0.0007979213701799824,49.99999999367222,2.2578497402465894e-10,-1.6575973054255003e-06,-4.515699795400365e-12,1.5708966951621988,1231.5023615962264,7785.3806848102595,276.8393409962647
34.289019214999996,32.601,1230.083392828926,7783.449997117587,300.0000000003024,0.0007891051598273054,49.99999999381213,2.1113051080572266e-10,-1.639286851907251e-06,-4.222610523947012e-12,1.5708968714864082,1231.5533914442042,7797.259551566238,276.6463275618324
34.492697112,32.791,1230.0835404509644,7792.84999711647,300.00000000033907,0.0007794140952646353,49.99999999396415,2.0123355776508167e-10,-1.6191527563096825e-06,-4.024671455390862e-12,1.570897065307702,1230.4569172825743,7806.945753096367,278.7319580866718
34.695832353000014,32.982,1230.0836893447106,7802.449997115435,300.00000000037653,0.0007696393405313398,49.999999994115555,2.1362894786896798e-10,-1.5988506611275328e-06,-4.272579249872029e-12,1.570897260802799,1230.4344815424456,7815.822503866808,278.70709075771526
34.898187698000015,33.184,1230.08386221601,7813.749997114217,300.0000000004292,0.0007582888843907819,49.999999994289,2.1769994104221764e-10,-1.575277369082272e-06,-4.353999105021931e-12,1.5708974878119244,1230.3790829816958,7828.906009088281,279.3295130754645
35.204391731000015,33.46800000000002,1230.0840571968197,7826.699997112821,300.0000000004896,0.0007454891148717508,49.99999999448146,2.1659066329293542e-10,-1.5486867029065105e-06,-4.331813540352174e-12,1.570897743807318,1230.3461628455354,7841.262009433049,279.344636342905
35.44102972800002,33.70099999999999,1230.0842062467066,7836.749997111738,300.0000000005365,0.0007357030404259007,49.99999999462644,2.1120875705772088e-10,-1.5283614757918788e-06,-4.2241754087408556e-12,1.570897939528809,1230.2677883218282,7849.8572741781645,280.8539337649095
35.611049244000014,33.859999999999985,1230.084346790241,7846.349997110703,300.000000000575,0.0007264763311433411,49.99999999476138,2.0383136305996452e-10,-1.5091929732097911e-06,-4.0766275220981e-12,1.570898124062997,1230.2440710407914,7857.730753465987,280.93751641748844
35.78082927900002,34.019000000000034,1230.0844618422093,7854.299997109846,300.0000000006047,0.0007189232619164241,49.999999994870564,1.9423404843387205e-10,-1.4935048827992189e-06,-3.884681224349268e-12,1.570898275124383,1230.21887014974,7866.096325209316,281.0263229858515
35.94889224900001,34.18500000000003,1230.084579261062,7862.499997108962,300.0000000006353,0.0007112141140485339,49.999999994980826,1.8377767994931437e-10,-1.477489552039098e-06,-3.675553849105854e-12,1.5708984293073425,1230.163138272591,7874.275761358231,281.23533076369836
36.15142011200001,34.373999999999995,1230.084715126465,7872.099997107927,300.0000000006711,0.0007022945620015495,49.99999999510693,1.646516850354708e-10,-1.4589620200967007e-06,-3.2930339445087203e-12,1.5708986076983855,1230.1300470700266,7884.591281844444,281.3527467834352
36.35872547700001,34.56800000000001,1230.0848499826177,7881.749997106887,300.00000000069934,0.0006934409984557185,49.99999999523052,1.4563801711829697e-10,-1.4405717181550002e-06,-2.9127605801872053e-12,1.5708987847696583,1230.103257231249,7892.941941285684,281.44779784702723
36.56195186900001,34.769000000000034,1230.0849810807244,7891.249997105863,300.0000000007259,0.0006848346192651701,49.99999999534914,1.2347554358859462e-10,-1.4226914371037125e-06,-2.469511103872095e-12,1.5708989568972442,1228.3511743379245,7902.773877278351,282.83394100630875
36.763775924000015,34.95700000000002,1230.0851105508566,7900.74999710507,300.0000000007489,0.0006763350232698323,49.99999999546485,1.1842570720437568e-10,-1.4050349747823301e-06,-2.3685143705117956e-12,1.570899126889166,1228.2366672285398,7911.0998609948665,282.9937310392098
36.932431261000005,35.11300000000003,1230.0852216846056,7908.999997104427,300.000000000772,0.0006690385050996801,49.999999995563016,1.2457752793010442e-10,-1.389879105266052e-06,-2.491550779822182e-12,1.5708992728195317,1228.1086872643837,7920.405372207467,283.17231989951193
37.13625062700001,35.304,1230.085348830734,7918.5499971036825,300.0000000007987,0.0006606913321536788,49.99999999567402,1.2870579235975066e-10,-1.37254079536512e-06,-2.574116063015338e-12,1.5708994397629923,1229.346304285633,7930.043222360992,281.5908693543955
37.343444933,35.50000000000003,1230.0854783125012,7928.399997102914,300.0000000008263,0.0006521902386923652,49.999999995785664,1.2801461208266368e-10,-1.3548820965035245e-06,-2.5602924520701047e-12,1.5708996097848635,1229.2868515048228,7940.871710882869,281.68333378798695
37.581148273,35.73600000000002,1230.0856087086343,7938.449997102131,300.0000000008544,0.0006436286307344469,49.99999999589661,1.270283056758711e-10,-1.3370940673619834e-06,-2.5405663185017093e-12,1.5708997810170249,1229.667323742367,7949.043175520327,284.70639645257796
37.784292824999994,35.926000000000016,1230.0857310258662,7947.999997101387,300.00000000088113,0.000635598570348178,49.99999999599933,1.214432375673463e-10,-1.3204092698867723e-06,-2.4288649512076876e-12,1.5708999416182345,1229.6424006637535,7957.837998737642,284.9437424435729
37.953942692,36.08400000000003,1230.0858518174539,7957.549997100642,300.00000000090483,0.0006276686449044587,49.999999996099525,1.1358366249119853e-10,-1.3039349713479658e-06,-2.271673444747368e-12,1.5709001002167453,1229.6174763171623,7966.632821954967,285.1810884345669
38.156713233999994,36.27400000000003,1230.0859698591928,7966.999997099906,300.00000000092246,0.0006199192866013489,49.99999999619619,1.0757746793040511e-10,-1.2878324958003534e-06,-2.1515495484852366e-12,1.5709002552039133,1229.4956361373631,7977.510881142273,283.21396009939036
38.32586852,36.43899999999999,1230.0860680345663,7974.949997099286,300.0000000009373,0.0006134739768725771,49.999999996275704,9.876627220537765e-11,-1.274444466696883e-06,-1.975325630346147e-12,1.5709003841101092,1229.4688686439772,7985.405447046038,283.3179264468781
38.49801508500002,36.599999999999994,1230.0861712720264,7983.399997098627,300.00000000095304,0.0006066957217356651,49.9999999963584,8.646484023290992e-11,-1.2603639147947691e-06,-1.7292969866111558e-12,1.5709005196752135,1229.4404267751977,7993.793423318801,283.42839069108123
38.668091583999995,36.769000000000034,1230.0862667528531,7991.299997098012,300.0000000009678,0.0006004275497742714,49.99999999643407,7.456900601736263e-11,-1.2473400699037404e-06,-1.491380298849713e-12,1.5709006450386542,1229.3043805984585,8003.203945091986,282.5473220967336
38.871674063,36.96000000000001,1230.0863606515318,7999.149997097399,300.00000000097845,0.0005942623607531287,49.99999999650774,6.335374804917386e-11,-1.2345310622674757e-06,-1.267075135465544e-12,1.5709007683424363,1229.270419951216,8011.644344052208,282.60695357500003
39.04116423900001,37.11800000000002,1230.086460656086,8007.5999970967405,300.00000000098635,0.0005876971708462318,49.99999999658533,4.593423994190782e-11,-1.2208927926093677e-06,-9.186849696518471e-13,1.570900899646236,1229.2344604776754,8020.581237068924,282.670092787279
39.21101151900001,37.27599999999998,1230.0865333233303,8013.799997096257,300.00000000099215,0.0005829260292852192,49.99999999664117,3.306800042285186e-11,-1.2109800687232006e-06,-6.613601763711763e-13,1.5709009950690684,1230.3297843870712,8027.141668817504,278.95444720397745
39.345884883,37.40900000000002,1230.086644104466,8023.349997095513,300.00000000099703,0.0005756532994772238,49.999999996725464,1.386541796672404e-11,-1.1958703000292964e-06,-2.7730852301497425e-13,1.5709011405236664,1230.3536645253669,8035.587536423013,278.8200487602783
39.54969613900002,37.60100000000003,1230.0867591982344,8033.39999709473,300.00000000099703,0.0005680973372059767,49.99999999681189,-4.92430318925393e-12,-1.1801740823621904e-06,9.84859041938186e-14,1.5709012916429135,1230.3803525229582,8045.02703551154,278.6698387349628
39.75379302000002,37.792,1230.0868665992216,8042.89999709412,300.0000000009963,0.0005610465065181799,49.99999999689153,-2.4878544471977113e-11,-1.1655242655663228e-06,4.975707339791529e-13,1.5709014326595292,1230.4053175674844,8054.33707583179,279.7005723472869
39.924018210000014,37.958,1230.0869537826381,8050.699997093745,300.00000000099163,0.0005553233004057599,49.99999999695543,-1.9541845568112346e-11,-1.1536373555792625e-06,3.9083675879353547e-13,1.5709015471236525,1230.4291064541817,8062.776363226413,279.62619964248125
40.126422168999994,38.147999999999996,1230.087046683777,8059.099997093341,300.00000000099163,0.0005492237159253255,49.99999999702281,-1.1589883725848394e-11,-1.1409676230043092e-06,2.3179752545059217e-13,1.5709016691153437,1230.4528943460587,8071.215650621047,279.55182693767705
40.294971059000005,38.30499999999998,1230.0871505166222,8068.599997092883,300.00000000099163,0.0005424071246484692,49.99999999709721,-2.576223481187225e-12,-1.1268080123066672e-06,5.152432416726443e-14,1.5709018054471708,1231.2608799719465,8081.244961683505,279.1081288321961
40.50333909700001,38.501000000000005,1230.0872380303088,8076.699997092494,300.00000000099163,0.000536661638795681,49.99999999715925,3.929715736049786e-12,-1.1148724841181245e-06,-7.859445700505264e-14,1.5709019203568895,1231.3240401114958,8089.714339989951,279.0155869001587
40.672983267000006,38.66999999999999,1230.0873283415112,8085.149997092088,300.00000000099163,0.0005307319202420993,49.99999999722254,5.682659931925478e-12,-1.1025551974690746e-06,-1.136533379920686e-13,1.5709020389512616,1230.7401863820667,8098.331085469936,278.2510525668499
40.88081534600002,38.871999999999986,1230.087452265169,8096.899997091522,300.00000000099163,0.0005225953031161025,49.99999999730825,8.127329551938708e-12,-1.085646732862478e-06,-1.625467261561514e-13,1.570902201683606,1230.7725138304934,8107.80557576837,278.1078851402776
41.05708799300001,39.03400000000002,1230.0875371006707,8105.04999709113,300.00000000099163,0.0005170256462490342,49.99999999736617,9.787292855107115e-12,-1.0740708286997941e-06,-1.9574598950615084e-13,1.5709023130767448,1230.8014372248863,8116.282751298569,277.97978796913395
41.227542201000006,39.198999999999984,1230.0876225699078,8113.3499970907305,300.00000000099163,0.0005114141905691911,49.99999999742388,1.1482482523225936e-11,-1.0624087204552883e-06,-2.2964977992156733e-13,1.5709024253058597,1230.7852133551823,8124.796044065636,277.68139585934176
41.39676375600001,39.357,1230.0877030559388,8121.249997090351,300.00000000099163,0.0005061304905699105,49.999999997477644,9.94812710637664e-12,-1.0514277282546954e-06,-1.989626688035122e-13,1.570902530979861,1230.8117676728543,8133.27511321061,277.5443701810034
