Real_time_s,Simulation_time_s,x_ft,y_ft,alt_ft,vx_fps,vy_fps,vz_fps,roll_rad,pitch_rad,yaw_rad,adsb_x_ft,adsb_y_ft,adsb_alt_ft
0.0,0.0,-4797.449773264417,9999.777148386449,299.9832442395817,79.6945851823926,-6.964107379470576,-0.523617507908237,-7.851846479835403e-14,0.00654526564678344,-0.08704727835570503,6991.609557308681,9077.276972265006,207.81611506102436
0.03346756199999845,0.03200000000001069,-4792.030562873624,9999.303783806954,299.9470644604595,79.69447128750731,-6.962432118210875,-0.5616133165161848,0.0020450321581895127,0.007020224431802866,-0.08702652356559293,6991.609557308681,9077.276972265006,207.81611506102436
0.16867919500000994,0.1670000000000016,-4778.72173408416,9998.14081238545,299.8473364146217,79.69264030380799,-6.975433422069594,-0.6522504010875334,0.006113798937378559,0.008153221100915764,-0.08719039056314903,6991.609557308681,9077.276972265006,207.81611506102436
0.3380476700000088,0.32500000000001705,-4763.421121744106,9996.79903958036,299.7143313326105,79.68833171066701,-7.014569410699139,-0.7509596741094817,0.009185908393652548,0.009387135160487167,-0.0876824397420084,6991.609557308681,9077.276972265006,207.81611506102436
0.5070010029999992,0.4830000000000041,-4750.7510220090935,9995.681133959593,299.5901298311617,79.6834823624661,-7.060766146593742,-0.8282615806865367,0.01084348776548659,0.010353456627181923,-0.08826301547537896,-4793.523008161025,10000.554104695291,272.42889299074557
0.676703668000016,0.6520000000000152,-4738.480138268081,9994.590814953588,299.45832495932797,79.6780402870069,-7.113259444031812,-0.8992922255339549,0.011782535075031042,0.011241392015334592,-0.08892266102730062,-4785.953582537176,9999.87810074463,272.47556326709844
0.8799911290000182,0.8379999999999939,-4722.863910899783,9993.190894826588,299.2752123577191,79.67048633325574,-7.186231081299318,-0.9840784595599612,0.012159370030653626,0.012301294130053046,-0.08983965382872983,-4779.18211731988,9999.261885085692,272.50521544949515
1.0542265649999933,1.0010000000000048,-4709.71876130219,9992.001118265387,299.10851703345134,79.66393320806921,-7.249148520448912,-1.0506518609282283,0.011895072189460397,0.013133529593921278,-0.09063036546799053,-4770.197726040711,9998.430048579601,272.4214038995976
1.2575901879999947,1.200000000000017,-4694.583258586877,9990.618242741353,298.9033221742613,79.65652184847423,-7.319560556407353,-1.1217603727615169,0.011071714338603544,0.014022468727615742,-0.09151537397281384,-4762.974323048338,9997.748872699887,272.42579028480367
1.4609561430000042,1.3910000000000196,-4682.077596459323,9989.465652905777,298.72385893910916,79.65071659075927,-7.373970464534082,-1.176143604146373,0.010079782658199756,0.014702329894535937,-0.09219935644349797,-4756.153210808723,9997.096362124197,272.4205678941873
1.6284313170000075,1.5459999999999923,-4666.38701553407,9988.007842321837,298.4870483069701,79.64408715009274,-7.435054753609205,-1.2386818262786756,0.008548380202070703,0.015484147527862724,-0.09296738879488631,-4745.793875468231,9996.107430080501,272.19474646778804
1.8310674540000207,1.7450000000000045,-4650.777305435421,9986.546209067961,298.23970314776903,79.63839096099635,-7.486313321073242,-1.294763000941263,0.006833190101677436,0.01618525088435092,-0.09361204915390542,-4737.522564631307,9995.299452712445,272.1517883535527
2.0374283609999964,1.9399999999999977,-4638.035459919748,9985.346096589787,298.0299311682323,79.63450938230899,-7.52026227844283,-1.3360019328595192,0.005368013275208351,0.01670080783637273,-0.09403914901663102,-4725.693781784756,9994.16437604103,272.27079983848955
2.2109084810000184,2.0999999999999943,-4624.657134474519,9984.080657163337,297.8028739742605,79.6312084295604,-7.548108644677187,-1.3750547999780431,0.0038250097059343343,0.017189039349750197,-0.09438961824028347,-4717.752523519595,9993.381824439006,272.23359245025324
2.380028264999993,2.2680000000000007,-4609.5274777309805,9982.644578939784,297.53853685253165,79.6284806318575,-7.5696623427660485,-1.4138921735696717,0.002133421061741278,0.01767458091094337,-0.09466109794365929,-4710.252732411226,9992.640703063376,272.19311840584527
2.5835109620000196,2.4569999999999936,-4596.866684664141,9981.4401869854,297.3119393952008,79.62699123367275,-7.579970803248359,-1.4421933204513881,0.0007978785218421234,0.0180284020864353,-0.09479115927384085,-4692.8440574656215,9991.036518742194,272.2175924010653
2.7531774680000183,2.616000000000014,-4581.1802936960075,9979.94637049332,297.0253361328719,79.62608748318776,-7.583695211996026,-1.4721319755128286,-0.0007179576288860027,0.01840269785973005,-0.094838584609789,-4683.474763593167,9990.122252874795,272.1699998328443
2.9566113909999956,2.805000000000007,-4568.679030803909,9978.75581723465,296.7929693469664,79.62607977293798,-7.57990062484107,-1.4919124493283313,-0.0017966074432196842,0.018649996557380397,-0.09479136787562825,-4675.584739558654,9989.353826004095,272.12717273629795
3.132755483000011,2.967000000000013,-4555.620346365622,9977.51317750274,296.54716378734327,79.62666384523685,-7.5703840737684125,-1.5089249786141883,-0.0027908004395248097,0.018862690867403446,-0.09467223430506477,-4650.776537835582,9987.267468166492,270.61741529690613
3.303258490000019,3.1340000000000146,-4539.694929477856,9976.000412086749,296.2440060183419,79.62810737110527,-7.552007791713938,-1.524716215065078,-0.0038147028183617973,0.019060117069756716,-0.09444181358915715,-4641.669623411894,9986.411400395402,270.45867095468117
3.4718241090000106,3.290999999999997,-4527.272864047104,9974.823343962225,296.00559692119066,79.62972413768311,-7.533198481668045,-1.5332846899070625,-0.004466479175898941,0.019167242715822135,-0.09420579702021392,-4631.993189637171,9985.505563961886,270.2890361713023
3.674165329999994,3.480000000000018,-4514.770889808987,9973.64189690428,295.7645014056113,79.63170744478874,-7.51108210050421,-1.5387619399116046,-0.004997083733240295,0.019235721051203563,-0.09392818567015904,-4601.82591123054,9982.397015848395,270.59112045041235
3.8435887939999986,3.647999999999996,-4501.392612749937,9972.381696172919,295.50577700885856,79.63415002230452,-7.484615563807368,-1.5413117125110611,-0.005437280679716187,0.019267599146575054,-0.09359588796028251,-4589.980979499049,9981.27569618514,270.4483594433484
4.01317313200002,3.8060000000000116,-4486.182255043403,9970.954617744355,295.2114199897953,79.63725568432484,-7.451759981111657,-1.540050817700859,-0.005783091032297527,0.019251835002294226,-0.09318328689265876,-4578.793601862499,9980.221821803249,270.31423968357154
4.183482136999999,3.9680000000000177,-4473.20120138744,9969.741824156043,294.96062831133946,79.64010517694494,-7.422146916012685,-1.5357062874107539,-0.005964752922984194,0.01919751824952803,-0.09281134724010087,-4544.714131597478,9976.553504279695,270.3759838205827
4.352897503999998,4.135999999999996,-4459.821458470729,9968.49694039337,294.7030782567281,79.64317462190436,-7.390694161591199,-1.5282155138040383,-0.006054318139522343,0.019103866268360005,-0.09241625224508976,-4530.504198531699,9975.19277704597,270.2442800671708
4.566066460000002,4.338999999999999,-4444.211092248169,9967.051327419651,294.4044803677584,79.64685926968315,-7.353468675974161,-1.5157393761273252,-0.006051298432708532,0.01894788609151051,-0.09194858506371317,-4516.293596356126,9973.838695616821,270.1154033122347
4.77554923400001,4.534999999999997,-4428.2017449132445,9965.57640842949,294.1011228632932,79.6506820554569,-7.315399407841297,-1.4990185371196285,-0.005950049023994787,0.018738838203141164,-0.09147025774021134,-4480.621049193175,9971.247228781025,267.64738369116174
4.943935151000005,4.700000000000017,-4415.457431954896,9964.407808752603,293.8622416051608,79.65371496208743,-7.2855867018852996,-1.4830081325571332,-0.00581244433586815,0.018538673101264003,-0.09109562923668446,-4464.0286800435115,9969.738782687213,267.3519536466485
5.147942940000007,4.896000000000015,-4400.243273396064,9963.018977250935,293.5806422784947,79.65728490256845,-7.2509346575909275,-1.4609803070803682,-0.005598783553382057,0.018263278286198024,-0.09066014209899187,-4431.808898019332,9965.451356591435,267.19665938742645
5.351471040000007,5.0870000000000175,-4386.780966947308,9961.795542335969,293.33514668498924,79.66037327103973,-7.221342179199307,-1.4390456460056604,-0.0053778130771201405,0.017989049623470872,-0.09028819941977795,-4418.464612410393,9964.176057417744,266.98815717429494
5.521773160000009,5.256,-4374.274096348326,9960.663420558654,293.11054823393494,79.66316508581792,-7.1949298959237495,-1.4166795899440399,-0.005153901609181721,0.017709429015697418,-0.08995619140660027,-4403.340634681539,9962.734944977166,266.75590206031876
5.690981639,5.412000000000006,-4361.607459719542,9959.521031764529,292.8867742347667,79.66590683244111,-7.169308693776129,-1.3922451043488955,-0.004916905350416757,0.01740395048007574,-0.0896340930069035,-4374.7587444101955,9961.394859980424,264.78647911961383
5.860089043000016,5.572000000000003,-4345.355298464793,9958.061134631875,292.6055159562258,79.66928940289182,-7.138141022937906,-1.3585068206364435,-0.004608084210144276,0.016982159094294704,-0.08924221876294114,-4357.945694040067,9959.885097792807,264.44663048974695
6.029692647000019,5.740000000000009,-4332.369011664951,9956.899134090958,292.3858804714165,79.67187519523667,-7.114675650735929,-1.3297242358013843,-0.004364168883266608,0.016622325568141135,-0.08894714651377789,-4340.19807822205,9958.295990666535,264.0940487600169
6.240471807999995,5.937000000000012,-4316.673375190449,9955.499733858593,292.1268297665351,79.67486404599836,-7.0879276890206935,-1.293060791522563,-0.004079646867180563,0.01616397045848727,-0.08861075494837944,-4314.561677904376,9955.971770308684,261.0160925187115
6.41822430000002,6.100999999999999,-4303.367483892691,9954.317460260014,291.91298734944064,79.67727726553402,-7.066658916619117,-1.2604471590522899,-0.003851449526967034,0.0157562476808263,-0.08834323469816852,-4299.128497750395,9954.595324008085,260.5896459883329
6.620876088000017,6.290999999999997,-4290.857988579701,9953.209164208552,291.71701144367256,79.67944841536904,-7.0477696500294424,-1.2286498613523664,-0.0036509593256562624,0.015358732918782612,-0.0881056162371392,-4282.7303707572755,9953.136051228259,260.1424023859074
6.790779674000021,6.460000000000008,-4278.1887945157805,9952.089705415818,291.52368066929284,79.68155614314995,-7.029640022795085,-1.1954687206449175,-0.0034628099122838364,0.01494392061239143,-0.08787753020211331,-4261.993303113708,9953.692470942835,259.0566571636202
6.96121859500002,6.619,-4262.013183416214,9950.664528342093,291.28458319514664,79.6841221609229,-7.007819444245617,-1.1518713004728558,-0.0032460628206611663,0.014398893671738586,-0.08760298074928552,-4244.397974967157,9952.267317618638,258.56066063502954
7.131096049000007,6.777999999999992,-4246.713611363575,9949.320562298872,291.0667078365123,79.6864258804221,-6.98845153845801,-1.1095223756653734,-0.0030659721546285514,0.013869478721849208,-0.08735926631545632,-4223.869628534076,9950.608504723317,257.9909759631838
7.369794750000011,7.004000000000019,-4234.123011531995,9948.217325735117,290.89356484076035,79.6882394448926,-6.973320859658718,-1.0740150981367658,-0.0029354123611100395,0.013425596006556247,-0.08716885813050168,-4207.984340706194,9948.76106702237,259.2629310554965
7.537899981999999,7.170000000000016,-4218.9820434265175,9946.893752196023,290.692831249873,79.69033043478441,-6.955963356187622,-1.0306967635984172,-0.0027986820182472937,0.012884069493200525,-0.08695041846752316,-4188.370571370302,9947.148728955095,258.83937585867767
7.740790051999994,7.361000000000018,-4205.514223678376,9945.719175966255,290.52119901581585,79.69211366449267,-6.941201948886665,-0.9917267631930313,-0.00269445139877778,0.012396905180267247,-0.08676464707997567,-4171.698503762284,9945.781249667665,258.48761453453903
7.910314794000016,7.52000000000001,-4190.133450246452,9944.38080465394,290.33330056704455,79.69406991497613,-6.925008133046794,-0.9468809831132333,-0.002593603886055449,0.011836291339287548,-0.08656085158612159,-4156.088181654506,9944.5541877405,257.3326855661656
8.114516207999998,7.724000000000018,-4177.382267589541,9943.273612662328,290.18410718567577,79.695632213951,-6.912039582982846,-0.9095484394717338,-0.002523140947297863,0.01136960278637,-0.086397652027981,-4136.663505078972,9942.969897506413,256.89089726283976
8.285292756000018,7.8840000000000146,-4164.8699291657185,9942.189179290534,290.04353279522036,79.69711732496202,-6.899652139131304,-0.8728784499016102,-0.002464076337459668,0.010911199148946067,-0.08624177466238625,-4124.713163727282,9940.73795672137,258.15344944482314
8.45468067500002,8.040999999999997,-4148.850614415831,9940.803620645942,289.87192207273125,79.69895426965071,-6.884208368063787,-0.826017192894621,-0.002401160844636793,0.010325400042194162,-0.0860474559765847,-4110.3629276543315,9939.513508807322,257.9092024132799
8.65758704800001,8.242000000000019,-4133.070038142421,9939.441748068342,289.71207370411867,79.70069921164284,-6.869368998380389,-0.7801079124646035,-0.0023506392578960937,0.009751504782968072,-0.08586076596685066,-4085.48875061957,9937.394881963988,257.4975710054302
8.93645608,8.501000000000005,-4109.4782425779385,9937.411231657423,289.48997832197057,79.70319885202667,-6.847733480609753,-0.7122890406024581,-0.0022910453759433886,0.008903731541914914,-0.08558862696902225,-4071.1131732522235,9935.715324449871,257.86971938169927
9.17461006000002,8.734000000000009,-4094.3344765118477,9936.111212257416,289.3579506030317,79.7047397645074,-6.834125874955063,-0.6694794750951223,-0.002259991544097653,0.008368591758620635,-0.08541750140465298,-4053.267469361617,9934.175628202715,257.6270595135019
9.344642402999995,8.891999999999996,-4081.7410193202572,9935.032103426662,289.2543210366075,79.70598586958208,-6.822947170465196,-0.6344111643347317,-0.002237040973956461,0.007930223126316787,-0.08527694331535374,-4041.942636043679,9933.7425342007,255.5686326879481
9.548603248999996,9.081999999999994,-4068.3502956347456,9933.886616889087,289.1501441256803,79.7072772262049,-6.811181759765996,-0.5977241022792354,-0.0022144273816550853,0.007471621079092224,-0.0851290306787802,-4026.229212614266,9932.419496627224,255.26722502759281
9.71786839500001,9.251000000000005,-4055.7564424598654,9932.811119413986,289.0577795484122,79.7084609811955,-6.800224618463343,-0.5638680487120421,-0.0021941976071603447,0.007048409104805965,-0.08499130048336667,-4009.591250389707,9931.02070868162,254.95442362425445
9.887970418000009,9.408999999999992,-4040.372561971566,9931.499714653582,288.9521360017138,79.70986795275591,-6.78697300861926,-0.523434765596128,-0.0021699670299160203,0.006542981236170428,-0.08482475634922393,-4000.4130715481815,9929.810003660124,255.90097472839673
10.092714860000001,9.602000000000004,-4027.0609058503483,9930.367027081975,288.8669468808389,79.71105175992082,-6.775621557566983,-0.489330225876174,-0.0021488230585338937,0.006116665837885849,-0.08468211670845038,-3985.9551562758356,9928.576521617571,255.69535342731461
10.262044986000006,9.769000000000005,-4011.995382627445,9929.08740968348,288.77735512268794,79.71235449405543,-6.7629082200653885,-0.45182316329049715,-0.002124127979701906,0.0056478193321357634,-0.08452238926296252,-3967.882531262107,9927.036967482954,255.44498942273492
10.464298733000021,9.956999999999994,-3997.009330856754,9927.816936291112,288.6951800240502,79.71361223173578,-6.75040633668127,-0.4157256429267137,-0.002098373572441258,0.005196593604713903,-0.08436534395708928,-3957.5955331232663,9925.828385912559,260.0474432122368
10.667767826000016,10.14700000000002,-3981.704187327769,9926.521842686905,288.61815256278356,79.7148585927473,-6.737791764419216,-0.38015583549649085,-0.002070582905499399,0.004751965442580228,-0.08420690778844775,-3937.306281401371,9924.082613278893,260.1151383197655
10.904778606999997,10.372000000000014,-3960.818666111536,9924.758456593514,288.523821650903,79.71649787676503,-6.720850678825817,-0.3338933314393949,-0.002029966051804107,0.004173678318928918,-0.08399416899553525,-3924.3375898300224,9923.013175808877,260.4915957249792
11.111678855999997,10.567000000000007,-3947.6653544660667,9923.650190782713,288.470522246929,79.71749496728069,-6.710351100452029,-0.30614416654923304,-0.0020027962893012195,0.00382681096131472,-0.08386234021676509,-3908.7309472082497,9921.677483208716,260.57425519607716
11.314084494000014,10.765000000000015,-3932.837790499125,9922.40294625881,288.41585292943955,79.71858665366703,-6.698686116902012,-0.27622758248065366,-0.001970763012443127,0.0034528511679671665,-0.08371589630899079,-3893.124127217173,9920.343720837083,260.66173536351334
11.483633861000015,10.917000000000002,-3920.640773544742,9921.37860690992,288.3749897985264,79.71945970570401,-6.689230674614915,-0.2527134943870769,-0.001943428520606851,0.0031589234575709153,-0.08359720398970638,-3884.4131067126214,9919.165261205586,261.3865145149266
11.652435432000004,11.069999999999993,-3907.3275408197364,9920.262168200867,288.334395876155,79.72038793751294,-6.679055247488793,-0.2281639735853724,-0.0019126990031773023,0.0028520530700621035,-0.08346948589430925,-3869.1040893661134,9917.836292084281,261.51856475148287
11.864754266000006,11.271000000000015,-3891.30362808553,9918.920667582444,288.2908506436212,79.72147154454325,-6.667020462021652,-0.20022320003631452,-0.0018746689203758844,0.002502792167802452,-0.08331844498483543,-3852.94439792826,9916.435448967395,261.662337450512
12.072459637999998,11.467000000000013,-3875.837559204431,9917.628168273384,288.25402625545524,79.72248347709518,-6.655634149416063,-0.17496477174773184,-0.0018371248206876269,0.002187060971257942,-0.08317555672643229,-3841.3712449592445,9915.93807163314,260.70838709857503
12.274442945999994,11.664999999999992,-3862.6035538913357,9916.523952843148,288.22630718871153,79.72332411396383,-6.646070628283111,-0.15467285113680088,-0.001804559307944008,0.0019334114526551164,-0.08305555272976606,-3827.158943762677,9914.735875296843,260.7874802855785
12.444035559000014,11.819000000000017,-3847.695202625105,9915.281942787691,288.19902502262204,79.72424390447519,-6.635502976611059,-0.13331528920358007,-0.0017676006177394846,0.0016664415293227062,-0.08292295839947039,-3812.1104819775837,9913.464629902159,260.87444801403046
12.646441365000015,12.00800000000001,-3832.388057479111,9914.008758061469,288.17503371903643,79.7251598837566,-6.624876604703741,-0.11301103760495965,-0.001729582090748926,0.0014126381216164566,-0.08278963666342154,-3799.9130302909407,9912.07082753684,263.3498995573877
12.850259768,12.211000000000013,-3819.711697148991,9912.955936970438,288.15803822141584,79.72589752835596,-6.616249381338204,-0.09744668128948529,-0.0016981842308665112,0.0012180835325259216,-0.0826814031540346,-3785.118087639572,9910.804868004929,263.5717412451876
13.022770945000019,12.370000000000005,-3804.0853340866784,9911.659988475727,288.1403728411388,79.72678199981252,-6.605828550985095,-0.07980648788485613,-0.0016597685629886703,0.0009975810213892964,-0.08255067462400811,-3773.715641098714,9909.640366712074,264.6934155860403
13.228399811000003,12.564999999999998,-3788.139891044031,9910.339674353103,288.125763010219,79.72765760918044,-6.595436964088852,-0.06355479924373131,-0.0016210672938711745,0.000794434874127849,-0.08242031959289609,-3757.327379967412,9908.229918444988,265.0052314230434
13.430637401000013,12.766999999999996,-3772.5929187269785,9909.054353878477,288.1145178317341,79.728486417309,-6.585539070818412,-0.049402988037924374,-0.0015839698195273654,0.0006175372295627101,-0.08229616299540088,-3741.101214715743,9906.835421924387,265.3165893997876
13.632805246000004,12.960000000000008,-3757.444434219613,9907.803832870217,288.10609537018695,79.72927151566263,-6.576114072936992,-0.037203953998844866,-0.0015485511550196048,0.00046504931797204603,-0.08217794253058908,-3727.2540181222726,9906.90906866346,263.03490115902946
13.83696529400001,13.152000000000015,-3742.1363436782885,9906.541948976452,288.09981621608995,79.73004387292826,-6.566801118050353,-0.02641375669200316,-0.0015135622956016519,0.0003301718747814663,-0.08206113097142165,-3711.985850695013,9905.6734659263,263.1843737339078
14.041214854000003,13.343999999999994,-3724.117259650776,9905.058872446065,288.0949005109698,79.73092685738564,-6.556111580543111,-0.01570174688431436,-0.0014735190515031617,0.00019627178265840047,-0.08192705670353106,-3695.2464662517705,9904.965826095073,260.54929508197876
14.278916455000001,13.569000000000017,-3710.8021472746104,9903.964506428363,288.0927221282494,79.73156257440121,-6.548391630075432,-0.009094179945268373,-0.0014447327547622373,0.00011367721740003531,-0.08183023071194095,-3682.4439271744886,9903.964971277674,260.5367393807275
14.448021234999999,13.736000000000018,-3695.5733577635624,9902.714437850333,288.0914872309043,79.73227266805927,-6.539748854818565,-0.0029019558405970086,-0.0014126798084160472,3.627443743757733e-05,-0.08172183202374739,-3666.440622510671,9902.715512934827,260.52198849671584
14.651015281000014,13.926999999999992,-3680.1849694664493,9901.452940032756,288.09132874239157,79.73297284321377,-6.53120956616568,0.001938828001331719,-0.0013812368684038225,-2.4235343368277666e-05,-0.08161473272486597,-3652.4082134567625,9900.106850489716,261.3492502541486
14.85450341500001,14.12100000000001,-3664.1585799488903,9900.140883832744,288.0920363654164,79.73368446837063,-6.52251589457294,0.005528345648982326,-0.0013494762983476917,-6.910430104878091e-05,-0.08150569839739719,-3638.1228197234936,9898.910759198656,261.3835843149018
15.057089390000016,14.311000000000007,-3648.8496585710554,9898.88919765604,288.0932780141823,79.73434785644451,-6.514400247801462,0.007592936997768671,-0.0013200609988212127,-9.491168545851203e-05,-0.08140391448410944,-3623.0436783899117,9897.649634338994,261.42001470892757
15.22740171700002,14.468999999999994,-3633.7000819505483,9897.652071343951,288.09480010210285,79.73498934355865,-6.506543229579716,0.008390444908255272,-0.001291806883977915,-0.00010488053146122495,-0.08130537498306034,-3608.455792667236,9896.517467690292,260.2527229533932
15.430556859999996,14.670000000000016,-3620.3045674198006,9896.559420237718,288.09620426207863,79.73554470512293,-6.499734030848941,0.008120020684153644,-0.0012674879440480369,-0.0001015002296323114,-0.08121997739026532,-3594.205361844394,9895.33303801063,260.2216505911721
15.643800378999998,14.87100000000001,-3607.3076409519854,9895.500376968415,288.097467754213,79.73607300924431,-6.493250418547501,0.007002032441335423,-0.0012444718160542776,-8.752538062265306e-05,-0.08113866365142486,-3579.1631320810634,9894.084148906386,260.18843205527224
15.817936126000006,15.034999999999997,-3593.752474363907,9894.396966628221,288.09853579142305,79.73661326792285,-6.486613470000082,0.004981171762866882,-0.0012210456626365407,-6.226462941129282e-05,-0.08105542740569915,-3568.9396201716086,9891.84304459043,261.689476695624
15.988335437000018,15.205000000000013,-3577.8848408851,9893.106752042788,288.09926783479483,79.73723202426459,-6.479002763043647,0.001557779972835803,-0.0011943301393565152,-1.9472244308336798e-05,-0.08095997970037128,-3551.641441362142,9890.317881952027,261.75027323794274
16.234499002000007,15.437000000000012,-3562.0968241556125,9891.82451111176,288.099232077562,79.73783328676214,-6.471595837784487,-0.0029215463766055984,-0.0011684662301343891,3.6519319202079455e-05,-0.08086708860779601,-3536.821250005278,9890.401596351481,255.80533274626606
16.411526320999997,15.602000000000004,-3545.9897372111577,9890.517861872573,288.0981981716058,79.73843227617348,-6.464203404158625,-0.008517158047586598,-0.0011427715100979577,0.00010646444583793012,-0.08077438036477513,-3524.2153839833627,9889.360980839121,255.55151652745428
16.58069503600001,15.77000000000001,-3533.5505188133657,9889.509786134844,288.09657521608614,79.73888477884385,-6.458607800014562,-0.01351978880050875,-0.0011233852522497926,0.00016899731385501603,-0.0807042069974857,-3509.245823979384,9888.126423950624,255.2489288389005
16.783349471999998,15.959000000000003,-3518.160877047434,9888.263811197927,288.0934352745964,79.73943287515458,-6.45181526481662,-0.020456571004869094,-0.001099916419050655,0.0002557070703822194,-0.08061902436142798,-3494.508161060365,9887.772023263857,253.01392515108697
16.98769035800001,16.15299999999999,-3504.7646276167916,9887.18028820751,288.08957114816087,79.73989955836139,-6.446016719190912,-0.027120224526713577,-0.0010799197037718524,0.00033900272158155837,-0.0805463081889386,-3480.304347828037,9886.6502499691,252.61748545288904
17.157350690000015,16.310000000000002,-3489.534273739872,9885.949604051448,288.08376229282595,79.74041814559547,-6.439553781690568,-0.03536650796178508,-0.001057663266633299,0.0004420812466955314,-0.08046526183993019,-3466.100452899842,9885.529503699692,252.21962369841103
17.36177626600002,16.5,-3477.094749873803,9884.945348463203,288.07781516687845,79.74083237214049,-6.434374579985054,-0.04258622961377924,-0.0010398404318820282,0.0005323277563766613,-0.08040031511454693,-3454.1641979722763,9884.527676734244,257.06266528910174
17.531839622999996,16.668000000000006,-3463.6982686694696,9883.864734822995,288.0701305100747,79.74126939334874,-6.428892360455439,-0.050796419401572195,-0.0010209842022806126,0.0006349551222498758,-0.08033157001356406,-3440.7930714938875,9883.47150724954,256.95285097511584
17.700498702000004,16.830000000000013,-3450.8599059709322,9882.830008255307,288.06144068796254,79.74167911707258,-6.423733044309842,-0.059066879922180536,-0.001003229766841118,0.0007383358800309753,-0.08026687556187251,-3427.4218609995646,9882.416404776148,256.84122474940864
17.869744243000014,16.989000000000004,-3438.021478199274,9881.796106376,288.05139762991126,79.7420801361682,-6.418663151892576,-0.06768909880795317,-0.0009857798553311742,0.000846113626845964,-0.08020330402406772,-3413.9213030282585,9880.887434287732,255.77325704816124
18.039147677000017,17.158000000000015,-3422.5514869452795,9880.551361799688,288.03742220177503,79.7425519654702,-6.412669650365953,-0.0784934545247743,-0.0009651318583657564,0.0009811681022110972,-0.08012815355840708,-3399.721871172982,9879.74339376044,255.59908960560793
18.243370448000007,17.352000000000004,-3409.2344635346835,9879.4807773303,288.0236923996313,79.7429480618185,-6.407611948198004,-0.08812272426391991,-0.0009476890571407749,0.001101534015866125,-0.08006473881230969,-3384.733503757364,9878.536802839491,255.41324097295538
18.41142270100002,17.504999999999995,-3391.4517495983387,9878.052502883947,288.00280986659885,79.74346269288054,-6.4010005204956695,-0.10138185371274076,-0.0009248624573503804,0.0012672732205868296,-0.079981846185184,-3369.7440366054407,9877.095479467911,257.5212256198744
18.648732077000005,17.741000000000014,-3378.373807082359,9877.003044993704,287.985549342148,79.74383097693895,-6.3962391810524855,-0.11137731162493349,-0.0009084007990722427,0.0013922165339332378,-0.07992215187283236,-3355.595080726399,9875.945795292377,257.4647353544043
18.826924112,17.906000000000006,-3365.375548962183,9875.96075469786,287.9667584534828,79.74418847548739,-6.391591036393804,-0.12148238458270813,-0.0008923112658930514,0.0015185300598393248,-0.0798638787247441,-3342.5359234376597,9875.405332973609,257.34219420922864
19.000955421000015,18.069000000000017,-3351.8190222835246,9874.87450212808,287.9454020716594,79.74455252967078,-6.386829643318171,-0.13216549021650553,-0.0008758076757946638,0.0016520690282028237,-0.07980418792404254,-3328.368540387299,9874.28510850492,257.27794211343195
19.171033636999994,18.239000000000004,-3336.029578687539,9873.610351963964,287.91822116655567,79.74496517299787,-6.381395586442602,-0.14475092048415103,-0.0008569453495583878,0.0018093871210545763,-0.07973606713359338,-3311.839850033056,9872.979198964833,257.20055761545353
19.424256170000007,18.467000000000013,-3317.6882046984315,9872.143232492175,287.8835052731958,79.74542956716017,-6.375229954971898,-0.1594933629950078,-0.0008355128089984596,0.0019936679636840733,-0.0796587791395702,-3296.2359077283977,9871.205615519322,260.0147392536432
19.627316073000003,18.665999999999997,-3304.370706216709,9871.078856307786,287.8561729357362,79.74575697996855,-6.370849465347402,-0.17023639374209454,-0.0008202685231117625,0.0021279561187427494,-0.07960387090069254,-3283.656863388991,9870.187053008036,260.0924316882275
19.79768385700001,18.823000000000008,-3289.1392492479727,9869.862408022906,287.82270620093243,79.74612146756978,-6.365938270971229,-0.18252053481797106,-0.0008031636017478789,0.0022815082414914716,-0.0795423129643682,-3267.9329385873857,9868.91471499426,260.18845132517686
20.000697204999994,19.013000000000005,-3276.6190994341396,9868.863198006991,287.79344052607587,79.7464133529894,-6.361978365244775,-0.19258645987445358,-0.0007893614327973361,0.0024073326407845997,-0.07949268063747894,-3252.977585806339,9869.465359685188,259.09863272873065
20.205039454,19.215000000000003,-3258.5962378997765,9867.425907216497,287.75936634805606,79.74707323256631,-6.356320676965332,-0.06943714800925223,-0.0008470222455218087,0.0008679642340771345,-0.0794215270526224,-3237.2145391275376,9868.2975939428,259.1639157027605
20.408429223000013,19.406000000000006,-3243.125161760101,9866.193175413027,287.75540498230094,79.74750718001498,-6.351125022288198,0.049503967432821615,-0.0008825213774876162,-0.0006187994320348113,-0.07935635590898293,-3223.210685640744,9865.939713138565,260.3314940822226
20.582208648999995,19.568000000000012,-3227.095782588798,9864.9170456102,287.7748964371621,79.74780394517971,-6.345522546852113,0.16435269506988748,-0.0009003676606274624,-0.0020544093466347783,-0.07928625151077395,-3208.255884528327,9864.755570088655,260.4985268691756
20.785326980000008,19.768,-3214.4157955547744,9863.908378253976,287.80629761013813,79.7479474746044,-6.341007597338669,0.24897760710801115,-0.0009029566855518886,-0.0031122237772655244,-0.07922984998064675,-3192.5139758769196,9863.51020874705,260.6937655671934
21.02224618400001,19.985000000000014,-3199.104095772682,9862.691324902287,287.8616249894667,79.74803317853072,-6.335537926614914,0.34396994529642677,-0.0008948925956743762,-0.004299635497571269,-0.07916160877540235,-3176.7634664495354,9861.816276000272,259.7721423643752
21.19149662800001,20.15299999999999,-3183.8721412205555,9861.481651576138,287.934167493226,79.74804395007244,-6.330146367147494,0.4306820204489276,-0.0008769993840695578,-0.005383548419973581,-0.07909441442219567,-3163.3498474516628,9860.733638867734,259.90737065889374
21.395839077000005,20.345,-3170.3946600846543,9860.41216230199,288.01164558860944,79.74800797272485,-6.325465645474106,0.5009214821579351,-0.0008546985982339869,-0.006261555914540747,-0.07903612337308386,-3149.147209195056,9859.588151274645,260.0623225217365
21.565775618000004,20.503000000000014,-3157.7944236714497,9859.412998315056,288.09452974413585,79.74794841131761,-6.321197420905096,0.5610905602142524,-0.0008296869710175863,-0.007013685321674923,-0.07898299523341024,-3134.674016054108,9857.996285206013,263.35463003749845
21.735402163999993,20.671999999999997,-3141.8447792970546,9858.149185490032,288.2124860256092,79.74785154719655,-6.315972094099153,0.6298887182630969,-0.0007939997535548361,-0.007873685356818217,-0.07891797659831701,-3120.4653018170834,9856.828853000447,263.69993703743074
21.94568855,20.872000000000014,-3126.214154627972,9856.911647734669,288.3408060356049,79.74775073854593,-6.311073356187261,0.6892708076782472,-0.0007563549615017533,-0.008615985983292654,-0.07885703080076034,-3105.0038769407392,9855.383892740147,263.92614080200923
22.15389956300001,21.067000000000007,-3112.816497258072,9855.85165107201,288.45960177481976,79.7476707571805,-6.307059952167447,0.7340194799897953,-0.000723188011913122,-0.00917536594675465,-0.07880709641957351,-3091.4016778989844,9854.25830841167,264.2641686554293
22.324392437,21.23400000000001,-3097.6644059471355,9854.653645800938,288.60254864000166,79.74759951235141,-6.302737759320862,0.7777866194081355,-0.0006857435315660464,-0.009722479014945171,-0.07875330489195642,-3074.7943582212206,9852.88491147389,264.6847384769095
22.527246183000017,21.42500000000001,-3082.4325846627444,9853.450145313791,288.7540778427921,79.74755745198838,-6.298621118858285,0.8147319762242046,-0.0006491184965750026,-0.010184318327688185,-0.07870204564004601,-3061.9396083284546,9851.618998028907,264.29978319882355
22.69757538600001,21.581999999999994,-3068.9552237181856,9852.38590824031,288.8936145924287,79.74755100829809,-6.295162202497165,0.8417538889774032,-0.0006181506073202253,-0.010522109953880261,-0.0786589473918593,-3049.2842678756087,9850.563447315977,264.59302323778644
22.900986335,21.77600000000001,-3053.643669805411,9851.177531137917,289.05722311888854,79.74758636503665,-6.291438182440083,0.8659943388731758,-0.0005851072913671563,-0.010825132476665193,-0.0786125040177168,-3033.465084666328,9849.244645112307,264.96298667526355
23.10601781700001,21.967000000000013,-3041.3625247170407,9850.20882106667,289.19151038127495,79.74765053035689,-6.288599575996858,0.880637871022018,-0.0005605294124062244,-0.01100818731100088,-0.07857706612933346,-3020.1580258144854,9849.130675362576,262.8898834125661
23.274169469000014,22.129999999999995,-3028.204145884029,9849.171391325783,289.33759624833016,79.7477555660881,-6.285690951511949,0.8918600823730912,-0.0005361671966928568,-0.011148473393294951,-0.07854071537804286,-3007.4783288828985,9848.123589779925,263.0719432273761
23.443032511000013,22.286,-3015.6039866095243,9848.178417260664,289.4789529231496,79.74789365828461,-6.283028821502913,0.8982700619001421,-0.0005148853871490348,-0.011228603055881034,-0.07850740391530797,-2994.0061250909234,9847.053991054478,263.26576351960017
23.61256013000002,22.454000000000008,-3003.0038069757625,9847.185857259781,289.62107616864654,79.74806813690086,-6.280475335655788,0.9006400218730615,-0.0004955498621504633,-0.011258229395341629,-0.078475410625644,-2979.6833658034793,9846.836425560605,262.49452030484605
23.782030407000008,22.613,-2986.7351812063444,9845.904906822108,289.8046972096211,79.74834547350619,-6.277320763443846,0.898058287544652,-0.00047341158639011146,-0.011225955722826388,-0.07843582553181094,-2966.174854447999,9845.81294774085,262.63632001867154
23.952381091000007,22.772999999999996,-2974.2146815923106,9844.919511160202,289.945353130177,79.74859899263312,-6.274994423046181,0.8917535528727049,-0.00045845918129727676,-0.011147141712171925,-0.0784065854623186,-2952.6662965291134,9844.789866243334,262.77642059827815
24.158432196999996,22.967000000000013,-2958.6636884208697,9843.696111780559,290.11832324547754,79.7489581853759,-6.272209704810295,0.8790796512582413,-0.00044219162445579505,-0.010988708439714653,-0.0783715294373577,-2936.6394580356405,9842.02977959831,264.22835892900906
24.360822823999996,23.168000000000006,-2945.3456039371213,9842.648805175668,290.26421085782914,79.7493016962138,-6.269905876249556,0.864165050105721,-0.00043010228015213166,-0.0108022650891874,-0.07834248187948312,-2923.1320428780714,9840.927669194652,264.428865007333
24.529881361000008,23.325000000000017,-2930.11347389475,9841.451454664024,290.42766891995996,79.74973141475377,-6.267351876840675,0.8426774211099601,-0.0004181403577360626,-0.010533654772081263,-0.07831023231210743,-2908.0354413364535,9839.69634714694,264.6484338788737
24.733509569000006,23.51600000000002,-2914.7217631478247,9840.24205554904,290.58832213535055,79.75019943113719,-6.2648456984972505,0.816503088251323,-0.0004077813383939961,-0.010206458408288113,-0.0782785413960192,-2892.0534822264467,9839.376855756731,263.502092089328
24.937921786999993,23.72,-2899.329963622241,9839.033135339492,290.7435936996287,79.75069502029396,-6.262403654069219,0.7861331622628973,-0.00039886712760248084,-0.009826815727826505,-0.07824762296506793,-2876.915347676428,9838.199053760802,263.63254819502623
25.141301697000017,23.911,-2886.7293532747144,9838.043798131039,290.8661373758526,79.75111658391806,-6.260445938734426,0.7583401714917165,-0.0003924759139302948,-0.009479387549662089,-0.07822281300034395,-2865.484986827993,9838.213463669174,260.3361309335215
25.310846025000018,24.069999999999993,-2873.33116488818,9836.99218005319,290.99147154044175,79.7515754843759,-6.258399412814515,0.7261439778869552,-0.00038637028201151644,-0.00907691823777147,-0.07819685991245429,-2851.8519851952087,9837.202287599719,260.25866064285617
25.479216573000002,24.23600000000002,-2860.8899222169252,9836.015985507847,291.10283345225724,79.75200799238164,-6.256529081745723,0.6938802770943412,-0.0003812384706412961,-0.008673606522713635,-0.0781731285926417,-2838.3774284487504,9836.20321126467,260.17569834374103
25.648732757999994,24.39500000000001,-2845.5775334176315,9834.814912616195,291.23279570530303,79.75254244624134,-6.254261433095365,0.6513752036397228,-0.00037543072242958973,-0.008142274858807908,-0.07814434637715073,-2823.8286493149703,9834.589714293685,259.62342615377145
25.81731545400001,24.552999999999997,-2832.1791115404862,9833.764327926365,291.33967491740174,79.75300703086089,-6.252305361957332,0.6118679550642216,-0.00037067780644709734,-0.007648419326301633,-0.07811951559396269,-2809.52762822734,9833.499987531628,259.4947361922076
26.021335023999995,24.75400000000002,-2817.026042754353,9832.576562196817,291.45233863108814,79.75352342716907,-6.250123112756659,0.564765455148125,-0.00036554512067196477,-0.007059622693763099,-0.0780918157499162,-2796.0210315164654,9832.471136981294,259.3655785212176
26.190014426999994,24.909999999999997,-2804.5047509264996,9831.595404370251,291.5385594884512,79.75393860380271,-6.248342228121077,0.5241196525504523,-0.0003614047445401208,-0.006551538837354004,-0.07806921680065138,-2781.534695632676,9831.302873941424,261.11003729353695
26.39422311300001,25.099999999999994,-2788.7134781377977,9830.358416075942,291.638080164504,79.7544420044666,-6.246123522262901,0.47091555627602305,-0.00035622162408620463,-0.005886475302830296,-0.07804107574778762,-2766.3998597502405,9830.1469546667,261.0576054066947
26.596346646,25.28800000000001,-2776.35155582074,9829.390373127495,291.7085113449709,79.75481681923897,-6.244408201025904,0.4278863518535312,-0.0003521383652220653,-0.0053486021727769985,-0.07801933357883906,-2750.4683706055675,9828.930601682714,260.99190575392225
26.799974424,25.47800000000001,-2761.0386458788284,9828.191614887932,291.78642967864937,79.75525346767316,-6.242308699923841,0.373184589879407,-0.0003469999363074759,-0.004664822053909075,-0.07799274357109498,-2736.3028586133923,9828.665201565356,257.7247492985551
26.970093356000007,25.64700000000002,-2747.719539272824,9827.14927042878,291.84560587834875,79.75560534371088,-6.240505518357987,0.32452838318823723,-0.00034242839052840994,-0.004056614074071121,-0.07796992913827339,-2722.7410326997933,9827.672703271739,257.4855063832825
27.142306437000002,25.805000000000007,-2732.2469738056875,9825.93878017197,291.9040422782123,79.75597800263752,-6.238438633767629,0.2669577485604147,-0.00033697448002513415,-0.0033369766396769474,-0.0779438083000017,-2707.583641753364,9826.56378597129,257.2082311843843
27.34873147000002,26.001000000000005,-2716.614828100754,9824.716215196107,291.95167372332594,79.75631213448773,-6.2363811066224555,0.20791440312807513,-0.0003313008388278632,-0.002598931949021419,-0.07791784175385996,-2695.0500184458197,9824.56084867459,259.8914200715425
27.552305765,26.201999999999998,-2701.5409149869765,9823.53769382011,291.9865683074303,79.75659153749058,-6.234427416072862,0.15037556200076432,-0.00032567552872695153,-0.0018796949576329056,-0.07789322264396592,-2676.001372319183,9823.089503345385,259.7254934154011
27.788328489999998,26.42500000000001,-2683.675473510372,9822.141402057332,292.0138103276022,79.75686630333055,-6.232151069237081,0.0817283947695162,-0.0003188371288903562,-0.0010216047843838504,-0.07786458718135059,-2660.753085388977,9821.949243272933,263.23214112704164
27.99161983000002,26.61500000000001,-2670.356112020359,9821.100745472528,292.0241297343705,79.7570306057095,-6.230482069709029,0.030426463807512936,-0.0003136344124905764,-0.0003803306949454994,-0.07784362809963086,-2648.100340865979,9820.97437473291,263.2826073780572
28.161786344000006,26.771000000000015,-2658.0735644759825,9820.141345132963,292.0260108892231,79.75715093052243,-6.228965454691114,-0.01683854327620006,-0.00030877264699373313,0.00021048173627721467,-0.07782461086015946,-2634.656784963772,9819.938830772177,263.3282169347639
28.329998152,26.937000000000012,-2642.3614504491807,9818.914397258872,292.0178598916114,79.75726198639748,-6.227056044685267,-0.07707203308843556,-0.0003024904991734833,0.0009634003363244009,-0.07780070760069346,-2618.3810936457576,9819.106985432674,261.60179086054313
28.540242699999993,27.13500000000002,-2628.80275822519,9817.855909175047,292.0013397526955,79.75731968034935,-6.225436572171478,-0.12869608695730558,-0.0002970325481670801,0.0016087014457836354,-0.0777804694559312,-2604.8889799312346,9818.090178126848,261.53720184152803
28.72105001600002,27.305000000000007,-2612.7715887994987,9816.60475566111,291.9705138790237,79.75734349697994,-6.2235562727837985,-0.18912091558231967,-0.00029056327640438736,0.0023640132290729077,-0.0777570137583512,-2589.8095606043194,9816.954046211733,261.45532827360046
28.931178313999993,27.5,-2597.059445867174,9815.378864955836,291.92856366072976,79.75732209110765,-6.221750064432771,-0.24751000956214714,-0.00028423733606857966,0.0030938796052155755,-0.07773452528874136,-2574.865538260327,9815.067021944113,262.62867798882485
29.134359898000014,27.700999999999993,-2581.7460946908086,9814.184428357737,291.87666524843746,79.7572609975511,-6.220024670957016,-0.30344964101935185,-0.00027811331410122466,0.0037931291727983534,-0.07771308243480135,-2559.8120460011824,9813.889980375801,262.5969807556675
29.30464937000002,27.860000000000014,-2569.1444927374123,9813.201753363057,291.8259516553196,79.75718285540721,-6.218630241474385,-0.3486702022762393,-0.00027312126963855706,0.004358390935203602,-0.07769578061307825,-2544.6617073597617,9812.796016869854,262.808121487989
29.543392341000015,28.087000000000018,-2550.162358415957,9811.72193144006,291.73627116253925,79.75702186704859,-6.216573500501008,-0.4151971765827603,-0.0002657098089201327,0.005189987718159535,-0.07767030522798146,-2529.6213216495075,9811.625974797937,262.77150341889103
29.74703662600001,28.28,-2537.800065682446,9810.758444648693,291.6693780931813,79.75689141312456,-6.21526237501685,-0.4573761749256993,-0.0002609661160490382,0.0057172331509136665,-0.07765409216924835,-2515.3725639731397,9810.517776171275,262.72842374452387
29.916276763000013,28.444999999999993,-2522.4070460943394,9809.559029098766,291.57707105449833,79.7567041897261,-6.213660096979593,-0.5085433304746534,-0.0002551646594808323,0.006356834417931519,-0.0776343056533162,-2497.213215148332,9809.234840217321,262.5344588234331
30.119075226999996,28.637,-2506.4557690738284,9808.31643403523,291.4711539371147,79.7564848136946,-6.212034593426354,-0.5598780768943039,-0.00024928389555918783,0.006998533251920198,-0.07761426074390343,-2483.7340515905203,9808.19371731394,262.46943710921215
30.327633667000015,28.837000000000018,-2493.1364863100953,9807.27911415573,291.37494723602526,79.75628494313882,-6.210704553760987,-0.6013242227247443,-0.0002444823754727056,0.007516623899770446,-0.07759787898965831,-2470.2549287722213,9807.1528553521,262.3963905021757
30.50125648400001,29.001000000000005,-2479.97674835003,9806.254433948443,291.2731740986834,79.75607514582862,-6.209414396292605,-0.640945978071291,-0.00023983939370361514,0.008011910965460224,-0.07758200378258828,-2457.1236490256847,9806.945856265893,263.17713929931426
30.671273954000014,29.170000000000016,-2464.9029087499653,9805.080969552468,291.14865960054453,79.7558228927276,-6.207965395712526,-0.6846405389916816,-0.0002346472210158347,0.00855811197218594,-0.07756419001489157,-2438.8783634551273,9805.59394943739,263.11892274380864
30.909085782000005,29.393,-2446.957922548958,9803.684341017148,290.98989155086593,79.75551119779584,-6.206280305344958,-0.7341844952725337,-0.00022864554584694607,0.00917743608848019,-0.0775434913834605,-2425.28374937147,9803.940831453507,264.03639159970476
31.112066792999997,29.583,-2433.559043970303,9802.641769423837,290.8642270058861,79.75527336679463,-6.205048969813379,-0.7694232950877341,-0.0002242862539486013,0.009617940768505947,-0.07752837601985907,-2412.6414993744393,9802.972236918962,264.0321190412904
31.281870622000014,29.75200000000001,-2420.9577531054506,9801.661443801724,290.7407070836192,79.75504841396202,-6.203912307463124,-0.8011091215157601,-0.00022028246644388756,0.01001403291196524,-0.07751442795605956,-2399.2091446462323,9801.943290406129,264.022554696045
31.451736221000004,29.911,-2408.1969871117453,9800.668890477624,290.61061405895583,79.75482123292159,-6.202781606602268,-0.8317622810951766,-0.00021632167490998744,0.010397217595657496,-0.07750055624151408,-2386.6445215191566,9800.120411826907,264.74904731134075
31.621989197999994,30.070999999999998,-2394.638711307189,9799.614498350782,290.467143712286,79.75458250625826,-6.201602007974081,-0.8627497333544493,-0.00021220846187488008,0.010784582712171571,-0.07748608618883579,-2373.275083527613,9799.050989235971,264.76864399250775
31.792385157000012,30.239000000000004,-2378.6878482237503,9798.374291832422,290.2917638020127,79.75430836697029,-6.200243152480719,-0.8970441935832166,-0.000207494984097838,0.011213289679424341,-0.07746941621889092,-2356.7599436075416,9797.73018966095,264.7867455751843
32.00690152600001,30.441000000000003,-2360.7431893260364,9796.979381577683,290.08649782171847,79.75401261727224,-6.198751167574625,-0.9327994452273524,-0.00020234631084217302,0.01166025987586543,-0.07745110779833886,-2340.5632314394497,9796.187169638852,266.1419517340155
32.244855005999995,30.664999999999992,-2345.510216830912,9795.795518574909,289.90613009514567,79.75377483847446,-6.197514139151532,-0.9608236068811412,-0.00019809764365356529,0.012010586695069787,-0.07743592065524041,-2325.6121703902168,9794.977606730494,266.22471031023036
32.448436834999995,30.852000000000004,-2332.5901372790167,9794.791587951197,289.74907125818817,79.75358503478412,-6.196486278477023,-0.9828760337387943,-0.00019457858457559536,0.01228626258451948,-0.07742329386961755,-2310.6611457687627,9793.768260481367,266.30305957891824
32.61768174100001,31.00800000000001,-2319.989099669409,9793.81260508675,289.5925363565596,79.75341130147379,-6.195501937494745,-1.0029029130980087,-0.00019121661986200306,0.012536618059865837,-0.07741119384476125,-2298.1653282000093,9793.953797400789,263.5986570706875
32.786938991,31.176000000000016,-2307.069074782121,9792.808997845137,289.42885072548415,79.75324586168722,-6.194510861653205,-1.021935756604033,-0.0001878382038605188,0.012774547849199241,-0.07739900177612191,-2283.9377775641365,9792.868510914577,263.51596711790575
32.96042219899999,31.339,-2291.437472285996,9791.594969404094,289.2268464057451,79.75306458703744,-6.19333636850307,-1.0429165843756962,-0.00018383884551911002,0.013036830254281878,-0.0773845389314689,-2269.7102511895996,9791.783408210164,263.4302379602339
33.167353147,31.533999999999992,-2275.407137346991,9790.350207183146,289.0156115292434,79.7529016503378,-6.1921594266995035,-1.0621275313328709,-0.00017983363454049975,0.0132769880764097,-0.07737002772403945,-2254.7816912833764,9790.660982463933,265.85086227493076
33.370679439000014,31.73400000000001,-2260.254110981139,9789.173782401753,288.81254008761056,79.7527701734518,-6.191072124139409,-1.0781647013199611,-0.0001761323762084601,0.013477470815167009,-0.07735660321818782,-2238.257657634847,9789.402218432306,265.9011992692823
33.574297559,31.92500000000001,-2244.782095600862,9787.972801616881,288.6022156980311,79.75265917219825,-6.189986536878953,-1.092468815482922,-0.00017243558701468127,0.013656288855946766,-0.07734318021167086,-2224.931186985747,9788.094425332898,267.57606297780364
33.77782276100001,32.120000000000005,-2231.383663815437,9786.932945203784,288.41795886718484,79.75258228638883,-6.1890660052606545,-1.1032122645255389,-0.00016929780639402195,0.013790594732467212,-0.07733178135091401,-2211.532415771504,9787.058660757957,267.6993291222116
33.94701768500002,32.275000000000006,-2219.1815296812047,9785.98606762963,288.2486544805551,79.75252863593236,-6.188243835692903,-1.1116432879922211,-0.00016649024720115667,0.013895992723144266,-0.07732158593728733,-2197.345487310308,9785.962123324753,267.82848459519346
34.11687459500001,32.44,-2203.7095512418314,9784.785630111517,288.0322591048125,79.75248222525754,-6.187222251259716,-1.120596297573423,-0.0001629962782823131,0.014007916337401049,-0.07730889803074081,-2182.0146665660845,9786.023060304335,264.0303478360713
34.289019214999996,32.601,-2190.1516365636107,9783.7338611445,287.84132229884074,79.75246133788255,-6.186345921948681,-1.1268856829003715,-0.0001599923005569784,0.01408654148021387,-0.07729799584043318,-2167.694227547079,9784.98568513875,263.9400530373191
34.492697112,32.791,-2175.237931416502,9782.577086749485,287.6301735781632,79.75246021915348,-6.185402684763527,-1.1321145635505525,-0.00015675026292038922,0.014151909064783629,-0.07728624058804989,-2151.7826238550156,9783.833224635711,263.8389836474103
34.695832353000014,32.982,-2159.845708536732,9781.38337938937,287.4113622435318,79.75248191120698,-6.184450850597211,-1.135770121835003,-0.00015347063996874117,0.01419760817553534,-0.0772743561154523,-2135.425779448437,9783.119188467714,258.7340951983745
34.898187698000015,33.184,-2139.1898113810958,9779.781746180404,287.1168857427486,79.75254651562197,-6.183207507845645,-1.1379953926020898,-0.00014917157970024684,0.014225426892675707,-0.07725879683535819,-2113.934756808109,9781.601404636202,258.1904583293665
35.204391731000015,33.46800000000002,-2118.613643105763,9778.186612731412,286.82330029660085,79.75264950779275,-6.182006794366868,-1.137303827194181,-0.00014500307638317005,0.014216781440019696,-0.07724373178153288,-2097.061732543956,9778.929336450175,255.49759064904455
35.44102972800002,33.70099999999999,-2105.932965368442,9777.203718234248,286.64256594193023,79.75273098751025,-6.181285004418567,-1.135518188316011,-0.00014248891965029298,0.014194458678470717,-0.07723465676135488,-2082.786320777179,9777.841068849051,255.01433216577863
35.611049244000014,33.859999999999985,-2092.534497489752,9776.165311340716,286.4519792465905,79.75283133372604,-6.180537288276549,-1.1325458703053317,-0.0001398780359655858,0.01415730093414847,-0.07722524038258571,-2069.303966582671,9776.813388164952,254.55862553210298
35.78082927900002,34.019000000000034,-2077.301692603327,9774.984893346382,286.2360042027607,79.75296207396231,-6.1797053386256335,-1.1278846306224573,-0.00013696558032772325,0.014099029565686375,-0.0772147447828666,-2057.411641254329,9776.936520246412,251.64930917943315
35.94889224900001,34.18500000000003,-2064.939972236267,9774.027078614386,286.0614550991594,79.7530804185167,-6.179044154647105,-1.1231447454816619,-0.00013464485076599404,0.014039775078514394,-0.07720638957412573,-2041.5310286012668,9775.788628221911,250.96288509987343
36.15142011200001,34.373999999999995,-2049.4678557270486,9772.828407908926,285.8441004918826,79.75324253216307,-6.178233509827485,-1.116093127301786,-0.00013179364966433373,0.013951621134124853,-0.07719612925614605,-2025.3613853002234,9773.550347631899,252.8749529448269
36.35872547700001,34.56800000000001,-2033.4374315105176,9771.586650055084,285.6204446396242,79.75342551736507,-6.177412994036828,-1.1075528003776927,-0.00012890058517008363,0.013844856638870811,-0.07718572578347982,-2011.8727358688495,9772.518915147726,252.43363320091228
36.56195186900001,34.769000000000034,-2018.364011856443,9770.419176499174,285.41179978348504,79.75361042423067,-6.176659390402494,-1.098433260166508,-0.00012623713057539603,0.013730851443008674,-0.0771761544706373,-1994.4167920274856,9771.184286528853,251.86474104870248
36.763775924000015,34.95700000000002,-2003.2905555063112,9769.251844094293,285.20495483084886,79.75380620585086,-6.175922534629556,-1.0883483609227138,-0.00012362799523911683,0.013604778310207245,-0.07716678143483335,-1981.7100833872653,9769.133083191376,254.0111704905538
36.932431261000005,35.11300000000003,-1989.9716495073471,9768.220506065298,285.0238174471816,79.75398697905446,-6.175284811043719,-1.078707498155721,-0.00012136618193469197,0.013484256364820339,-0.07715865848256809,-1967.453567347253,9767.983614954648,253.69186032434067
37.13625062700001,35.304,-1974.6588565555514,9767.034906876386,284.81761890608885,79.7542028801331,-6.174567116270508,-1.0668268806234806,-0.00011881689088051792,0.013335735159590434,-0.07714950491362127,-1950.8209170526757,9766.642719545529,253.3220122207756
37.343444933,35.50000000000003,-1959.1067575168313,9765.830922317367,284.61059435010446,79.75442941090789,-6.173854465412756,-1.0539809256907755,-0.00011628163899603826,0.013175146475664567,-0.0771404039917305,-1934.9441117708514,9765.50290325163,251.56557053204273
37.581148273,35.73600000000002,-1943.793877253218,9764.64559517602,284.40925898505446,79.75465833997633,-6.1731685422990425,-1.0406359766323412,-0.00011383776762018675,0.013008320172468344,-0.07713163392383038,-1918.3389104431674,9764.173335943853,251.11444845282668
37.784292824999994,35.926000000000016,-1928.5607070424628,9763.4665710925,284.21156313604104,79.75489051925973,-6.172501231586176,-1.0267548814324248,-0.00011145781128885523,0.012834791848716635,-0.07712309273970819,-1905.3605218606317,9763.456387549793,248.20819826075953
37.953942692,36.08400000000003,-1912.5299401078628,9762.225953921943,284.00641799942036,79.75513815993155,-6.171814502562583,-1.01158491716319,-0.00010900660017062645,0.012645151753162238,-0.0771142946566592,-1889.5058432372905,9762.207259561228,247.62359798686592
38.156713233999994,36.27400000000003,-1900.1678712801847,9761.269353110489,283.85033992496415,79.75533077581898,-6.171295879962731,-0.9995343917560173,-0.00010715382844170611,0.012494508159711943,-0.07710764491381372,-1876.029303901706,9761.145664301801,247.13063899647997
38.32586852,36.43899999999999,-1887.4069944972634,9760.281977754848,283.6911991831378,79.75553027385277,-6.170770024506717,-0.9868265769065155,-0.00010527434620895263,0.012335648104459088,-0.07710089841138035,-1863.1179267996747,9758.204649198444,251.28127486172096
38.49801508500002,36.599999999999994,-1871.2963418547597,9759.035534989804,283.4932011569869,79.75578214474633,-6.170119473581683,-0.9704578856172377,-0.00010294865423941922,0.012131023997223453,-0.07709254727107862,-1851.2382907702538,9757.179868740555,251.0653581759958
38.668091583999995,36.769000000000034,-1858.6949045121096,9758.060685844697,283.34066065982853,79.75597858115928,-6.169621071020197,-0.9574432487547253,-0.00010116580097566684,0.011968329099608164,-0.07708614594431107,-1836.1907110128993,9755.881915514721,250.7945958997295
38.871674063,36.96000000000001,-1846.0934360692945,9757.085914898236,283.1901855082209,79.75617388568453,-6.169131493149077,-0.944287402202846,-9.941374516563082e-05,0.011803869275771246,-0.07707985572171538,-1822.36322887456,9756.874691563711,249.34380828874316
39.04116423900001,37.11800000000002,-1832.6943726389445,9756.049533466203,283.03246451639114,79.75637972427154,-6.168620191571271,-0.9301868972874698,-9.758478769881497e-05,0.011627600741779173,-0.07707328461309038,-1808.9053622628965,9755.828455563302,249.04360658154735
39.21101151900001,37.27599999999998,-1820.1725974681422,9755.081087852688,282.8872283426912,79.75657000521129,-6.16815113451965,-0.9169389164893159,-9.590613918910257e-05,0.011461989824378604,-0.07706725504679635,-1797.8223873267352,9754.96691313774,248.79821803317245
39.345884883,37.40900000000002,-1807.5710357481958,9754.106547587124,282.74316784953766,79.75675900273193,-6.167687294940139,-0.9035741955026895,-9.424604708171719e-05,0.011294919877901502,-0.07706129176904564,-1784.3401281960355,9753.973990530054,248.56254584370456
39.54969613900002,37.60100000000003,-1791.4601353757541,9752.860721753805,282.56205151866607,79.75699637942522,-6.167105803505357,-0.8864920244723875,-9.216587938659835e-05,0.011081379233029024,-0.07705381552723711,-1770.1156432942023,9752.871511120775,248.25672357397445
39.75379302000002,37.792,-1776.465789189235,9751.701345404492,282.39659920760266,79.7572125077031,-6.166576325764322,-0.8706529514560378,-9.027148107068659e-05,0.010883378744723664,-0.07704700807203624,-1755.1008692685211,9751.707881269636,247.93688463877
39.924018210000014,37.958,-1764.023641615038,9750.73938475004,282.26156507935707,79.75738794998136,-6.1661452172237325,-0.8575906465433717,-8.87299829213754e-05,0.010720090298432206,-0.07704146587731109,-1740.4124453386241,9750.050671470324,250.07064004555298
40.126422168999994,38.147999999999996,-1750.544618094789,9749.697335612565,282.11755621652526,79.75757371561149,-6.165686227465142,-0.8435536167366167,-8.708887917157378e-05,0.010544617399637161,-0.07703556625776953,-1727.768865832915,9749.045630522476,249.92530121405582
40.294971059000005,38.30499999999998,-1735.470407055394,9748.532058667446,281.95931616823367,79.75777586002889,-6.165183014006144,-0.8280417441245639,-8.529023515965923e-05,0.010350708286671464,-0.07702909969896177,-1711.9643543660968,9747.789423116888,249.7465309028368
40.50333909700001,38.501000000000005,-1722.390108910243,9747.520995198187,281.8243643303844,79.75794622287314,-6.164754588869128,-0.8147703773870376,-8.375938853843448e-05,0.010184807358302246,-0.07702359590517438,-1697.7718018091207,9747.640607795924,248.60069772602645
40.672983267000006,38.66999999999999,-1708.9109925563437,9746.479179440761,281.6875556932711,79.75811669735376,-6.16432091461399,-0.801307311619335,-8.221036369472452e-05,0.010016510355300224,-0.07701802660052226,-1681.9020350477658,9746.43878912628,248.3669622357914
40.88081534600002,38.871999999999986,-1693.2783725062152,9745.271011072342,281.53172488405403,79.75830773678055,-6.1638278205536405,-0.7860046485676454,-8.044933134415805e-05,0.009825217544548329,-0.07701169693141119,-1667.6192126298886,9745.357238006733,248.15925040744645
41.05708799300001,39.03400000000002,-1680.1182303361584,9744.254004883724,281.40284464755047,79.75846285083671,-6.163420752546779,-0.7734102895938247,-7.899613709584378e-05,0.009667780493166363,-0.07700647406620442,-1657.1280263215365,9743.67314494603,251.8974961128551
41.227542201000006,39.198999999999984,-1667.5961323789893,9743.28637022576,281.2821317804372,79.75860556129612,-6.163040067219784,-0.7616919825799244,-7.763775515162597e-05,0.009521294831678202,-0.07700159198077827,-1642.1142918503156,9742.485468039209,251.9071056106587
41.39676375600001,39.357,-1652.122936697985,9742.090776062683,281.1354793551182,79.7587751789601,-6.162578484698431,-0.7475991128291165,-7.599182791178149e-05,0.009345126028220222,-0.07699567574346333,-1627.8907264194966,9741.360377989467,251.9185510388371
41.60009127500001,39.551000000000016,-1635.931878296906,9740.839811015076,280.9849039258522,79.7589447026293,-6.162105598224905,-0.7333381298888755,-7.430695468453072e-05,0.009166856016360083,-0.07698961873091226,-1612.130530747902,9740.473418991065,252.69209304834723
41.804459358,39.753000000000014,-1623.2501884437925,9739.860057988652,280.8689717214642,79.75907179301704,-6.161742354677215,-0.7225399958919386,-7.301334056836047e-05,0.009031873684763537,-0.07698496911562147,-1598.683410834926,9739.427990092452,252.7452605410737
41.97470247300001,39.91299999999998,-1607.936423721638,9738.677036382092,280.7312330526848,79.75921863351886,-6.161311823317871,-0.7099532216309173,-7.14814226734981e-05,0.008874532622883947,-0.07697946186423876,-1584.6078843408004,9738.597106211264,250.32150459085398
42.178131425000004,40.10299999999998,-1591.9845566779697,9737.444809169003,280.59027461413564,79.75936394097168,-6.160872554245506,-0.6973888588962311,-6.991997612794301e-05,0.008717471940129357,-0.0769738472031678,-1567.2491060140749,9737.265703387087,250.22608653822797
