Real_time_s,Simulation_time_s,x_ft,y_ft,alt_ft,vx_fps,vy_fps,vz_fps,roll_rad,pitch_rad,yaw_rad
0.0,0.0,1.9734701431633027e-15,4000.0,280.0,5.329070518200751e-15,24.38061403872569,0.4063435673072492,2.5330480138730274e-16,-0.01666512371374206,1.570912653589793
0.03346756199999845,0.03200000000001069,2.5483879038970415e-15,4002.559644518511,280.04266074197443,2.891585287589314e-11,24.380614037880747,0.4063436180042874,2.567747301734302e-16,-0.01666512371374512,1.570912653589793
0.16867919500000994,0.1670000000000016,-1.1363879472112744e-06,4013.358157341587,280.23117911260135,2.146340694181282e-05,24.379670998928535,0.459454005905728,4.331692135227303e-05,-0.018843551031588485,1.5709117732111357
0.3380476700000088,0.32500000000001705,2.247382740519746e-05,4025.995856939751,280.4814032619195,0.00011104332462744183,24.378476364430135,0.5189856805263077,8.262441509175197e-05,-0.021285466921705586,1.5709080986200272
0.5070010029999992,0.4830000000000041,0.00010437112725779089,4038.6329125107186,280.7618924274787,0.00025214745074470565,24.377205158818924,0.5756080100856583,0.00011004311394878704,-0.02360816265190489,1.5709023100204567
0.676703668000016,0.6520000000000152,0.0002829321903465963,4052.149014346306,281.0935280952572,0.0004457748490738831,24.375785968847378,0.6328619140291195,0.0001306714721553397,-0.025956895672047682,1.5708943659871364
0.8799911290000182,0.8379999999999939,0.0006132481837218575,4067.0237854825295,281.49449736606914,0.0006911138498748052,24.374182409999342,0.6918723628252422,0.0001438454571132377,-0.02837783766609286,1.5708842992572047
1.0542265649999933,1.0010000000000048,0.0010296806100076883,4080.0583864238106,281.8746646069246,0.0009201646165427816,24.37276255904479,0.7402029409038633,0.0001485761827082879,-0.030360754329042238,1.5708748997884283
1.2575901879999947,1.200000000000017,0.0017060053605950272,4095.970755561101,282.3727190108759,0.0012036973160955069,24.3710403670108,0.7948874012361317,0.00014753536870670608,-0.032604503774577166,1.5708632631197705
1.4609561430000042,1.3910000000000196,0.0025285623791262723,4111.2423672082305,282.88323636073864,0.0014678665502528907,24.36942864716614,0.8428530453446978,0.00014088310407144822,-0.03457270935099359,1.5708524196629825
1.6284313170000075,1.5459999999999923,0.003315897500533009,4123.634815281307,283.3189842853083,0.0016701000309159823,24.368167465837786,0.8785599397031034,0.00013250688402895842,-0.03603798023467005,1.5708441174606307
1.8310674540000207,1.7450000000000045,0.004472003610923277,4139.544189700277,283.90392469614477,0.0019082810347495517,24.366626774900176,0.9202999354460271,0.00011897739995375868,-0.03775092430466727,1.5708343382402605
2.0374283609999964,1.9399999999999977,0.005748849091664238,4155.132814737521,284.50238223902835,0.002113648927957055,24.36522515375661,0.9566894685503766,0.00010377980109383308,-0.03924438403023308,1.5708259050048563
2.2109084810000184,2.0999999999999943,0.00688989551956516,4167.9228206905545,285.010107199875,0.002259585627984095,24.364167305510758,0.9832611063979768,9.057108637871887e-05,-0.040334963497667284,1.5708199114291164
2.380028264999993,2.2680000000000007,0.008165494277984835,4181.351742260638,285.5575218900983,0.0023907153693441666,24.363152739009962,1.008086752295108,7.649564033132923e-05,-0.041353925592659255,1.5708145252686323
2.5835109620000196,2.4569999999999936,0.009680565161488755,4196.458627618926,286.18886548859325,0.0025104300384467954,24.36214351928461,1.0321883759867594,6.091589827404515e-05,-0.042343211490423235,1.5708096072399933
2.7531774680000183,2.616000000000014,0.011007850995344758,4209.167125073672,286.7309097668669,0.0025897149024051696,24.361404852460154,1.0494774451646773,4.833194756542701e-05,-0.043052891764343605,1.570806349587336
2.9566113909999956,2.805000000000007,0.012633686233294984,4224.272971614103,287.3861582873756,0.002660209413652787,24.3606614017145,1.0665950470095698,3.43079613155257e-05,-0.043755555048454575,1.5708034525576695
3.132755483000011,2.967000000000013,0.014057541210351545,4237.220491556515,287.95557686888264,0.002701040349004853,24.360146330700683,1.0782946959126936,2.3208639118205704e-05,-0.044235828315913266,1.5708017741115052
3.303258490000019,3.1340000000000146,0.015544268819975959,4250.567357054554,288.548474446504,0.002726215549695199,24.359732650635515,1.0875999987648464,1.2829995222883868e-05,-0.04461782042901664,1.5708007387519942
3.4718241090000106,3.290999999999997,0.016951579723979284,4263.114816048571,289.1100299289156,0.00273571893538341,24.35945236213823,1.0938597408085482,4.080274281216076e-06,-0.04487479287203603,1.5708003473325003
3.674165329999994,3.480000000000018,0.018648223770085022,4278.219550883878,289.78957824562497,0.0027310881764516146,24.35925325120571,1.0982848377282075,-5.124179134706013e-06,-0.04505645201338731,1.5708005365167532
3.8435887939999986,3.647999999999996,0.020150936388337964,4291.645898210522,290.3952958748724,0.002714433281973391,24.35919838342017,1.0995011364408074,-1.2109596868642304e-05,-0.04510638383303037,1.5708012199848684
4.01317313200002,3.8060000000000116,0.02155382032231086,4304.273044145714,290.96511948456447,0.002689624024944941,24.359248400039913,1.0983925305091236,-1.7693040736622312e-05,-0.0450608731788953,1.5708022386872365
4.183482136999999,3.9680000000000177,0.022977184237210155,4317.219905234567,291.5483247958057,0.002656564035032061,24.359396443951766,1.095104483170572,-2.2490366379521292e-05,-0.04492589218432137,1.5708035965341163
4.352897503999998,4.135999999999996,0.024433191533537457,4330.64637722921,292.15081052185343,0.002615519668205526,24.359649498587558,1.089461089265017,-2.6520719067600402e-05,-0.044694221300450955,1.570805282599407
4.566066460000002,4.338999999999999,0.026160403088999886,4346.870240109364,292.8739408970008,0.0025587998583055664,24.36008074150727,1.0797757729235054,-3.0245730764505883e-05,-0.0442966282023085,1.5708076128916972
4.77554923400001,4.534999999999997,0.027790472186972875,4362.534956913353,293.56523310967094,0.0024985419237974144,24.360618610273665,1.0675723310760339,-3.277193049946178e-05,-0.043795673169106306,1.5708100887906205
4.943935151000005,4.700000000000017,0.029131958945568994,4375.722372048746,294.14064377945954,0.0024450072354934974,24.36115415391748,1.055281152589655,-3.419537560287702e-05,-0.04329112762137517,1.5708122885884601
5.147942940000007,4.896000000000015,0.030687197252810196,4391.387815061005,294.8149482671593,0.002379371583337633,24.361879251377044,1.0384072803662487,-3.5167080485185266e-05,-0.04259848314648953,1.5708149857705782
5.351471040000007,5.0870000000000175,0.03216175000020826,4406.654093406085,295.4610227578205,0.0023144523132958244,24.362667199185154,1.0197536884274383,-3.548511951258724e-05,-0.04183280790023773,1.5708176536322662
5.521773160000009,5.256,0.033432612867476987,4420.162370546791,296.0225894541723,0.0022570118575688056,24.363420606857563,1.0015923518324008,-3.5349944560297006e-05,-0.0410873618629765,1.5708200142215365
5.690981639,5.412000000000006,0.03457733543084011,4432.631927470969,296.5316860849246,0.0022045008018964636,24.364157832613948,0.9834959316928125,-3.493228306556203e-05,-0.040344603087191934,1.5708221722830769
5.860089043000016,5.572000000000003,0.0357237033925302,4445.42161090576,297.04399665807426,0.0021515199295241184,24.364947188635025,0.9637426347279306,-3.42739745236662e-05,-0.03953386400767691,1.570824349685489
6.029692647000019,5.740000000000009,0.03689779571251758,4458.851225672447,297.5705470682519,0.0020971407053954486,24.36580480241412,0.9418109856324279,-3.3391939253241555e-05,-0.038633748752761335,1.570826584578034
6.240471807999995,5.937000000000012,0.038236771351463986,4474.599654566592,298.1721924393797,0.002035394263604681,24.366839809507535,0.9146417631906074,-3.216830871262063e-05,-0.03751871718388685,1.5708291222696418
6.41822430000002,6.100999999999999,0.03932141563715984,4487.710532756862,298.6594133742027,0.0019858388227753927,24.36771728094711,0.8909582326235727,-3.104619131843523e-05,-0.03654677738047947,1.5708311589289494
6.620876088000017,6.290999999999997,0.040545133482783095,4502.9005556207085,299.2076492587869,0.0019306736235876222,24.368743055931013,0.8624466050238796,-2.9677593147793554e-05,-0.03537674478878845,1.5708334261281898
6.790779674000021,6.460000000000008,0.04160531459845073,4516.412214233694,299.6802218668423,0.001883708197763728,24.369656881495107,0.8362271998959455,-2.8434209199862287e-05,-0.03430082099839434,1.5708353563082995
6.96121859500002,6.619,0.0425792616100829,4529.124828339886,300.111367102955,0.0018413405937209109,24.37051217041896,0.8109187141325496,-2.726680341256014e-05,-0.03326231483592209,1.5708370974993089
7.131096049000007,6.777999999999992,0.04353144298901414,4541.837885394508,300.52919675418985,0.001800684812126673,24.371358083018716,0.7850846749342096,-2.6119622123450695e-05,-0.03220228016093372,1.570838768300604
7.369794750000011,7.004000000000019,0.044849217443300296,4559.90876714762,301.09970363095823,0.0017458432448704347,24.37253685639892,0.747596238294274,-2.4551737060583803e-05,-0.030664100711871423,1.5708410220119453
7.537899981999999,7.170000000000016,0.04579178425721412,4573.182618815328,301.5009531187324,0.001707604116808959,24.373378917875208,0.7196201843810502,-2.3460272105502707e-05,-0.0295162691414393,1.5708425933758285
7.740790051999994,7.361000000000018,0.04685097600453566,4588.4561054516225,301.94364057648846,0.0016656794189759616,24.3743177799312,0.6870851391538582,-2.2280903478938297e-05,-0.028181435197437533,1.5708443161102355
7.910314794000016,7.52000000000001,0.04771303549043475,4601.171125259616,302.2965730120193,0.0016323465377820591,24.37507131375359,0.6598119314438907,-2.1367052310259677e-05,-0.027062520470062336,1.5708456857216833
8.114516207999998,7.724000000000018,0.048794208183515056,4617.485298295683,302.72860885507794,0.00159147603780474,24.375996679710223,0.624691394181256,-2.0284130447136285e-05,-0.025621709734587737,1.5708473649338763
8.285292756000018,7.8840000000000146,0.04962330198380775,4630.281155421706,303.050937136398,0.0015608458946557292,24.376687407695485,0.5971302967231246,-1.950864729260435e-05,-0.024491060417197744,1.5708486233181727
8.45468067500002,8.040999999999997,0.05042141750339516,4642.83743727363,303.35313903735215,0.0015318941119929457,24.377333471463555,0.5701460114460852,-1.8808473520988953e-05,-0.023384104229407274,1.5708498126669188
8.65758704800001,8.242000000000019,0.051421893704331506,4658.913149584118,303.7198780171125,0.0014962086879988792,24.37811315963903,0.535772841043581,-1.79950281271859e-05,-0.021974080644849833,1.5708512785072362
8.93645608,8.501000000000005,0.05267706196170905,4679.62835874048,304.15910688072466,0.0014524424544162505,24.379036237662326,0.4919817203544379,-1.7079813611282784e-05,-0.020177785754475028,1.570853076071671
9.17461006000002,8.734000000000009,0.05377512651453574,4698.264693423728,304.52270111521113,0.0014148619474225286,24.379787301384898,0.4532384994696158,-1.6368876855209264e-05,-0.01858860823733058,1.570854619368737
9.344642402999995,8.891999999999996,0.05450356406810297,4710.902526548193,304.7524640478265,0.0013902455299333435,24.38025369309563,0.4274154039317312,-1.59420430897733e-05,-0.017529417438065537,1.5708556301656262
9.548603248999996,9.081999999999994,0.05536282453707967,4726.100232095738,305.01115263658096,0.001361452653094812,24.380769352512544,0.39691299554921444,-1.5479723081891223e-05,-0.016278319619098123,1.5708568123384092
9.71786839500001,9.251000000000005,0.05611226362684764,4739.618452453716,305.2254740052494,0.001336506186083244,24.381187478616354,0.3703395014260659,-1.5109519107945395e-05,-0.0151883924051485,1.5708578364811456
9.887970418000009,9.408999999999992,0.05680045978438052,4752.256994077248,305.4125578919964,0.001313713267670552,24.381544534421042,0.3460352441654539,-1.4794805571161516e-05,-0.014191555081107365,1.5708587721270169
10.092714860000001,9.602000000000004,0.057625248495987706,4767.695455444633,305.6241909598026,0.0012864865145751539,24.381938070822635,0.3170966028301894,-1.4445160559370795e-05,-0.013004657143461698,1.5708598896738533
10.262044986000006,9.769000000000005,0.05832516238539326,4781.054318541949,305.79271918706144,0.0012634249017456933,24.382242369743285,0.2927651394160398,-1.4168740771438628e-05,-0.0120067335991813,1.570860836168796
10.464298733000021,9.956999999999994,0.05909802982960991,4796.093232421464,305.9666191082312,0.0012379824691511245,24.38254650951359,0.26623331649199333,-1.3881853917445554e-05,-0.010918578743509011,1.5708618802842085
10.667767826000016,10.14700000000002,0.05986332674695544,4811.292318117836,306.12600246686657,0.0012127759442572797,24.382815126683514,0.24037684404435208,-1.3612911842937622e-05,-0.009858134617266973,1.5708629146259612
10.904778606999997,10.372000000000014,0.06074946952346743,4829.291441983332,306.2942851595256,0.0011835364465193282,24.38308648947957,0.2110636060637863,-1.3315556711294918e-05,-0.008655932493628282,1.5708641143508335
11.111678855999997,10.567000000000007,0.06150014674126174,4844.890837664828,306.4229588592922,0.0011586994525280526,24.383284027456227,0.18685473988592333,-1.3071879239862206e-05,-0.007663081697060676,1.5708651333514958
11.314084494000014,10.765000000000015,0.06224625411542647,4860.730348063618,306.53808954169375,0.0011339349921286527,24.38345216211041,0.16344837799478926,-1.2833989449683559e-05,-0.006703150289858352,1.570866149304867
11.483633861000015,10.917000000000002,0.0628081179785002,4872.890044768522,306.6162843654837,0.0011152319701480502,24.383560936904157,0.14632427188963448,-1.2656184931585274e-05,-0.006000867951439859,1.570866916546399
11.652435432000004,11.069999999999993,0.06336431113450884,4885.129793316567,306.68651258057884,0.0010966637828816839,24.38365436370106,0.12982553252733472,-1.2480212565089961e-05,-0.005324235536039112,1.5708676782230628
11.864754266000006,11.271000000000015,0.06408101493290434,4901.209531716467,306.76653761744683,0.0010726487798348714,24.38375515105955,0.10926839710847917,-1.2251895019841284e-05,-0.004481166969622615,1.5708686632861129
12.072459637999998,11.467000000000013,0.06476472229682008,4916.889338773721,306.83182727462133,0.001049651635378479,24.383832055138104,0.09049422664528245,-1.203114267071417e-05,-0.0037112223637171112,1.5708696065557213
12.274442945999994,11.664999999999992,0.06544051203764893,4932.7291929154935,306.885873484928,0.0010268393435102887,24.383891251218323,0.07281754160077966,-1.1809011568878075e-05,-0.002986288580696191,1.5708705422078724
12.444035559000014,11.819000000000017,0.06595589561286104,4945.0491064184425,306.9201280117616,0.001009389389304598,24.383926219397665,0.059975896066305476,-1.1636389816265134e-05,-0.002459644307784021,1.5708712579017596
12.646441365000015,12.00800000000001,0.06657646429694403,4960.16902491161,306.9535649170202,0.0009883193300804763,24.383957924510856,0.04528751387940263,-1.1424488039510847e-05,-0.0018572649846285826,1.5708721220507202
12.850259768,12.211000000000013,0.06722862913818638,4976.408959910761,306.97972538452,0.0009661059849163927,24.3839805267452,0.030801590121052602,-1.1196705631518432e-05,-0.0012631892604491337,1.5708730330693903
13.022770945000019,12.370000000000005,0.06772912680711342,4989.128920867029,306.9936624342732,0.0009490210861206265,24.383991431886823,0.020419329887462825,-1.1018131898284777e-05,-0.0008374073255772658,1.5708737337475829
13.228399811000003,12.564999999999998,0.06833088045916784,5004.728882500127,307.0036391225589,0.0009284357779085998,24.383998392343756,0.008805690693929476,-1.0799131748537879e-05,-0.0003611260674715134,1.5708745779725133
13.430637401000013,12.766999999999996,0.06894050298637981,5020.8888496988575,307.00650549910154,0.0009075381258556043,24.38399990583657,-0.0019412731663254114,-1.057255774284057e-05,7.961232166129307e-05,1.5708754349980218
13.632805246000004,12.960000000000008,0.06951009104814582,5036.328821912498,307.00289081702016,0.0008879847823473623,24.38399751013084,-0.010983506787309225,-1.035674985034291e-05,0.00045043887887245116,1.570876236886825
13.83696529400001,13.152000000000015,0.07006454715426846,5051.688795579908,306.9939134615785,0.0008689290278475664,24.383992720474566,-0.018821604909847113,-1.0143176981286801e-05,0.0007718832839608023,1.5708770183659093
14.041214854000003,13.343999999999994,0.07060710215045989,5067.048769239403,306.98028550654766,0.0008502654996718548,24.38398661775633,-0.02553237423148035,-9.931097732938382e-06,0.0010470954254870209,1.5708777837580181
14.278916455000001,13.569000000000017,0.07122809226743125,5085.048737496896,306.9593459601445,0.0008288896247812997,24.38397899056599,-0.03199844659818047,-9.68513870505243e-06,0.0013122724977046576,1.5708786603831668
14.448021234999999,13.736000000000018,0.0716789105601443,5098.408713185015,306.9409578917135,0.0008133633785625838,24.383973622167538,-0.035857103679509734,-9.504667086392096e-06,0.0014705181273187162,1.57087929711548
14.651015281000014,13.926999999999992,0.07218414426934547,5113.688684891016,306.9175651772513,0.000795964691219518,24.383968325271688,-0.039294765475077584,-9.300844761928016e-06,0.001611498547060534,1.5708800106380145
14.85450341500001,14.12100000000001,0.07268626346593254,5129.208656127355,306.89186432002316,0.0007786736110821855,24.383964208948363,-0.04177140648455215,-9.096966377927857e-06,0.0017130669972992144,1.5708807197493735
15.057089390000016,14.311000000000007,0.07316743564962006,5144.408628676037,306.8654064456935,0.000762107844438417,24.38396165803341,-0.043235156480927246,-8.900639521521963e-06,0.001773096231527425,1.5708813991174615
15.22740171700002,14.468999999999994,0.07355976755538599,5157.048606972948,306.84286323855434,0.0007486019979783017,24.383960715541516,-0.04376371249567587,-8.74004491805935e-06,0.0017947726335180109,1.5708819529986522
15.430556859999996,14.670000000000016,0.07404888046837578,5173.128581714883,306.8140106364779,0.0007317747973183362,24.38396109293922,-0.04355321504683835,-8.539504370005861e-06,0.001786140037913999,1.5708826430921277
15.643800378999998,14.87100000000001,0.07452699933437154,5189.208559953181,306.7855464274261,0.000715330743159102,24.383963104068066,-0.04241258962199446,-8.343248197205673e-06,0.0017393623715027454,1.5708833174744938
15.817936126000006,15.034999999999997,0.0749091248961706,5202.328545446285,306.76303401255456,0.0007021960773137215,24.383965829364072,-0.04081592011795906,-8.186396323888854e-06,0.0016738820819712293,1.5708838561377314
15.988335437000018,15.205000000000013,0.07529785091714356,5215.928533920469,306.7407296565609,0.0006888391498331567,24.383969486180014,-0.038569710285512544,-8.026974604823361e-06,0.0015817637927167838,1.570884403917
16.234499002000007,15.437000000000012,0.07581642350600609,5234.488524616506,306.71258674724504,0.0006710330350392708,24.383975484045003,-0.03457084343667035,-7.814647784740926e-06,0.0014177681077658444,1.5708851341623402
16.411526320999997,15.602000000000004,0.07617705884813286,5247.688522742189,306.6945775803108,0.0006586574539207257,24.38398014071505,-0.03111371711987742,-7.667347685368507e-06,0.0012759895202804233,1.5708856416967694
16.58069503600001,15.77000000000001,0.07653743018043974,5261.128524909325,306.67826528369227,0.0006462958698896207,24.38398492508306,-0.027106376241060718,-7.520487066341896e-06,0.001111646369999901,1.5708861486571155
16.783349471999998,15.959000000000003,0.07693473640999023,5276.248532163164,306.662704011355,0.0006326771011387622,24.38399003492515,-0.022035798138640223,-7.3590820237996085e-06,0.0009036993431027248,1.5708867071754036
16.98769035800001,16.15299999999999,0.07733386718108058,5291.768544432339,306.65014030674314,0.0006190012768258346,24.383994565130234,-0.016268513928699678,-7.197477085109463e-06,0.0006671800827581179,1.570887268032732
17.157350690000015,16.310000000000002,0.07765053420054976,5304.328557486333,306.64275237152697,0.0006081559259366002,24.38399741518499,-0.011210994951575858,-7.069637558334451e-06,0.000459768685188455,1.5708877128090006
17.36177626600002,16.5,0.07802635796176594,5319.5285762340045,306.63739399309145,0.0005952886460542179,24.383999546505443,-0.004664939824521598,-6.918380772484613e-06,0.0001913116972122876,1.5708882405047624
17.531839622999996,16.668000000000006,0.07835206348596707,5332.968594653314,306.6361236251042,0.0005841383747593757,24.38399994839648,0.0014749216288320764,-6.7876548498820775e-06,-6.048707427371706e-05,1.5708886977833583
17.700498702000004,16.830000000000013,0.07866033989162967,5345.928613186478,306.6381753873154,0.0005735884222948648,24.38399878176826,0.007686464189690948,-6.664267018801274e-06,-0.00031522552885985855,1.5708891304410513
17.869744243000014,16.989000000000004,0.07895748560344086,5358.6486311867075,306.64345628303477,0.0005634201659357967,24.383995956466215,0.014031308160127274,-6.545583583638662e-06,-0.0005754307626959099,1.570889547443665
18.039147677000017,17.158000000000015,0.07926757776063657,5372.168649031882,306.6527317817863,0.0005528119004512236,24.38399093441765,0.021019149559344474,-6.422020914534075e-06,-0.0008620056913270452,1.5708899824893312
18.243370448000007,17.352000000000004,0.07961632965204525,5387.6886662252555,306.66823732659464,0.0005408825829777281,24.383982373805644,0.029313843021876812,-6.283314246059297e-06,-0.0012021753822587975,1.5708904717089909
18.41142270100002,17.504999999999995,0.07988603684891467,5399.928675987774,306.68424628155117,0.0005316592694537108,24.3839733662385,0.03603598092127248,-6.176302641388653e-06,-0.0014778538531785366,1.5708908499539023
18.648732077000005,17.741000000000014,0.08029312193071093,5418.8086818558895,306.71558763244803,0.0005177346771263763,24.38395535666883,0.04665721748690607,-6.015006475934501e-06,-0.0019134366848826692,1.5708914209933271
18.826924112,17.906000000000006,0.08057137697505519,5432.008677361572,306.7424326562177,0.0005082178298497545,24.383939678168023,0.05423571875589877,-5.904914773724103e-06,-0.0022242354642383927,1.5708918112712986
19.000955421000015,18.069000000000017,0.08084123313431152,5445.0486643392005,306.7730041866506,0.0004989884378969023,24.38392163541592,0.06181770715132122,-5.798255188781204e-06,-0.0025351774684655537,1.5708921897590644
19.171033636999994,18.239000000000004,0.08111747615414869,5458.648640159376,306.8092102420374,0.0004895388374182445,24.38390009106077,0.0698004980623768,-5.68911026481114e-06,-0.0028625568964601032,1.5708925772754048
19.424256170000007,18.467000000000013,0.0814797437475458,5476.888587803837,306.86480843261427,0.00047714734043803717,24.383866830343443,0.0805864282563509,-5.546079138040247e-06,-0.0033048953778804626,1.570893085432273
19.627316073000003,18.665999999999997,0.08178844067088155,5492.808520760993,306.91993175455957,0.00046658792483854757,24.38383378179775,0.09003268277038162,-5.42424983044256e-06,-0.0036922933593956015,1.5708935184556088
19.79768385700001,18.823000000000008,0.08202714055670841,5505.368452001375,306.9677879998084,0.0004584236394494136,24.38380514478887,0.09748051511808511,-5.330078360309534e-06,-0.003997734937680323,1.5708938532572312
20.000697204999994,19.013000000000005,0.08231043815995802,5520.568348293196,307.03082329313054,0.0004487328654749838,24.383767587373686,0.10646146531000474,-5.21831354784461e-06,-0.004366051407818588,1.5708942506555406
20.205039454,19.215000000000003,0.0826050859711828,5536.728211366213,307.1039410717053,0.0004386503782865802,24.383724355139332,0.11594127903749295,-5.102051368863068e-06,-0.004754827343855607,1.5708946641154198
20.408429223000013,19.406000000000006,0.08287757671392343,5552.008054396502,307.1788519455867,0.000429327393112578,24.3836805830896,0.12480800275209027,-4.9945050773899976e-06,-0.00511846054106237,1.5708950464284113
20.582208648999995,19.568000000000012,0.08310415291045474,5564.967899037128,307.2467212903808,0.0004215742038394201,24.383641434010762,0.13223554697265763,-4.905074320173956e-06,-0.00542307206902068,1.5708953643669805
20.785326980000008,19.768,0.08337825193876405,5580.96767758951,307.3359106516631,0.000412192606991441,24.383590796278046,0.1412646798613166,-4.796794348155911e-06,-0.005793367141391442,1.5708957490815032
21.02224618400001,19.985000000000014,0.08366872726488728,5598.327398212933,307.4393509701052,0.0004022509675059218,24.38353336675865,0.15085221369485852,-4.681988347222549e-06,-0.006186563747373412,1.57089615676109
21.19149662800001,20.15299999999999,0.08388881516803187,5611.767153103102,307.5240581252793,0.00039471826094598705,24.38348740352522,0.15810719888426672,-4.594968463031059e-06,-0.006484100284660661,1.5708964656565438
21.395839077000005,20.345,0.08413528344471198,5627.126840914462,307.62573356943756,0.00038628166343411145,24.38343358968051,0.16619936354109782,-4.497430655414599e-06,-0.006815971338427802,1.5708968116179305
21.565775618000004,20.503000000000014,0.08433414704050193,5639.7665578583565,307.71319316236594,0.0003794742888930174,24.38338851182622,0.17268623962188148,-4.418712477491751e-06,-0.007082007790832638,1.570897090769473
21.735402163999993,20.671999999999997,0.08454299838415982,5653.286228698782,307.8104059552097,0.0003723231055820645,24.38333971362411,0.17944434064999848,-4.335963866293997e-06,-0.007359168116215691,1.5708973840198668
21.94568855,20.872000000000014,0.08478507461865327,5669.285803254781,307.93023329439796,0.0003640340292795283,24.383281545115402,0.1871816207017458,-4.239991782981909e-06,-0.007676486805590747,1.5708977239326136
22.15389956300001,21.067000000000007,0.08501589888691533,5684.885350719574,308.05188806979373,0.00035613041153859353,24.383224761666586,0.19443789557417648,-4.1484178505345906e-06,-0.007974079377173773,1.5708980480394603
22.324392437,21.23400000000001,0.08520960016855239,5698.244933682119,308.15970330012493,0.0003494972562623524,24.38317633641332,0.2004186249821577,-4.071521362035354e-06,-0.008219360120117885,1.5708983200486524
22.527246183000017,21.42500000000001,0.08542670705290081,5713.52442337218,308.286975298877,0.0003420634586745122,24.383121520742847,0.20698016256296917,-3.985289223578005e-06,-0.008488461447484996,1.5708986248911632
22.69757538600001,21.581999999999994,0.08560170071832014,5726.083977599003,308.394624550137,0.0003360719136836736,24.383077126383732,0.2121455535557538,-3.915784451688141e-06,-0.00870030453903496,1.5708988705911726
22.900986335,21.77600000000001,0.08581371572387532,5741.603394630307,308.53124260523555,0.00032881047530001995,24.38302331347591,0.21824295267042634,-3.831504484933726e-06,-0.008950371665642606,1.570899168367896
23.10601781700001,21.967000000000013,0.08601796994956416,5756.882786555497,308.66946222503844,0.00032181642760894836,24.382971824786587,0.2239216115388273,-3.750282305589952e-06,-0.009183265879738346,1.5708994551809021
23.274169469000014,22.129999999999995,0.08618884618213518,5769.922241662886,308.79017281260275,0.00031596545473717817,24.38292923687969,0.22851198983981455,-3.682322592694119e-06,-0.009371527692403412,1.5708996951197054
23.443032511000013,22.286,0.08634946463632022,5782.401698359323,308.9079615034457,0.0003104646580546741,24.382889784930928,0.23268356095780135,-3.618410625719162e-06,-0.009542613562800192,1.5708999206994283
23.61256013000002,22.454000000000008,0.0865193316737861,5795.841090408128,309.03713234914517,0.00030464780996411093,24.38284889539909,0.23692963373634346,-3.5508150283727655e-06,-0.00971675520673382,1.5709001592411818
23.782030407000008,22.613,0.0866771544718505,5808.560493803724,309.1614989861788,0.0002992432778726275,24.38281185868149,0.2407109773417016,-3.487986282462699e-06,-0.009871837439768974,1.5709003808755628
23.952381091000007,22.772999999999996,0.0868331451096919,5821.359873601494,309.2885916680636,0.00029390003424906933,24.382776295207886,0.2442868221770918,-3.425861159930404e-06,-0.010018491880425117,1.5709005999977488
24.158432196999996,22.967000000000013,0.08701855328405282,5836.8790962191515,309.4451322377876,0.00028755068850395423,24.382735703047885,0.24830536169597447,-3.3519971099552595e-06,-0.010183302606985847,1.5709008603810228
24.360822823999996,23.168000000000006,0.08720643777407604,5852.958263309191,309.6099173715633,0.000281116086796036,24.382696662766705,0.25210984212836846,-3.2771259792806434e-06,-0.010339334470725778,1.5709011242624742
24.529881361000008,23.325000000000017,0.08735025026609927,5865.517594453418,309.7403272108298,0.0002761912920006577,24.38266843749366,0.2548250203316989,-3.2198033812998284e-06,-0.010450691306725336,1.570901326228451
24.733509569000006,23.51600000000002,0.08752181890255219,5880.796760919148,309.900791678795,0.0002703159361319299,24.38263683503567,0.2578311418529224,-3.1514044528298395e-06,-0.010573980670608763,1.5709015671785178
24.937921786999993,23.72,0.08770105263629933,5897.1158487081975,310.0741552814643,0.0002641764100758279,24.382606423988626,0.2606912025705551,-3.0799192898135158e-06,-0.01069127982679869,1.57090181896411
25.141301697000017,23.911,0.08786515708286119,5912.39497594961,310.2381265222815,0.0002585565514166528,24.38258125088403,0.26303512542102736,-3.01445419087539e-06,-0.01078741082395208,1.5709020494395438
25.310846025000018,24.069999999999993,0.08799910117586693,5925.114237187833,310.37569437052065,0.0002539695691282538,24.382562709420142,0.2647482893465234,-2.9610243390567406e-06,-0.0108576726526815,1.5709022375570028
25.479216573000002,24.23600000000002,0.08813641532448753,5938.393455422888,310.5202226316069,0.00024926607375723876,24.382545656387904,0.266314197977491,-2.906222996917357e-06,-0.010921895161844225,1.5709024304539168
25.648732757999994,24.39500000000001,0.08826554750204368,5951.112697709279,310.65941337850137,0.00024484419390549575,24.382531606545125,0.2675974512172502,-2.8546997743474353e-06,-0.01097452517795504,1.5709026118024474
25.81731545400001,24.552999999999997,0.0883915964861977,5963.751937317179,310.79835222325437,0.00024052769741409374,24.38251979192489,0.26867180454124556,-2.804383670137483e-06,-0.011018587614182987,1.5709027888300042
26.021335023999995,24.75400000000002,0.08854875583495911,5979.830961069753,310.9758365563887,0.00023514461381337208,24.382507771329745,0.2697604970525863,-2.7416531684910427e-06,-0.011063238166566047,1.570903009601598
26.190014426999994,24.909999999999997,0.0886682905001545,5992.310197773815,311.1140344081212,0.0002310513145132807,24.382500798820363,0.2703899816157856,-2.6939324792842184e-06,-0.011089055232166542,1.5709031774774096
26.39422311300001,25.099999999999994,0.08881107296937127,6007.509263198725,311.28273056663477,0.0002261617192402187,24.382494961415862,0.27091586405944384,-2.6369335012819925e-06,-0.01111062326925523,1.5709033780122619
26.596346646,25.28800000000001,0.08894937586287265,6022.548334821715,311.44991068102297,0.0002214247673846528,24.38249195982687,0.27118587715369236,-2.5817099015778946e-06,-0.011121697332283608,1.570903572287896
26.799974424,25.47800000000001,0.08908621061122128,6037.747394648658,311.6189751906946,0.0002167388967209177,24.382491662703867,0.27121259413847115,-2.5270739756683785e-06,-0.011122793083517412,1.5709037644695685
26.970093356000007,25.64700000000002,0.08920549703873963,6051.266558141686,311.76932252284706,0.00021265390020257517,24.382493587307675,0.27103951685545885,-2.4794467414931925e-06,-0.011115694664269548,1.570903932008367
27.142306437000002,25.805000000000007,0.08931497258008823,6063.905776929959,311.90976365852566,0.00020890478050330133,24.382497185934067,0.27071559669646345,-2.43571996080483e-06,-0.011102409722339394,1.5709040857724015
27.34873147000002,26.001000000000005,0.08944810681355357,6079.584810350559,312.08369912787555,0.0002043450740224277,24.382503919096887,0.270108484661873,-2.382539467500144e-06,-0.011077510229813457,1.5709042727820806
27.552305765,26.201999999999998,0.08958162454978975,6095.6638235924,312.26160653308733,0.00019977159132133563,24.382513279785233,0.26926217930968616,-2.329186513981767e-06,-0.011042800708115082,1.5709044603575435
27.788328489999998,26.42500000000001,0.08972625270436707,6113.502736136605,312.458255614854,0.0001948186002094615,24.3825264176607,0.2680698680236972,-2.271387774710673e-06,-0.010993900465309916,1.5709046634988726
27.99161983000002,26.61500000000001,0.08984664437325063,6128.701817181011,312.6250621712389,0.00019069569911817096,24.382539689140543,0.26686002162163486,-2.2232838149887817e-06,-0.010944281080630244,1.5709048325955803
28.161786344000006,26.771000000000015,0.08994358492492323,6141.181068767804,312.7614284734376,0.00018737515782086257,24.382551881125483,0.26574372830453225,-2.184542102055335e-06,-0.010898498608532342,1.5709049687846355
28.329998152,26.937000000000012,0.09004489355119184,6154.460279113132,312.9058862690092,0.00018390608263819336,24.382566065224445,0.26443910672013315,-2.1440603686229577e-06,-0.010844992268027083,1.5709051110659777
28.540242699999993,27.13500000000002,0.09016328024883707,6170.299347271662,313.0772264282255,0.00017985126565643473,24.382584430920232,0.26274024571618393,-2.09674355670224e-06,-0.010775317063925288,1.570905277371382
28.72105001600002,27.305000000000007,0.09026284563880338,6183.8985566234605,313.2234313532076,0.0001764406318526988,24.382601333392568,0.2611669690634782,-2.056935593697648e-06,-0.010710792483477814,1.570905417256314
28.931178313999993,27.5,0.09037472132855986,6199.497661284402,313.390021928555,0.000172608894698562,24.38262188706135,0.2592409744270848,-2.0121993432915625e-06,-0.01063180198868276,1.5709055744127496
29.134359898000014,27.700999999999993,0.09048750294360905,6215.576752068293,313.5604189970275,0.00016874587685071632,24.382644185250005,0.2571351921419817,-1.9670946347255663e-06,-0.01054543796852956,1.5709057328523235
29.30464937000002,27.860000000000014,0.09057492094921323,6228.296050143218,313.6941910977445,0.00016575231623802624,24.38263887920333,0.25763784447703114,-1.9326620867473618e-06,-0.010566052786992075,1.570905855625086
29.543392341000015,28.087000000000018,0.09069704985450873,6246.455031446078,313.88996674907406,0.00016156941977133328,24.382506863831477,0.26984256359098946,-1.8853991361552688e-06,-0.011066603723367199,1.5709060271414568
29.74703662600001,28.28,0.09079845652862242,6261.894086708371,314.0632576756772,0.00015809325135937398,24.382402914300897,0.2790772289463397,-1.8459185706129774e-06,-0.011445345979509206,1.5709061696819462
29.916276763000013,28.444999999999993,0.09088342172916881,6275.093225967269,314.2158469063375,0.00015518028177896758,24.382321130321728,0.2861333147402689,-1.812599016601668e-06,-0.011734739036964635,1.57090628913076
30.119075226999996,28.637,0.09098031721193457,6290.452167764302,314.39799707263654,0.00015185688604989742,24.382234741551308,0.29340242815542295,-1.7743618680462923e-06,-0.012032870083184674,1.5709064254121958
30.327633667000015,28.837000000000018,0.09107904912391261,6306.451007326992,314.59231818509573,0.00014846905116064574,24.38215536883324,0.29992590427171356,-1.7351569150173394e-06,-0.012300420922968838,1.5709065643392321
30.50125648400001,29.001000000000005,0.09115836143959087,6319.570016413222,314.7546774198084,0.00014574748286629526,24.382098919779025,0.3044802865338128,-1.7035104780781576e-06,-0.012487212779357729,1.5709066759467114
30.671273954000014,29.170000000000016,0.09123857496092892,6333.088963180264,314.9243889853492,0.00014299439495759876,24.38204896487552,0.3084546222452993,-1.6713841569806453e-06,-0.012650215166494618,1.5709067888490087
30.909085782000005,29.393,0.09134209619194199,6350.927531181953,315.15140238816963,0.00013944231209906083,24.38199639151899,0.3125827003053264,-1.6297864269917008e-06,-0.012819523464042287,1.570906934521025
31.112066792999997,29.583,0.09142826562005095,6366.126281050762,315.34694553579817,0.0001364858265036598,24.381963408033922,0.3151449677303993,-1.5950657872873187e-06,-0.012924612058753487,1.5709070557703664
31.281870622000014,29.75200000000001,0.09150338195944353,6379.64515181847,315.52205054479117,0.00013390825447342935,24.381942963527838,0.316722757885385,-1.5647389909091285e-06,-0.012989323472133217,1.5709071614821066
31.451736221000004,29.911,0.09157275272983259,6392.364078819265,315.68746978601337,0.00013152876722434206,24.381931502596554,0.317603818315337,-1.5367026984859558e-06,-0.01302545927506427,1.5709072590717639
31.621989197999994,30.070999999999998,0.09164131580471517,6405.162992816432,315.8542805532078,0.00012917721434814276,24.381927223893374,0.31793211869659255,-1.5089782394861883e-06,-0.013038924198837815,1.5709073555173731
31.792385157000012,30.239000000000004,0.09171199245279558,6418.601849951384,316.02949563274814,0.00012675301906907166,24.381930210839705,0.31770297086112836,-1.4803738395969923e-06,-0.01302952595180925,1.5709074549439206
32.00690152600001,30.441000000000003,0.09179521933488886,6434.760478194891,316.23981075139636,0.0001238989858562732,24.38194366365886,0.3166688599055045,-1.4466825481865697e-06,-0.012987112978148514,1.5709075720019872
32.244855005999995,30.664999999999992,0.09188531406613162,6452.678968295003,316.4719490914266,0.00012081064545132739,24.38197050803127,0.314595185781254,-1.4102180580919047e-06,-0.012902063464632336,1.5709076986725066
32.448436834999995,30.852000000000004,0.09195880242080526,6467.637723207257,316.66438593440114,0.00011829227779876942,24.38200175286738,0.3121642343335408,-1.3804900989588375e-06,-0.012802360716339991,1.5709078019668352
32.61768174100001,31.00800000000001,0.09201893487323494,6480.11669904191,316.8236806635557,0.00011623206003065956,24.38203346163519,0.30967767470437346,-1.356189035445898e-06,-0.012700377388314655,1.5709078864705186
32.786938991,31.176000000000016,0.09208252927983068,6493.555613932026,316.9937230036576,0.00011405288005184361,24.38207273769491,0.30656973230338075,-1.3304982506218401e-06,-0.012572908956996537,1.5709079758545208
32.96042219899999,31.339,0.09214308843580984,6506.594581631718,317.1569747363278,0.00011197828549611684,24.38211564853021,0.3031377396132889,-1.3060544094955378e-06,-0.01243215023658724,1.570908060949487
33.167353147,31.533999999999992,0.09221409106886987,6522.1933766677375,317.3497426470882,0.00010954621249344586,24.382172461657262,0.2985331439244499,-1.2774150260783579e-06,-0.01224329911166279,1.5709081607081925
33.370679439000014,31.73400000000001,0.09228531504133818,6538.192178409734,317.5442571544128,0.000107106550653194,24.38223609310093,0.2932901103572277,-1.2487136017868592e-06,-0.012028263868694856,1.5709082607789062
33.574297559,31.92500000000001,0.09235184916917445,6553.471072945564,317.72667666357677,0.00010482834831363443,24.382301256312218,0.28782188149112553,-1.2219221428815035e-06,-0.011803993164600195,1.570908354227371
33.77782276100001,32.120000000000005,0.0924183185163349,6569.069986104785,317.9092766139429,0.0001025523699923288,24.3823713210616,0.281823972321392,-1.1951908726372287e-06,-0.011557999146279738,1.5709084475849675
33.94701768500002,32.275000000000006,0.0924701184923528,6581.469153934106,318.05161273399614,0.00010077860727538347,24.382429066102066,0.27678299507661336,-1.1743699969204512e-06,-0.011351252600194003,1.5709085203425102
34.11687459500001,32.44,0.09252428098371418,6594.668299808099,318.20027607904814,9.892451415960705e-05,24.382492109801788,0.2711724648380217,-1.1526125353723299e-06,-0.011121147438213214,1.5709085963951837
34.289019214999996,32.601,0.09257616797231719,6607.547498935368,318.34235710850305,9.714820181798122e-05,24.38255474292771,0.2654810703495611,-1.1317921370385532e-06,-0.010887726384784104,1.5709086692573797
34.492697112,32.791,0.09263620358232587,6622.746595857193,318.50610408619707,9.509253688447356e-05,24.38262953485617,0.2585207089102237,-1.1077067439537646e-06,-0.010602262018444953,1.5709087535781852
34.695832353000014,32.982,0.09269527458059951,6638.025734472327,318.6662748733124,9.307055956604071e-05,24.38270517445077,0.2512854296753454,-1.084024988679778e-06,-0.01030552339930135,1.5709088365169865
34.898187698000015,33.184,0.09275638634782393,6654.184874192845,318.83069680156103,9.09785132517789e-05,24.38278497814707,0.24341877739172255,-1.0595454293980334e-06,-0.009982891469605341,1.5709089223296187
35.204391731000015,33.46800000000002,0.09283998244570023,6676.903753067205,319.05290551484626,8.81166634038116e-05,24.382895743409215,0.23205852341847602,-1.0260689218339813e-06,-0.009516979645491428,1.5709090397177752
35.44102972800002,33.70099999999999,0.09290660348272697,6695.542908892194,319.22725116642056,8.583602252828068e-05,24.38298442117615,0.22254597127813056,-9.994106037057272e-07,-0.009126848188143522,1.570909133265035
35.611049244000014,33.859999999999985,0.09295107075420352,6708.262371277665,319.3420227676008,8.431379713907841e-05,24.38304340067696,0.21598729965568722,-9.816116879739225e-07,-0.008857862919383667,1.5709091957032224
35.78082927900002,34.019000000000034,0.09299474940828888,6720.981864038171,319.4533654891016,8.281857601840732e-05,24.383100905772736,0.20939487114983618,-9.64149468972955e-07,-0.008587493853277306,1.5709092570334033
35.94889224900001,34.18500000000003,0.09303952701731247,6734.261365975039,319.56594667521057,8.128536384288828e-05,24.38315918487389,0.2024948357633693,-9.462313950606429e-07,-0.008304509867129235,1.5709093199214865
36.15142011200001,34.373999999999995,0.0930894967917041,6749.380837134683,319.6895335590729,7.957471010606819e-05,24.38322314693762,0.19464059271337944,-9.262550792604846e-07,-0.007982392760313742,1.5709093900872304
36.35872547700001,34.56800000000001,0.09313969719272547,6764.900334833278,319.8113413131492,7.78559571040988e-05,24.38328594922954,0.18660737408329245,-9.061871853238977e-07,-0.007652936388060522,1.570909460584619
36.56195186900001,34.769000000000034,0.09319056787125975,6780.9798558133725,319.9321767611752,7.611394800673851e-05,24.38334779267389,0.17834353290854954,-8.858436981435175e-07,-0.007314022646806979,1.570909532035291
36.763775924000015,34.95700000000002,0.09323711371935824,6796.019444293563,320.04026418378595,7.452041926240963e-05,24.383402529467503,0.17069587113498813,-8.672485178711164e-07,-0.007000380186623494,1.570909597395309
36.932431261000005,35.11300000000003,0.09327499557864367,6808.4991281996345,320.1263854304179,7.32234906095126e-05,24.383445617141017,0.16442576009707283,-8.521040945651226e-07,-0.006743233731420135,1.5709096505896105
37.13625062700001,35.304,0.09332048136805451,6823.778770817506,320.22749143271005,7.166606405436152e-05,24.38349545834878,0.15686053540597905,-8.339375474209017e-07,-0.00643297335611379,1.5709097144679112
37.343444933,35.50000000000003,0.09336615375452705,6839.458436080787,320.3263604302843,7.010205122466958e-05,24.383543259606782,0.14924510709019997,-8.15681902077577e-07,-0.006120654685133066,1.5709097786158215
37.581148273,35.73600000000002,0.09341982912051323,6858.338073058704,320.4389901662615,6.826374892580048e-05,24.383596351152732,0.1403031696429957,-7.942439209718053e-07,-0.005753934899522841,1.5709098540130242
37.784292824999994,35.926000000000016,0.09346201393937269,6873.537810426297,320.5246719689941,6.681923986498542e-05,24.383635586097334,0.13331016451979658,-7.773841732992514e-07,-0.00546714375196153,1.570909913258452
37.953942692,36.08400000000003,0.09349641362236988,6886.177610592982,320.5926372398382,6.564135106927332e-05,24.38366589473385,0.1276461112063605,-7.636535038540411e-07,-0.00523485477014842,1.5709099615683277
38.156713233999994,36.27400000000003,0.09353697804610146,6901.377391035876,320.67052339148324,6.425204445031495e-05,24.38369964698166,0.1210269460900797,-7.474440057050911e-07,-0.004963395971521992,1.570910018548914
38.32586852,36.43899999999999,0.09357150965309399,6914.577217423192,320.7348631359603,6.30696424088537e-05,24.383726632030662,0.11546224683208299,-7.336673953059437e-07,-0.004735182190882451,1.5709100670432716
38.49801508500002,36.599999999999994,0.09360459021676056,6927.457062229951,320.7947682494786,6.193682096660503e-05,24.38375096796527,0.11020312354715957,-7.204599499075314e-07,-0.004519500607214798,1.5709101135039008
38.668091583999995,36.769000000000034,0.09363867820867612,6940.97691322352,320.85471346018153,6.076923276313598e-05,24.38377449385148,0.10486862890108295,-7.068513345616438e-07,-0.004300728187504862,1.5709101613901695
38.871674063,36.96000000000001,0.09367642782100148,6956.256760737622,320.91894663181563,5.947649670676857e-05,24.383798682510307,0.09908484896255189,-6.917903014053566e-07,-0.004063530405849441,1.5709102144088305
39.04116423900001,37.11800000000002,0.0937070473598843,6968.896646262292,320.9693851127842,5.842799072649943e-05,24.383816878763433,0.0945008970338584,-6.795675308381729e-07,-0.003875538763849951,1.5709102574107272
39.21101151900001,37.27599999999998,0.09373712680729651,6981.536541462961,321.01748251770897,5.739769997363342e-05,24.383833538397013,0.09009976954769096,-6.67577116867003e-07,-0.0036950450308882994,1.570910299665391
39.345884883,37.40900000000002,0.09376203704492753,6992.176460162042,321.05623402725155,5.654470791138139e-05,24.383846419498855,0.08654355618987374,-6.576426302480251e-07,-0.0035492019858334007,1.5709103346484852
39.54969613900002,37.60100000000003,0.09379734444292588,7007.5363530714785,321.10948483448936,5.5335564687736496e-05,24.383863299081323,0.08164930296553871,-6.435616671151228e-07,-0.003348485018542154,1.5709103842379357
39.75379302000002,37.792,0.09383171858577795,7022.816257460789,321.159470432449,5.415815045015179e-05,24.38387822277431,0.0770637009356964,-6.298647641680509e-07,-0.0031604261880403203,1.5709104325259118
39.924018210000014,37.958,0.09386100042599758,7036.096182331469,321.2006389574079,5.315544083952756e-05,24.38388978202343,0.0733150416322854,-6.181942962924123e-07,-0.003006691063121574,1.570910473648772
40.126422168999994,38.147999999999996,0.09389384901784828,7051.296104543863,321.2453105151116,5.203051163000902e-05,24.383901542726637,0.06929323147952102,-6.051099056815503e-07,-0.0028417539098104035,1.5709105197839184
40.294971059000005,38.30499999999998,0.09392046678426985,7063.856046219186,321.28037682008767,5.1118952034656426e-05,24.383910170239254,0.06618766586443721,-5.945100399065265e-07,-0.002714392617057264,1.570910557168325
40.50333909700001,38.501000000000005,0.09395304450018693,7079.5359801478735,321.3219800545377,5.000314642813584e-05,24.383919683581556,0.06258483974905799,-5.815323367320651e-07,-0.0025666383979971044,1.5709106029290387
40.672983267000006,38.66999999999999,0.09398056459519721,7093.055928568541,321.3560539966112,4.906042069147142e-05,24.383926864124536,0.059721709968788984,-5.705739757275938e-07,-0.0024492196415279465,1.5709106415914116
40.88081534600002,38.871999999999986,0.09401277832941642,7109.215872749894,321.3947728913272,4.795690542782221e-05,24.383934317055584,0.05659698968487955,-5.577474732338928e-07,-0.0023210729314732757,1.5709106868478606
41.05708799300001,39.03400000000002,0.09403808711877733,7122.175832083168,321.4243768205708,4.709003878333063e-05,24.38393948407068,0.054325270217253564,-5.476665167480005e-07,-0.0022279083355773764,1.5709107223989993
41.227542201000006,39.198999999999984,0.0940633951523098,7135.3757939706165,321.45333359485454,4.6223160139473365e-05,24.383944082562095,0.052220459307287526,-5.375922710435094e-07,-0.0021415887778446227,1.570910757950571
41.39676375600001,39.357,0.09408719176944318,7148.015760290522,321.48003180750175,4.5408151484221105e-05,24.383947907351644,0.050402872154236424,-5.2812100928883e-07,-0.002067048450888641,1.5709107913748517
41.60009127500001,39.551000000000016,0.09411583797169049,7163.5357222509365,321.5115875936809,4.44269714967639e-05,24.383951909292538,0.04842812568746572,-5.167213058931591e-07,-0.0019860629395711204,1.5709108316139178
41.804459358,39.753000000000014,0.09414500931454027,7179.695686030097,321.54319069525735,4.342761714628254e-05,24.38395534607888,0.04666560368431108,-5.051165618277534e-07,-0.0019137808880543051,1.5709108725982706
41.97470247300001,39.91299999999998,0.09416764731206698,7192.495659492943,321.56743956779303,4.265225146900866e-05,24.383957580989463,0.045482817734382903,-4.961129039801756e-07,-0.0018652741538550614,1.5709109043966225
42.178131425000004,40.10299999999998,0.09419400491477617,7207.695630095129,321.59548334288417,4.174945930658756e-05,24.383959733998907,0.04431353066026199,-4.856300793752368e-07,-0.0018173210195317907,1.5709109414207956
42.415090461000005,40.33200000000002,0.09422503378806044,7226.015597236203,321.62841345594535,4.068656768186609e-05,24.38396167545574,0.04323202831846614,-4.7329202806633827e-07,-0.0017729679896444684,1.5709109850107166
42.584055129000006,40.486999999999995,0.09424558486524745,7238.415576333381,321.65028711914334,3.9982545527378205e-05,24.38396261609009,0.04269819134930993,-4.6512079428813186e-07,-0.0017510750297118143,1.5709110138831253
42.786439185999996,40.68899999999999,0.09427183802794592,7254.575550399001,321.67844598084815,3.9083273579369484e-05,24.38396342498225,0.042233726113344305,-4.54684696960161e-07,-0.0017320270435570208,1.5709110507628268
42.95551062300001,40.847999999999985,0.09429208519043462,7267.295530833083,321.7004332164839,3.838975556737571e-05,24.383963747494487,0.04204710955613273,-4.466351206102828e-07,-0.0017243737890433426,1.5709110792044099
43.12473292300001,41.00800000000001,0.09431209710581298,7280.095511718314,321.7224911824086,3.77042488376379e-05,24.383963809639774,0.04201105542111098,-4.3868289945211034e-07,-0.0017228951838931129,1.570911107317429
43.328029257,41.208,0.09433661139521114,7296.095488397673,321.7500878484238,3.686432514741021e-05,24.38396353565922,0.04216977951735442,-4.2893756999272505e-07,-0.0017294045420175098,1.5709111417631527
43.50448964,41.37300000000002,0.09435642380329952,7309.295469457306,321.7729722014474,3.618557081521147e-05,24.383963019680056,0.04246708829485351,-4.2106166592313604e-07,-0.0017415973370604066,1.5709111695992173
43.676105172999996,41.535,0.09437552044199526,7322.255450956886,321.79562629456035,3.553134203948052e-05,24.383962265420145,0.042897987438136435,-4.134697631368791e-07,-0.0017592687485638548,1.5709111964294615
43.845331130000005,41.703,0.09439496087314467,7335.695431708441,321.81938976816747,3.4865225653025e-05,24.3839612316039,0.04348165642084384,-4.057406690378618e-07,-0.0017832053378955787,1.5709112237472087
44.049931052000005,41.89599999999999,0.09441684358279501,7351.135409315015,321.8471286320522,3.411553850677006e-05,24.38395972443632,0.04431879879250747,-3.970393069969272e-07,-0.0018175370150481528,1.5709112544922152
44.21895191300001,42.054,0.09443440679854666,7363.7753905913105,321.87025964551697,3.3513857721203906e-05,24.38395823948747,0.04512841489666092,-3.9005503472230854e-07,-0.0018507398274887298,1.5709112791674018
44.387474607,42.21900000000002,0.09445241838314007,7376.975370503179,321.8948856186955,3.2896712315996936e-05,24.383956450910144,0.04608469440862975,-3.8289599338783224e-07,-0.0018899573922485959,1.5709113044767873
44.59262864500002,42.412000000000006,0.09447306548658327,7392.41534611341,321.92438211257075,3.218932909833896e-05,24.38395404535067,0.047340397273174045,-3.7468742760565335e-07,-0.001941454483622662,1.5709113334868476
44.76258106100002,42.57000000000002,0.09448963707125464,7405.05532526532,321.9491445784533,3.162159517534919e-05,24.383951824814126,0.048470652635527765,-3.680971856289873e-07,-0.001987806906227448,1.5709113567698252
44.93190123900001,42.73600000000002,0.09450673390088982,7418.3353023483,321.97580895604403,3.1035732580761736e-05,24.38394925119634,0.049748508926441,-3.6129655624947787e-07,-0.0020402125334007433,1.570911380796256
45.100757184,42.892000000000024,0.09452251078234475,7430.815292794912,322.0017360698721,3.049584704395608e-05,24.383936803854628,0.0555152656084917,-3.5514309715297823e-07,-0.0022767102990935103,1.570911402936639
45.270427463999994,43.04999999999998,0.09453821071677913,7443.455289531847,322.0328771022558,2.9959132785337066e-05,24.38390742555786,0.0671912267282507,-3.491538933219044e-07,-0.002755548826939761,1.5709114249461353
45.473859081,43.25199999999998,0.09455788259259854,7459.615259361253,322.0812586038752,2.9285927159296622e-05,24.383864551394456,0.08127446347996083,-3.4158348313368816e-07,-0.003333112098869034,1.5709114525526275
45.67760584000001,43.441,0.09457588617978636,7474.735201512451,322.1347829850518,2.8669501562158376e-05,24.383820523411476,0.09355576549920021,-3.345732600216501e-07,-0.003836777684751175,1.5709114778305662
45.848878974,43.599999999999994,0.09459073823594849,7487.455129234805,322.1855640005197,2.8160702481020268e-05,24.38378150387671,0.10322582249574523,-3.287713674141468e-07,-0.004233354795601589,1.570911498694976
46.087269374000016,43.82599999999999,0.09461139675166284,7505.534987843165,322.2661288851922,2.7452576563201795e-05,24.383724413495518,0.11592983210377737,-3.206701825684093e-07,-0.004754357860042739,1.5709115277331978
46.255315611000015,43.98100000000002,0.09462526327749733,7517.934864115549,322.3266757333952,2.6976980231146846e-05,24.38368502897576,0.12393710904461097,-3.152090410013924e-07,-0.0050827442750936095,1.5709115472360742
46.424203463,44.14900000000003,0.09464002325942962,7531.374705666402,322.3967341426344,2.6470685571094698e-05,24.38364291122917,0.13196354415263553,-3.0937781976592167e-07,-0.005411916934263292,1.570911567997864
46.62728753800002,44.34099999999998,0.0946565516978735,7546.734493898311,322.4820407775721,2.5903505493087783e-05,24.38359626525079,0.14031811215516302,-3.027811352170571e-07,-0.005754547300054636,1.5709115912565106
46.797577725,44.501000000000005,0.09467005457966995,7559.534293357316,322.5570035722824,2.5440069047765383e-05,24.383559187394514,0.1466197606169313,-2.9738398573550664e-07,-0.006012985539669296,1.5709116102609988
47.000620751000014,44.69700000000003,0.09468626700683878,7575.214019437534,322.65314181752285,2.4883498337286193e-05,24.38351661732147,0.153536224425196,-2.9088953662492263e-07,-0.0062966385668587165,1.5709116330848727
47.169285918000014,44.85299999999998,0.09469891620361383,7587.693780462529,322.7327086295538,2.4449287407792338e-05,24.3834854627398,0.15840671633943645,-2.8581223562432585e-07,-0.006496383974207172,1.5709116508911514
47.40626486400001,45.07700000000003,0.09471669471707163,7605.613407877911,322.85105280207915,2.3838884152530972e-05,24.383445422803945,0.16445459128623804,-2.786642554690346e-07,-0.006744415803903796,1.5709116759230164
47.57475304800002,45.24600000000001,0.0947298146231141,7619.133106169537,322.94309236816116,2.3388308605151776e-05,24.383419186900944,0.16829959995881802,-2.733692677041053e-07,-0.006902105216917335,1.5709116944007329
47.779092563999995,45.441,0.09474464437003177,7634.73273875547,323.05175844811725,2.2879083115102758e-05,24.38339356013407,0.17197235565860117,-2.6736733377765333e-07,-0.007052730447853385,1.5709117152838357
47.950858693000015,45.599999999999994,0.0947564965175731,7647.452426070186,323.1419754720562,2.2472156203864375e-05,24.38337646957328,0.1743787331545385,-2.6256794363754116e-07,-0.007151419694946552,1.5709117319718806
48.120302009,45.767000000000024,0.09476871897256817,7660.812087217735,323.23796486153145,2.2052451513976254e-05,24.383362185297482,0.17636479280298678,-2.5761663915112697e-07,-0.007232871115557853,1.5709117491840898
48.35861245000001,45.982,0.09478411727797136,7678.011638483248,323.36293317814767,2.1523809591647838e-05,24.383349507092262,0.17810899624099252,-2.5137590084283534e-07,-0.0073044036805611536,1.570911770864067
48.52779731800001,46.14700000000002,0.094795684828798,7691.211287302217,323.4595281127292,2.1126742973874556e-05,24.38334403294802,0.17885684351924802,-2.466868335747007e-07,-0.007335074107047897,1.5709117871482072
48.69708921700001,46.30600000000001,0.09480662932013993,7703.930945357751,323.55290020204757,2.0751078331377617e-05,24.38334217699303,0.17910968500853544,-2.4224790357553735e-07,-0.007345443556667309,1.5709118025547515
48.904290957,46.501000000000005,0.09481978673524713,7719.530523932898,323.6674479671813,2.0299439327198444e-05,24.38334428981723,0.17882182150789022,-2.369109035311427e-07,-0.0073336378303691125,1.5709118210772643
49.07318135700001,46.66499999999999,0.09483063063396056,7732.650169896339,323.76353019808346,1.9927222570246136e-05,24.38334965297305,0.17808902404131619,-2.3251238967326815e-07,-0.007303584650033536,1.5709118363426497
49.27681613199999,46.85800000000003,0.09484313732051844,7748.089756261667,323.87596284653864,1.9498000679271762e-05,24.383359941543883,0.1766747315122519,-2.27439862497275e-07,-0.007245582289128012,1.5709118539460605
49.446372838,47.019000000000034,0.09485336401828647,7760.969415576415,323.9689714181947,1.9147066904439798e-05,24.38337157377004,0.17506197507854215,-2.2329351368728454e-07,-0.00717944063547872,1.5709118683387824
49.615951085000006,47.18600000000001,0.09486377801716031,7774.32906806044,324.06446602568104,1.8789674793638792e-05,24.383386293830693,0.17299955346418047,-2.1906956079474958e-07,-0.007094857554480887,1.5709118829964541
49.78405796200002,47.34099999999998,0.09487326877778604,7786.728752189352,324.1520113544514,1.846408837113393e-05,24.383402241828605,0.170736969838823,-2.1522054683962936e-07,-0.007002065577401083,1.5709118963497473
49.990088575000016,47.53400000000002,0.09488485723802158,7802.16836954101,324.25931212853874,1.8066522153280292e-05,24.38342475220435,0.16749135286325112,-2.105222154982089e-07,-0.00686895801777135,1.57091191265522
50.15972455900001,47.70200000000003,0.094894741942594,7815.608047427577,324.350962131679,1.772736922840654e-05,24.383446435704442,0.1643043421221399,-2.0651813273865143e-07,-0.006738254103065049,1.5709119265650255
50.329894456999995,47.857,0.09490369615950571,7828.007760348363,324.4338939336847,1.7420268617581424e-05,24.383467988406508,0.1610740763559519,-2.0290219044952618e-07,-0.0066057763530874055,1.5709119391602924
50.532974564,48.047,0.09491446122748823,7843.20742273943,324.53323338466595,1.7051023616756723e-05,24.383496020681,0.15677311365432217,-1.9855439431910835e-07,-0.006429387991359335,1.5709119543043484
50.702518036000015,48.21400000000003,0.09492373523001096,7856.567139794439,324.6182752056569,1.6732884957394408e-05,24.383521829802202,0.15270617309423454,-1.9480819267656515e-07,-0.006262597380241122,1.5709119673523697
50.905825504999996,48.405,0.09493412932572398,7871.846832926737,324.71272108980946,1.637639666047271e-05,24.38355238122667,0.14774732393101678,-1.906071209038617e-07,-0.00605922865160361,1.570911981973261
51.080229961000015,48.56699999999998,0.09494277174547941,7884.806587078654,324.7903426580812,1.607999124534151e-05,24.383578860019945,0.14331077053717706,-1.871137475685087e-07,-0.005877280150145934,1.5709119941299343
51.28429226200001,48.768,0.09495327816861589,7900.886300869666,324.88331544599214,1.571962198539567e-05,24.383612072992843,0.13754371513191183,-1.8286501671519467e-07,-0.005640766416542953,1.570912008909991
51.486597254,48.95599999999999,0.09496289100186038,7915.926052393923,324.96675442434173,1.5390029865824464e-05,24.383643204502743,0.131909344977244,-1.7897880218866574e-07,-0.0054096945649696705,1.570912022427749
51.655871570000016,49.114000000000004,0.09497081392982373,7928.565857908614,325.0341585289252,1.511840150896803e-05,24.383669165704386,0.1270197514979639,-1.7577563663170963e-07,-0.005209167075522852,1.570912033568187
51.85995970800002,49.30199999999999,0.09498005909126124,7943.605643452108,325.11101911673467,1.480144398845019e-05,24.383699565894513,0.12104329803059613,-1.7204764389291832e-07,-0.00496406657152068,1.5709120465677062
52.033227314000015,49.46700000000001,0.09498801400749673,7956.805470125639,325.175423228572,1.4528689421436503e-05,24.383725613222232,0.11567721858988361,-1.6885611895623272e-07,-0.004743998387931506,1.5709120577542812
52.236217667999995,49.66999999999999,0.09499760044445776,7973.045275560014,325.2506466502593,1.4200018385311168e-05,24.38375661663884,0.10894613504421546,-1.650056056257799e-07,-0.004467950369058017,1.5709120712341371
