Real_time_s,Simulation_time_s,x_ft,y_ft,alt_ft,vx_fps,vy_fps,vz_fps,roll_rad,pitch_rad,yaw_rad,adsb_x_ft,adsb_y_ft,adsb_alt_ft
0.0,0.0,-2400.0,6999.999999999999,300.0,80.0,-6.892453777861173e-16,-1.6254105784755304e-11,-2.741731959362479e-19,2.031763223094413e-13,0.0001163267948964819,62341.862132342685,-301058.6908170981,913931.1642992027
0.10234642399998961,0.10199999999997544,-2391.919999999982,7000.000002439024,300.00000000006645,79.99999999999727,2.1051113619144518e-05,1.6721154106884711e-09,2.6153828360383832e-05,-2.0883993922597503e-11,0.0001165892666596946,62341.862132342685,-301058.6908170981,913931.1642992027
0.23789168700000118,0.23599999999999,-2381.679999999959,7000.000005014413,300.0000000005976,79.99999999995428,-8.597523792269216e-05,5.1322883027217974e-09,6.667065020784458e-05,-6.412405943046955e-11,0.00011525166128367736,62341.862132342685,-301058.6908170981,913931.1642992027
0.3417288180000071,0.3310000000000173,-2373.599999999941,6999.999992833287,300.00000000136737,79.99999999951008,-0.0002803515014528844,7.929973085565512e-09,9.391136409713585e-05,-9.909855121131282e-11,0.00011282212307506256,62341.862132342685,-301058.6908170981,913931.1642992027
0.44300859699998796,0.43200000000001637,-2365.4399999999987,6999.999957288667,300.00000000240925,79.99999999802249,-0.0005628855319702369,1.0184616443500796e-08,0.00011486415296097286,-1.2727711236584719e-10,0.00010929045940444304,62341.862132342685,-301058.6908170981,913931.1642992027
0.5449586649999958,0.5339999999999918,-2357.2800000002308,6999.999890251273,300.00000000367186,79.99999999473596,-0.0009181540989337954,1.205260388523946e-08,0.00013259204504913053,-1.5063171400575466e-10,0.00010484967381718668,-2395.3605744310485,7000.2203804342225,287.45303068869856
0.6802377799999988,0.6689999999999827,-2346.4800000012146,6999.99974122953,300.0000000055583,79.99999998636375,-0.0014775383080603021,1.3549024445458163e-08,0.00014977821732091884,-1.693426057089559e-10,9.785743117962653e-05,-2389.760574433656,7000.220272116911,287.45303068834517
0.8171497509999881,0.7969999999999686,-2336.240000003412,6999.999525810318,300.00000000744075,79.99999997300864,-0.0020786076831833347,1.3970893549572548e-08,0.0001604402333462463,-1.7462267682899145e-10,9.034411475683513e-05,-2384.96057443852,7000.220100460962,287.45303068790065
0.9193224770000086,0.8990000000000009,-2328.1600000064955,6999.999300332854,300.00000000890606,79.99999995825794,-0.002584815726399408,1.3672044446060198e-08,0.00016550702390505682,-1.7089308487373916e-10,8.401655317258339e-05,-2379.760574447377,7000.219828579054,287.45303068718715
1.0541901039999857,1.0330000000000155,-2317.520000013078,6999.998923707745,300.00000001070924,79.99999993286656,-0.0032779063088889194,1.2533144368016597e-08,0.00016804940834492133,-1.5666410348235699e-10,7.535296482719112e-05,-2374.101036723742,7000.265205744922,287.12213904565874
1.1553132210000001,1.1329999999999814,-2309.440000020502,6999.998575600726,300.000000011926,79.99999990915126,-0.003813096395556763,1.1215415591394206e-08,0.0001672494852096994,-1.401973401232153e-10,6.86631177082564e-05,-2369.2652329536277,7000.265806452909,287.1150002051695
1.2947778379999875,1.2629999999999768,-2298.960000033948,6999.998043076665,300.0000000132498,79.9999998731965,-0.004504799748392538,9.081555405111355e-09,0.00016317927036741214,-1.1352938179816518e-10,6.0016858921763117e-05,-2364.429429188235,7000.266333903427,287.10786136438736
1.4308880859999817,1.3979999999999677,-2290.880000047667,6999.9975710053795,300.0000000140501,79.99999984202891,-0.005027979360175794,7.22173997627594e-09,0.00015803819906094939,-9.02845061560204e-11,5.347713357051198e-05,-2358.787658135034,7000.266860521543,287.099532716438
1.5328115000000082,1.4989999999999668,-2280.160000070922,6999.9968638702085,300.00000001479344,79.99999979712528,-0.005697878042507367,4.621510900641478e-09,0.00014902970294142245,-5.778433601911935e-11,4.510342297403547e-05,-2351.549658603844,7000.406449209821,286.8062492995519
1.667409488000004,1.632000000000005,-2269.4400001003605,6999.996068541264,300.0000000151709,79.99999974959,-0.006330247394565517,2.0177428964600866e-09,0.00013801014030417387,-2.5238518722503742e-11,3.719882362318572e-05,-2346.989522898748,7000.413167320656,286.7865044915907
1.768702888000007,1.733000000000004,-2261.680000125715,6999.9954406274455,300.00000001522335,79.9999997145052,-0.006759140403902596,1.9850376862072371e-10,0.00012905357015195173,-2.4981119453563325e-12,3.183767004077964e-05,-2342.429387197937,7000.419838736129,286.76675968343784
1.9096411129999922,1.865000000000009,-2253.600000155734,6999.9947437057945,300.0000000150967,79.9999996780337,-0.007177864246932257,-1.5777657635451418e-09,0.00011910907899405133,1.9705627056206785e-11,2.6603629756039027e-05,-2338.283809291675,7000.425866797075,286.7488098576984
2.0104155310000067,1.964999999999975,-2245.520000189432,6999.99400544663,300.0000000147978,79.99999964235215,-0.007565121014501862,-3.2126021683278426e-09,0.00010868173001977857,4.014200681621521e-11,2.1762924879320522e-05,-2328.2065709397484,7000.549703933551,287.28496090870266
2.111516069000004,2.065999999999974,-2234.7200002400173,6999.9929597633745,300.00000001416123,79.99999959690861,-0.00803133266081222,-5.13952319837675e-09,9.430165182070585e-05,6.423025775854342e-11,1.5935282618118052e-05,-2321.136744225403,7000.5692948820015,287.3043997367247
2.2805685539999843,2.23599999999999,-2221.680000309036,6999.991617801509,300.00000001308894,79.99999954723972,-0.008511732150889304,-7.057008795397908e-09,7.672410959816749e-05,8.820141902585905e-11,9.930288668913434e-06,-2315.834374193794,7000.583950389321,287.31897885761634
2.3845642629999872,2.3310000000000173,-2213.6000003557187,6999.990749039494,300.00000001228926,79.99999951993988,-0.00876456889512721,-8.018066372807523e-09,6.593521032128696e-05,1.0021636977682466e-10,6.7698269607952e-06,-2311.415732503102,7000.59614288426,287.3311281249629
2.5203373469999804,2.464999999999975,-2205.6000004045623,6999.989864775923,300.0000000114155,79.99999949595109,-0.008980866305093647,-8.809697423723416e-09,5.546284731889139e-05,1.1011345995328482e-10,4.066105721678426e-06,-2297.264995186309,7000.493365168245,286.64037901758076
2.6210774850000007,2.565999999999974,-2194.720000474642,6999.988629901957,300.0000000101243,79.9999994685126,-0.009222049142269966,-9.658293423586892e-09,4.171103793066033e-05,1.2072310700973254e-10,1.0513136796674871e-06,-2291.3652317494652,7000.500447742825,286.60945703759995
2.722786966000001,2.666999999999973,-2186.6400005289524,6999.987693062226,300.000000009107,79.99999945217994,-0.009362662216847093,-1.0137319842247966e-08,3.1966305832936137e-05,1.267124276602536e-10,-7.063557481146177e-07,-2285.957115266955,7000.506929490912,286.5811118892554
2.8615449330000047,2.7969999999999686,-2176.240000601067,6999.986468279055,300.00000000774247,79.99999943634525,-0.00949700022644438,-1.0593843181159387e-08,2.013196061259774e-05,1.3242064859501868e-10,-2.385589437992053e-06,-2278.5824109736595,7000.515759551556,286.5424594142139
2.9972074309999925,2.9320000000000164,-2162.7200006973826,6999.984854424016,300.00000000591047,79.99999942403224,-0.009600161544736408,-1.0971912121752088e-08,6.055233838381098e-06,1.37148259952899e-10,-3.6751187477701563e-06,-2256.68797770908,7000.469932035032,283.34264687597
3.1659571319999884,3.099999999999966,-2154.720000755168,6999.983892880427,300.0000000048072,79.99999942100187,-0.009625381005277283,-1.1113242764734911e-08,-1.5097608912664023e-06,1.3891568243204408e-10,-3.9903700150834e-06,-2250.4725429499395,7000.473487592143,283.14360940488353
3.268026259999999,3.201999999999998,-2146.560000814302,6999.982910362452,300.0000000036728,79.99999942088967,-0.009626314405884972,-1.1205358311437878e-08,-8.618370009524543e-06,1.40067753007336e-10,-4.002045645989938e-06,-2244.2571081901656,7000.4770484594865,282.94457193379515
3.3724704469999836,3.2969999999999686,-2136.320000888357,6999.981678764298,300.0000000022421,79.99999942477632,-0.009593960158208249,-1.1272569836427197e-08,-1.66386226481651e-05,1.4090844587583567e-10,-3.5976278593974342e-06,-2236.911594381977,7000.481266641876,282.7093458315987
3.507894403999984,3.4320000000000164,-2128.160000946902,6999.980701189608,300.0000000011008,79.99999943062622,-0.009545056062066853,-1.1299719539027533e-08,-2.234073830323143e-05,1.4124807915544222e-10,-2.9863352193348902e-06,-2230.696159619912,7000.484846843318,282.5103083605092
3.6099838529999886,3.533999999999992,-2117.360001023328,6999.979416350457,299.9999999995852,79.9999994417049,-0.009451747517360864,-1.1313715232659494e-08,-2.8926778762396655e-05,1.4142318510264064e-10,-1.8199890312597944e-06,-2204.6012290570525,7000.844817539334,283.11022381659416
3.7118887459999996,3.634999999999991,-2109.200001079984,6999.978454719537,299.99999999843914,79.99999945222496,-0.009362283091136502,-1.1314188692938811e-08,-3.320440010830825e-05,1.4142909849754028e-10,-7.016916119262362e-07,-2197.414924054814,7000.865407129572,282.9484566976529
3.8142292889999965,3.7369999999999663,-2101.76000113064,6999.977586427951,299.9999999973942,79.99999946322666,-0.009267799296721193,-1.130797884459228e-08,-3.657349012198902e-05,1.4135141465976027e-10,4.793493388888237e-07,-2190.228619050871,7000.886011758233,282.78668957871196
3.9523155659999816,3.863999999999976,-2093.680001184466,6999.9766536832585,299.9999999962593,79.99999947633133,-0.009153982033831668,-1.1298897614879134e-08,-3.9734232175238686e-05,1.41237732628992e-10,1.9020572878947206e-06,-2183.0423140451176,7000.906632516081,282.624922459771
4.054355549999997,3.964999999999975,-2085.5200012374444,6999.97572374252,299.9999999951132,79.99999949059735,-0.009028447632986897,-1.1287068852196097e-08,-4.238107978292099e-05,1.4108969673253596e-10,3.4712307701578737e-06,-2154.974036890383,7000.719857031669,284.2456163931096
4.15565223599998,4.067000000000007,-2074.720001305261,6999.974513308921,299.99999999359636,79.99999951066428,-0.00884885390600833,-1.1269257074820631e-08,-4.511629757825912e-05,1.4086675213485426e-10,5.716143868683687e-06,-2143.8204812471513,7000.735547739885,284.1324098916113
4.290888488000007,4.201999999999998,-2064.4000013674586,6999.973380047775,299.9999999921497,79.99999953067027,-0.008666101749014866,-1.1244905279197033e-08,-4.6968211278339525e-05,1.4056202995698115e-10,8.000538023189563e-06,-2134.8976367298897,7000.748125566359,284.0418446904161
4.429366224000006,4.331000000000017,-2056.240001414819,6999.972500828963,299.99999999100834,79.99999954680096,-0.008515894560286242,-1.1220757510622177e-08,-4.794774588768627e-05,1.4025996754936138e-10,9.878123092166291e-06,-2127.4619329638176,7000.758623394252,283.9663736894235
4.530330797000005,4.430000000000007,-2048.3200014591935,6999.971662327493,299.9999999899006,79.9999995625298,-0.008366833625106098,-1.1186291308560828e-08,-4.853467930893129e-05,1.3982890826921207e-10,1.1741379891461179e-05,-2119.2826588193157,7000.770189032941,283.88335558833734
4.631739737999993,4.531999999999982,-2037.520001517209,6999.970542815433,299.9999999883947,79.99999958385114,-0.008160426045587532,-1.1125966737667677e-08,-4.880696848650629e-05,1.3907457152575564e-10,1.432146888968866e-05,-2089.59183813932,7000.715293934958,284.6192350367291
4.732884179999985,4.632999999999981,-2026.6400015727554,6999.969443290992,299.999999986884,79.99999960492256,-0.007951175573732702,-1.1041249117852587e-08,-4.853888360329563e-05,1.380153617430473e-10,1.6937094864832858e-05,-2078.048158397492,7000.7267124630935,284.5550836417352
4.906162048999988,4.796999999999969,-2019.0400016098513,6999.96869228979,299.9999999858358,79.99999961926632,-0.007805526871121265,-1.0964776586819053e-08,-4.8068101369907315e-05,1.370593078257338e-10,1.875770054149406e-05,-2068.978124312607,7000.735705443578,284.5046789742551
5.007495651999989,4.897999999999968,-2010.960001647824,6999.967908873213,299.99999998472913,79.9999996340976,-0.007652012152140989,-1.0868229469775473e-08,-4.7350401622604516e-05,1.3585235106280924e-10,2.0676631923732813e-05,-2060.7326387794974,7000.743895974395,284.458856549287
5.1089537499999835,4.9979999999999905,-2002.880001684305,6999.967140913199,299.999999983632,79.99999964843518,-0.007500621897529443,-1.075127110056482e-08,-4.6440800287241e-05,1.3439026798874813e-10,2.2569007673167718e-05,-2051.6626046915726,7000.752922054546,284.40845188183965
5.210672875,5.099999999999966,-1992.000001731177,6999.966130788555,299.9999999821752,79.99999966688397,-0.007301203953660475,-1.0561590951861363e-08,-4.49586245037363e-05,1.320191694816344e-10,2.50617293917621e-05,-2042.5925706021592,7000.7619648867785,284.3580472144133
5.312577492000003,5.201999999999998,-1984.4000017624442,6999.965441295864,299.99999998117386,79.9999996791446,-0.007165607083815118,-1.040913884926972e-08,-4.377993626679527e-05,1.3011347041100995e-10,2.6756688750628754e-05,-2032.697987957499,7000.77184893209,284.3030603045219
5.450718585000004,5.329999999999984,-1973.6800018046285,6999.964490265663,299.99999997978534,79.99999969552402,-0.006980349085642694,-1.0165110539853463e-08,-4.19657184699203e-05,1.2706308690519523e-10,2.907241227489976e-05,-2023.6279538651736,7000.780925594804,284.2526556371494
5.552616078999989,5.430000000000007,-1965.6000018349953,6999.963789668549,299.99999997876046,79.9999997071648,-0.006845640100070463,-9.955309787210372e-09,-4.051097489523362e-05,1.2444057371861577e-10,3.075627382753687e-05,-2012.084274109549,7000.792498851986,284.1885042423539
5.721471541999989,5.598000000000013,-1954.8800018735099,6999.962880882065,299.9999999774343,79.99999972166493,-0.0066740405512599795,-9.647465427322518e-09,-3.850517672520845e-05,1.2059253362878365e-10,3.290126754262879e-05,-2001.365142906214,7000.803266162299,284.1289350900908
5.822886654000001,5.699999999999989,-1944.4000019093153,6999.9620143379225,299.9999999761815,79.99999973482035,-0.0065144455505672825,-9.312843540821863e-09,-3.6499931121989825e-05,1.1640979219128986e-10,3.489620481977873e-05,-1956.81203146316,7000.525433288234,284.2971325943829
5.963636264000002,5.829999999999984,-1936.3200019357932,6999.9613602530935,299.9999999752444,79.999999744288,-0.006397124889807357,-9.03783091899122e-09,-3.494757223255017e-05,1.129721687090666e-10,3.636271315010653e-05,-1947.079623695007,7000.524842707184,284.2564431420824
6.0650365749999935,5.930999999999983,-1928.2400019613137,6999.960717864485,299.99999997433565,79.99999975320155,-0.006284669390797189,-8.742763885430835e-09,-3.340597834758391e-05,1.0928387098294568e-10,3.776840714753149e-05,-1937.3472159259202,7000.524264436369,284.2157536898208
6.166842506999984,6.031999999999982,-1920.1600019859552,6999.96008667543,299.99999997345986,79.99999976157699,-0.006177137134891425,-8.43401925725538e-09,-3.188826437503281e-05,1.0542460690521075e-10,3.9112560757725845e-05,-1919.2730583322582,7001.061741072638,281.03070283587044
6.268356538000006,6.1340000000000146,-1909.3600020176166,6999.959259630965,299.9999999723378,79.9999997719769,-0.006040949388781489,-8.005697663076107e-09,-2.9915977211540834e-05,1.0007064903810976e-10,4.0814908353059565e-05,-1908.3187752593722,7001.080802714511,280.8712930405257
6.4083487169999955,6.26400000000001,-1901.6000020395134,6999.958676598475,299.999999971568,79.99999977890985,-0.005948429774482936,-7.683052606392366e-09,-2.8551498562445914e-05,9.603762998609096e-11,4.1971404168394955e-05,-1896.4516352627168,7001.101467010083,280.69859909562626
6.509969359999985,6.3659999999999854,-1890.7200020691132,6999.957873861748,299.9999999705413,79.9999997879486,-0.005825602191795391,-7.21600159552727e-09,-2.672306640955271e-05,9.019955552967078e-11,4.350675005593274e-05,-1885.4973521880147,7001.120553866193,280.5391893003878
6.64573575899999,6.500999999999976,-1877.280002104038,6999.95690466838,299.9999999693647,79.9999997980846,-0.005684708071989841,-6.62348118357795e-09,-2.4623666707586648e-05,8.279312409801625e-11,4.5267928070247265e-05,-1867.684632098213,7000.982504608167,282.4143977577291
6.781396381999997,6.635999999999967,-1869.1200021244495,6999.956327514214,299.99999996869894,79.99999980373515,-0.0056046261826965945,-6.25884915384142e-09,-2.3442189600304464e-05,7.823526482389586e-11,4.6268952642369854e-05,-1857.4793912111904,7000.994701167969,282.3366470216838
6.919752939000006,6.762999999999977,-1858.880002149256,6999.955614639588,299.99999996791774,79.99999981033106,-0.005509673709141265,-5.793750208607965e-09,-2.2064892731680725e-05,7.242157730458209e-11,4.745585986776213e-05,-1845.4186519803336,7001.009126210191,282.2447597882349
7.021335618999984,6.8659999999999854,-1848.0000021747217,6999.954870144844,299.9999999671521,79.99999981681094,-0.005414770866609196,-5.295461197431023e-09,-2.0731214256158603e-05,6.61930097962431e-11,4.864214670363687e-05,-1831.502414405389,7001.025783704999,282.13873605740804
7.190891249000003,7.036000000000001,-1837.2000021991648,6999.954143606589,299.9999999664597,79.99999982275214,-0.00532627127965163,-4.8022574062376e-09,-1.95401401180243e-05,6.00280024039605e-11,4.9748392839887856e-05,-1818.94868926237,7001.618811967716,281.82698320572075
7.292411802999993,7.1370000000000005,-1829.0400022171036,6999.953602444343,299.999999965981,79.99999982695226,-0.005262809275944454,-4.429526031819499e-09,-1.8726325454821438e-05,5.53688874775637e-11,5.054166886475642e-05,-1808.6688226060273,7001.650254106041,281.74151434780094
7.429566749000003,7.262999999999977,-1819.0400022385072,6999.952948010317,299.9999999654469,79.99999983178824,-0.005188777441513319,-3.973130689030664e-09,-1.7829658751885995e-05,4.9663975991446313e-11,5.146706799163958e-05,-1796.5198892843334,7001.6874217880395,281.64050569758956
7.530451761999984,7.3629999999999995,-1811.0400022552114,6999.952430977912,299.9999999650599,79.9999998354465,-0.005132065669491275,-3.6127013747179957e-09,-1.718774827240152e-05,4.5158629708670685e-11,5.217596598550145e-05,-1785.3054892945754,7001.721738348942,281.54726694360164
7.665250417999999,7.4979999999999905,-1800.160002277352,6999.951736736607,299.99999996459064,79.99999984014967,-0.0050582215127293224,-3.126397261168934e-09,-1.6416002144828264e-05,3.9079853198430207e-11,5.309901908812087e-05,-1775.5190218195735,7001.123780744368,280.39552688175814
7.766789663999987,7.5989999999999895,-1792.0800022933809,6999.951227578081,299.99999996428625,79.9999998434614,-0.005005570406284157,-2.770582508952946e-09,-1.5915416493700882e-05,3.463218493603994e-11,5.375715871847042e-05,-1765.2587618812843,7001.134211602408,280.27445990369995
7.901810678000004,7.7339999999999804,-1784.4000023083117,6999.950748540774,299.9999999640291,79.99999984648213,-0.004957058574969933,-2.434868256311081e-09,-1.5493865554098178e-05,3.0435770646921854e-11,5.436355734134146e-05,-1754.9985019426474,7001.144648147714,280.1533929256823
8.007988920000003,7.829999999999984,-1776.320002323714,6999.950249491514,299.99999996379523,79.99999984954047,-0.004907453934468681,-2.0859110061026604e-09,-1.5103273747124474e-05,2.60738169023012e-11,5.498361599776125e-05,-1744.7382420036683,7001.155090387183,280.0323259477053
8.109376419,7.932000000000016,-1765.4400023439803,6999.949585316416,299.99999996353364,79.99999985349139,-0.004842620362556554,-1.625720028552268e-09,-1.4654961648945198e-05,2.0321444465533288e-11,5.579403651378989e-05,-1737.293486820114,7000.664849366561,277.45902115011967
8.21129622799998,8.033999999999992,-1757.2800023588247,6999.9490929167005,299.9999999633783,79.99999985634251,-0.004795289332498254,-1.2866175081019835e-09,-1.4372933354433279e-05,1.6082672443103337e-11,5.638567497556757e-05,-1726.0780741310823,7000.657535725749,277.23312261414134
8.347637125999995,8.168999999999983,-1746.5600023778934,6999.94845332352,299.99999996322674,79.99999985996196,-0.004734521128948653,-8.53599407717431e-10,-1.4065883155357517e-05,1.0669956685548965e-11,5.714527819700166e-05,-1714.955350802743,7000.650288880547,277.00909100825714
8.485664029999981,8.296999999999969,-1739.1200023908461,6999.948014227636,299.99999996315626,79.99999986239922,-0.004693158226460371,-5.614792212200553e-10,-1.3890931993271518e-05,7.018460879481286e-12,5.766231491666218e-05,-1703.8326274740311,7000.643048493057,276.78505940241774
8.5865498,8.396999999999991,-1731.0400024046571,6999.94754164279,299.9999999631091,79.99999986498801,-0.004648821120815853,-2.5052114254619804e-10,-1.3731716763798724e-05,3.131490276275934e-12,5.821652910542596e-05,-1693.6367977557452,7000.6364167021065,276.5796970971007
8.687234483999987,8.49799999999999,-1720.1600024228562,6999.946912315792,299.9999999630948,79.99999986838814,-0.004589937650895572,1.5536494573973904e-10,-1.3561008426696321e-05,-1.942079165542428e-12,5.895257294996625e-05,-1686.9230438869247,7000.372670505821,276.46530635266004
8.822268014999992,8.632999999999981,-1712.1600024359302,6999.946454677421,299.99999996311817,79.99999987083298,-0.004547126623257642,4.4703391854761353e-10,-1.346359807043808e-05,-5.5879372274762404e-12,5.948771109132167e-05,-1676.8160966189273,7000.357399726917,276.26243372229425
8.923183567999985,8.733000000000004,-1704.4000024483978,6999.94601486609,299.99999996317047,79.99999987316502,-0.0045059116156899335,7.188041951060687e-10,-1.3388541408887411e-05,-8.985062443922495e-12,6.0002898923272596e-05,-1666.7091493506523,7000.342133948189,276.0595610919603
9.030328048000001,8.829999999999984,-1693.600002465364,6999.945409353439,299.99999996328387,79.9999998763534,-0.004448944402156488,1.088827291188417e-09,-1.3309838211410208e-05,-1.361034757953369e-11,6.071498935700248e-05,-1653.8457619178976,7000.322712198258,275.80135956249
9.166675276000007,8.966000000000008,-1680.0000024861313,6999.944657754679,299.9999999634979,79.99999988028515,-0.004377674431270992,1.5339120524780335e-09,-1.3243911000307853e-05,-1.9173903870219474e-11,6.16058642355366e-05,-1644.5464335701495,7000.489678967656,271.43890677684146
9.33604703399999,9.135999999999967,-1671.8400024982689,6999.944212601768,299.99999996366273,79.99999988260424,-0.004335087420520207,1.7908499468023293e-09,-1.3217281167379185e-05,-2.238562622318254e-11,6.213820197054076e-05,-1634.5929457669238,7000.480746370224,271.0990381547767
9.438217460999994,9.236999999999966,-1664.4000025091327,6999.943810560183,299.9999999638355,79.99999988469462,-0.004296339238991133,2.018007884009732e-09,-1.3198952288566755e-05,-2.5225099540746805e-11,6.262255430833363e-05,-1625.5443204910323,7000.472630116077,270.79006668019616
9.542481562999996,9.329999999999984,-1653.6000025245417,6999.943233292627,299.99999996412345,79.99999988769038,-0.004240191332346185,2.340160615264957e-09,-1.3178718023859418e-05,-2.9252008021345136e-11,6.332440319223309e-05,-1615.5908326872964,7000.463707118818,270.4501980581838
9.644206913000005,9.432000000000016,-1645.4400025359178,6999.942802154459,299.9999999643691,79.9999998899247,-0.0041978257655872556,2.574736677510452e-09,-1.3166038959110876e-05,-3.218420867920455e-11,6.385397278663163e-05,-1608.8161381431075,7000.166528241992,272.58144825943543
9.779991564999989,9.567999999999984,-1637.2800025470656,6999.942375336151,299.9999999646386,79.9999998921344,-0.0041555015100590625,2.801185443854721e-09,-1.3153638409711752e-05,-3.501481837183531e-11,6.438302597278067e-05,-1598.9749303666777,7000.147718089798,272.3265537739527
9.882059725999994,9.670000000000016,-1626.480002561494,6999.941817072099,299.9999999650319,79.99999989502153,-0.004099544568040021,3.081287008571725e-09,-1.3135207074055335e-05,-3.851608847069338e-11,6.508248770775715e-05,-1589.1337225899952,7000.128912938985,272.0716592884934
9.985577479,9.762999999999977,-1619.1200025710928,6999.941441004417,299.99999996532114,79.99999989696431,-0.004061456042194162,3.2651056327800112e-09,-1.3119860708095983e-05,-4.0813821857537044e-11,6.555859423684751e-05,-1578.3978595605981,7000.108404007194,271.79359257710945
10.12030942299998,9.896999999999991,-1611.0400025814351,6999.941032126041,299.99999996565697,79.99999989907394,-0.004019687691298248,3.4593313778062238e-09,-1.309945635074657e-05,-4.3241644410857654e-11,6.608069856706145e-05,-1568.5566517833925,7000.089609369546,271.53869809169663
10.221888089999993,9.99799999999999,-1600.2400025949257,6999.940492187514,299.99999996613525,79.99999990185482,-0.003963956607017715,3.708067179977205e-09,-1.3064934306886475e-05,-4.635084317501503e-11,6.677733702642463e-05,-1563.5345804112874,7000.318962755108,272.5822440854313
10.356312919000004,10.130999999999972,-1592.2400026046732,6999.940097089572,299.9999999665114,79.99999990388524,-0.003922765925391805,3.884890761617153e-09,-1.303306952646247e-05,-4.8561138945776246e-11,6.729222046986116e-05,-1552.0999052478292,7000.306670625091,272.3329027046206
10.457505542000007,10.233000000000004,-1581.680002617233,6999.939581868827,299.9999999670344,79.99999990652572,-0.0038685441244289518,4.106628441534454e-09,-1.2981929705670829e-05,-5.133286134638662e-11,6.796999287339567e-05,-1541.5448204812767,7000.295329982392,272.1027414300484
10.598993581000002,10.365000000000009,-1570.8800026297226,6999.939062314087,299.9999999675992,79.9999999091779,-0.0038133043866733036,4.321129899761065e-09,-1.2918439964245658e-05,-5.4014131131728864e-11,6.866048947351544e-05,-1530.9897357144462,7000.283995234829,271.87258015549685
10.700426708999998,10.464999999999975,-1562.8000026388331,6999.9386784828885,299.9999999680419,79.99999991112904,-0.0037721497620679446,4.470639340330322e-09,-1.286314809405529e-05,-5.5883000288235316e-11,6.917492218971866e-05,-1526.2183709310782,7000.746511208395,272.64766755256636
10.83525050999998,10.599999999999966,-1554.7200026477494,6999.938298803552,299.9999999684986,79.99999991305104,-0.003731165270380351,4.612446700884547e-09,-1.280111653330695e-05,-5.765559340555344e-11,6.968722824640672e-05,-1515.8162941077642,7000.752750433773,272.45355129931295
10.937036947999985,10.701999999999998,-1544.4000026588471,6999.937819907901,299.99999996910265,79.99999991546233,-0.0036791021964844507,4.784472693742068e-09,-1.2712180915905986e-05,-5.98059197737381e-11,7.033801655098593e-05,-1507.1478967548046,7000.7579542233325,272.29178775494853
11.038563213000003,10.795999999999992,-1536.3200026673235,6999.937449612634,299.9999999695893,79.99999991731521,-0.0036385904436540694,4.911430408257017e-09,-1.2635105225910286e-05,-6.139289216210938e-11,7.08444133807884e-05,-1497.6126596663435,7000.763682895071,272.1138478561601
11.140318762999982,10.897999999999968,-1528.160002675694,6999.937079790226,299.99999997009337,79.99999991915489,-0.003597915681642694,5.033124014558131e-09,-1.255101638952781e-05,-6.291406324566723e-11,7.13528478200054e-05,-1487.2105828423294,7000.769937757087,271.9197316029508
11.275887921999981,11.033999999999992,-1517.2800026865696,6999.936593130339,299.99999997078606,79.99999992155722,-0.003544098946431941,5.183283303321489e-09,-1.242935780526953e-05,-6.47910555444088e-11,7.202555690488666e-05,-1480.3712803351239,7000.6993552259455,274.2644644992913
11.411796616999993,11.170000000000016,-1506.4000026971216,6999.936113765267,299.99999997149786,79.99999992390066,-0.0034908008858894487,5.319515569632424e-09,-1.2297586244953813e-05,-6.649395991992515e-11,7.269178256485986e-05,-1470.986422069347,7000.702521728167,274.171652947887
11.514944437999986,11.262999999999977,-1499.0400027040785,6999.935793638538,299.99999997198995,79.9999999254515,-0.0034550771036369523,5.402915171383989e-09,-1.220307231970446e-05,-6.753645558508367e-11,7.313832978117496e-05,-1461.601563803378,7000.705692758884,274.07884139649184
11.616838565999984,11.363999999999976,-1490.8800027116313,6999.935442492988,299.9999999725432,79.99999992713944,-0.0034157707212056935,5.4892493077885064e-09,-1.2093849420425835e-05,-6.861563284744215e-11,7.362965950408196e-05,-1449.6571987373238,7000.709735258028,273.96071760382017
11.785468729999991,11.533000000000015,-1477.3600027237667,6999.934869482909,299.99999997347925,79.99999992986118,-0.003351418662514945,5.618828904122276e-09,-1.1903591495121911e-05,-7.023537862148007e-11,7.443406014773224e-05,-1443.3544234491435,7001.21733939091,278.124967774977
11.920885260999995,11.668999999999983,-1469.2000027308627,6999.934528880945,299.9999999740547,79.9999999314587,-0.0033130660378171677,5.690547638731515e-09,-1.1783813669622673e-05,-7.11318631597645e-11,7.491346791188569e-05,-1434.1323771148807,7001.237356665551,278.17495940200223
12.025083241000004,11.762999999999977,-1459.0400027394842,6999.934110288948,299.99999997478017,79.99999993339961,-0.003265863686302035,5.7687997046932765e-09,-1.1630283986919374e-05,-7.211001433200152e-11,7.550349725660155e-05,-1423.2335950832455,7001.261019304648,278.2340404157673
12.16067783599999,11.896999999999991,-1450.9600027461593,6999.933781627616,299.9999999753657,79.99999993490597,-0.003228752974486299,5.825000118955243e-09,-1.1505308201379998e-05,-7.281251965437513e-11,7.596738112547463e-05,-1414.011548748596,7001.281046267952,278.2840320428049
12.262696317000007,11.998999999999967,-1442.8800027526838,6999.933456702135,299.99999997595586,79.99999993637945,-0.0031920354843158107,5.875409203858251e-09,-1.1378276657708436e-05,-7.344263333178522e-11,7.642634972504503e-05,-1409.1181085439407,7001.124496007025,279.0891857252695
12.364336173999988,12.099999999999966,-1432.0000027612386,6999.9330250020885,299.999999976758,79.99999993831182,-0.0031432321659750568,5.931461937137211e-09,-1.1204579725366805e-05,-7.414329251455031e-11,7.703639117839778e-05,-1400.0173051842005,7001.138596659139,279.1649333881004
12.465741726999994,12.200999999999965,-1424.4000027670586,6999.932727404491,299.99999997732175,79.9999999396267,-0.0031095867457288213,5.963529082279347e-09,-1.108192222838809e-05,-7.454413177955892e-11,7.745695891814286e-05,-1390.0891560643013,7001.153983993771,279.24756720210064
12.605198189999982,12.331000000000017,-1413.5200027751757,6999.932306854768,299.9999999781334,79.99999994145996,-0.003062059582752118,6.000391568853317e-09,-1.0905190995386864e-05,-7.500491268407252e-11,7.805104844549327e-05,-1380.90561812823,7001.168221677628,279.3240034800531
12.707038413999982,12.432999999999993,-1405.5200027809894,6999.932001744722,299.9999999787348,79.9999999427718,-0.0030275926015340547,6.0195580387470515e-09,-1.0774805252786742e-05,-7.524449337589294e-11,7.848188570780401e-05,-1375.492343475114,7001.1558000398045,281.59601759491017
12.80804299799999,12.531999999999982,-1397.4400027867284,6999.93169706308,299.9999999793423,79.99999994406602,-0.002993198602866665,6.0340531302616814e-09,-1.0643098003889881e-05,-7.542568178934098e-11,7.891181069252795e-05,-1364.6900307093053,7001.171693463622,281.7783099394352
12.942599734999988,12.666999999999973,-1386.6400027941936,6999.93129521012,299.99999998015744,79.99999994574884,-0.002947878688550285,6.046447752436032e-09,-1.0467540093089082e-05,-7.558061420099128e-11,7.94783096289553e-05,-1354.8697463765695,7001.1861470518315,281.94403025263955
13.08169952099999,12.796999999999969,-1378.960002799366,6999.931013177625,299.9999999807393,79.99999994691296,-0.0029161162598675206,6.049418138882493e-09,-1.034336234478157e-05,-7.561774372366277e-11,7.98753399977592e-05,-1345.8678190714186,7001.199400286813,282.0959405397426
13.183568302999987,12.897999999999968,-1368.240002806402,6999.930624551963,299.99999998155147,79.99999994849475,-0.002872396171834535,6.045118766592813e-09,-1.0171419728722405e-05,-7.556400112015079e-11,8.042184111500816e-05,-1336.8658917661292,7001.212657307251,282.24785082684446
13.284948824999987,12.99799999999999,-1360.1600028115633,6999.930335483764,299.9999999821636,79.99999994965405,-0.0028399249504152974,6.0364641468244596e-09,-1.0043132344159752e-05,-7.545581800743789e-11,8.082773139861388e-05,-1331.5950797390144,7001.731937207063,283.78845709396893
13.386400866999992,13.099999999999966,-1352.0000028166621,6999.930046863335,299.9999999827771,79.99999995079702,-0.002807544247510014,6.023275244619825e-09,-9.914924148735072e-06,-7.529095634222487e-11,8.123249020353107e-05,-1322.6971309448147,7001.762336766807,283.9876765393258
13.522102407000006,13.23599999999999,-1344.4000028213072,6999.929781039189,299.99999998334846,79.99999995183673,-0.002777761261288475,6.005603206180182e-09,-9.79689711721796e-06,-7.507005547487162e-11,8.160477755181361e-05,-1313.7991821504959,7001.792739938349,284.18689598467915
13.626800559000003,13.331000000000017,-1333.520002827776,6999.929405346019,299.99999998416325,79.99999995328461,-0.002735744664875768,5.974870322531058e-09,-9.630481632532116e-06,-7.468589388586407e-11,8.212998503642766e-05,-1304.9012333560495,7001.823146783594,284.3861154300284
13.762597436999982,13.466000000000008,-1322.7200028340205,6999.929038037728,299.99999998496736,79.99999995467653,-0.002694735862515513,5.931396335509026e-09,-9.46849260377224e-06,-7.41424684999332e-11,8.264259509771499e-05,-1294.5574019523192,7002.077791342425,284.98590068397726
13.898889287999992,13.601999999999975,-1311.9200028400705,6999.928676231639,299.9999999857651,79.99999995602445,-0.0026544170367197467,5.880430673017884e-09,-9.309895774560873e-06,-7.350539717180731e-11,8.314658045360801e-05,-1284.890063402594,7002.1189980107165,285.21604954332287
14.000000556000003,13.701999999999998,-1304.3200028442188,6999.928424901722,299.9999999863232,79.99999995694739,-0.002626454061238737,5.839805950426313e-09,-9.20041681664744e-06,-7.299758773546477e-11,8.349611767344278e-05,-1274.4171133069096,7002.163643188683,285.4653774742726
14.140104979,13.831000000000017,-1293.600002849924,6999.928074854135,299.9999999871026,79.99999995821445,-0.00258757300701125,5.777084421115074e-09,-9.04906132971027e-06,-7.221356808482307e-11,8.398213088645079e-05,-1265.5553863027487,7002.201423613173,285.6763472619922
14.275885996,13.966000000000008,-1285.440002854154,6999.927811869109,299.9999999876907,79.9999999591527,-0.002558400600509793,5.724895156611829e-09,-8.93628874210057e-06,-7.156120189458762e-11,8.434678599300582e-05,-1256.7814151677735,7001.680028053165,284.3123639071309
14.377504356000003,14.067999999999984,-1274.720002859566,6999.927470886734,299.9999999884545,79.99999996035176,-0.0025206292066426756,5.650431702226984e-09,-8.791302883934519e-06,-7.063040819915928e-11,8.481892845213501e-05,-1247.1834874787726,7001.700103194821,284.4821678944788
14.512730266999995,14.200999999999965,-1264.4000028646285,6999.927147401896,299.99999998917934,79.99999996147106,-0.0024848512557942124,5.572181171117302e-09,-8.655169309554425e-06,-6.965227607410267e-11,8.52661528729648e-05,-1237.585559789653,7001.720182220547,284.6519718818171
14.651849228000003,14.329000000000008,-1256.4800028684203,6999.926902253401,299.99999998973016,79.99999996230756,-0.0024577746474323176,5.506492599185036e-09,-8.552968781890727e-06,-6.883116857973293e-11,8.560461050222123e-05,-1227.1878047929729,7001.74193895732,284.83592620142144
14.752377929999994,14.428999999999974,-1245.7600028734194,6999.9265746752335,299.99999999046423,79.99999996340995,-0.0024216266068475168,5.4136308801042684e-09,-8.417665753508162e-06,-6.767039662928754e-11,8.605646104364872e-05,-1219.3843263468725,7002.1326632566415,282.85548019718544
14.887368213999991,14.564000000000021,-1237.6000028771232,6999.926328550244,299.9999999910143,79.99999996422672,-0.0023944920337475415,5.3400796723233986e-09,-8.316966428833573e-06,-6.675100619557577e-11,8.639564323287274e-05,-1210.625962830398,7002.163881620024,282.9375193618002
14.989642699000001,14.665999999999997,-1229.5200028807092,6999.926087559347,299.9999999915512,79.99999996501694,-0.0023679444244611315,5.2641550150126215e-09,-8.219164742695445e-06,-6.580194765926223e-11,8.672748837312838e-05,-1201.8675993138374,7002.195103114354,283.0195585264049
15.096214818999982,14.762999999999977,-1219.0400028852482,6999.925778975479,299.99999999223525,79.99999996601494,-0.0023339840851340724,5.160364301717197e-09,-8.095073278208062e-06,-6.450456334342723e-11,8.715199264575091e-05,-1192.3130209320307,7002.229166407534,283.109055796871
15.231600842999995,14.897999999999968,-1208.1600028898208,6999.9254632735,299.99999999293266,79.99999996702041,-0.0022992616929017676,5.047743874739125e-09,-7.96939467846558e-06,-6.309680762259685e-11,8.758602257841197e-05,-1181.9622276849595,7002.266072350511,283.20601117319535
15.36751370799999,15.033999999999992,-1200.0000028931631,6999.925229582414,299.99999999344465,79.99999996775458,-0.002273574604701306,4.960424249528449e-09,-7.87715109595983e-06,-6.200531203420407e-11,8.790711120210126e-05,-1172.9349224362015,7002.205381786521,281.45849347566707
15.469561862999996,15.135999999999967,-1189.2000028974699,6999.924924298197,299.99999999410863,79.99999996870073,-0.0022400344848044432,4.842214547132328e-09,-7.75759874455327e-06,-6.052769040688654e-11,8.832636272826377e-05,-1161.7832269916646,7002.241182895077,281.4846678566877
15.605573725999989,15.264999999999986,-1178.8800029014699,6999.924636810539,299.99999999472817,79.99999996957834,-0.002208469908652274,4.724907761615402e-09,-7.64596016756427e-06,-5.906135526751259e-11,8.872091995626441e-05,-1152.2246308962435,7002.271873344486,281.50710304040473
15.740328788,15.399999999999977,-1170.7200029045523,6999.924412346079,299.9999999952069,79.99999997025479,-0.002183827786802467,4.630735567735165e-09,-7.559406662492157e-06,-5.7884202624300053e-11,8.902894649609472e-05,-1144.2591341499874,7002.297451327479,281.5257990268249
15.842640168000003,15.500999999999976,-1160.0000029084952,6999.924121270929,299.9999999958207,79.99999997112049,-0.0021518801314820766,4.504029431070211e-09,-7.44783178706871e-06,-5.630037562609205e-11,8.942829221081361e-05,-1135.9875337964447,7002.606751037398,284.06752614941536
15.943010557999997,15.601999999999975,-1151.9200029113968,6999.923904694053,299.9999999962728,79.99999997175624,-0.002128111812997791,4.405962599302165e-09,-7.365266050685476e-06,-5.5074540019363833e-11,8.972539620888398e-05,-1127.2475013920962,7002.644400808029,284.17349711808043
16.043834654999984,15.701999999999998,-1144.4000029140282,6999.923705299375,299.999999996685,79.99999997233532,-0.002106230361139734,4.312437009043136e-09,-7.289571830850566e-06,-5.390546994953915e-11,8.999891437277974e-05,-1117.7129205872648,7002.685476482375,284.2891018111553
16.179114835999997,15.831000000000017,-1133.520002917745,6999.923420399423,299.9999999972652,79.99999997315223,-0.0020749704747755502,4.174519307706332e-09,-7.181895585295e-06,-5.218149843490835e-11,9.038966297181261e-05,-1108.9728881827634,7002.723131988872,284.3950727797941
16.280893778000006,15.932999999999993,-1125.3600029204658,6999.923209503162,299.9999999976884,79.99999997374923,-0.0020518246774073184,4.068128779565182e-09,-7.1024965035556255e-06,-5.085161666069753e-11,9.067898545223052e-05,-1098.3957696054063,7002.408846016134,281.419182824471
16.41688753599999,16.067999999999984,-1114.7200029239273,6999.922938051744,299.9999999982233,79.9999999745078,-0.002022031329747393,3.926727946313673e-09,-7.000596210553485e-06,-4.9084106022722256e-11,9.105140231580044e-05,-1088.0630406024525,7002.438828433549,281.4190237503263
16.551559589999982,16.200999999999965,-1104.4000029271892,6999.922678541998,299.99999999872347,79.99999997522269,-0.001993543835433888,3.787969628322403e-09,-6.9034524877567945e-06,-4.734962684146008e-11,9.140749601121989e-05,-1078.5251369073392,7002.466507741023,281.41887691263815
16.691497620000007,16.331000000000017,-1096.3200029296765,6999.922477900848,299.9999999991025,79.99999997576855,-0.0019715180991797024,3.6793320247557974e-09,-6.828503272985495e-06,-4.5991656651904033e-11,9.168281772553577e-05,-1069.7820585200845,7002.491883184412,281.4187423114102
16.792698556000005,16.432000000000016,-1085.4400029329367,6999.922211224207,299.9999999995955,79.99999997648493,-0.0019422309644916177,3.5330155273527172e-09,-6.729001969697023e-06,-4.416270023992825e-11,9.204890692426915e-05,-1060.2912060026758,7001.980666608307,282.24783043671914
16.928669522999996,16.567999999999984,-1074.5600029360955,6999.92194850955,300.0000000000679,79.99999997718041,-0.0019133698153876019,3.386905919565897e-09,-6.631065193685105e-06,-4.2336329959562e-11,9.240967130241806e-05,-1051.5824559711336,7001.98746862356,282.27613867642435
17.03098221100001,16.670000000000016,-1066.4800029383819,6999.921755938348,300.000000000407,79.99999997768371,-0.0018922087135318099,3.2774843142396837e-09,-6.559295974925069e-06,-4.096855976224015e-11,9.267418508573932e-05,-1042.8737059395355,7001.994273036187,282.3044469161167
17.169784098000008,16.79699999999997,-1059.040002940445,6999.921580525944,300.000000000709,79.99999997813723,-0.0018729353472759958,3.1756605622014918e-09,-6.493924587967868e-06,-3.9695762740080496e-11,9.291510217379617e-05,-1032.581546811211,7002.002317847055,282.3379021084633
17.270403799999997,16.896000000000015,-1048.3200029433447,6999.921330890282,300.00000000112755,79.99999997877501,-0.0018454919899957242,3.029404302184288e-09,-6.40088403784325e-06,-3.7867559332205325e-11,9.325814415173106e-05,-1023.8727967794953,7002.009127628892,282.3662103481267
17.372154967,16.997000000000014,-1040.2400029454739,6999.921145151169,300.0000000014289,79.9999999792436,-0.0018250661803205783,2.9194921236060126e-09,-6.3316074536937694e-06,-3.649365698557305e-11,9.35134667812143e-05,-1016.3853205265544,7001.880041920957,282.0534745440547
17.50688119099999,17.132000000000005,-1032.1600029475544,6999.92096146796,300.00000000172076,79.999999979702,-0.001804861425738659,2.8098234568458406e-09,-6.2630324563041865e-06,-3.512279853732692e-11,9.376602622235275e-05,-1007.6696878771791,7001.882304174951,282.07042136466686
17.608363663999995,17.23399999999998,-1021.7600029501684,6999.920728047671,300.0000000020797,79.99999998027721,-0.0017791810135897176,2.6680358578944874e-09,-6.1757948659784735e-06,-3.3350453411935496e-11,9.408703138480412e-05,-998.1617249868933,7001.884774774019,282.0889088053198
17.714049136,17.329999999999984,-1013.6000029521665,6999.920547216649,300.0000000023476,79.99999998071732,-0.0017592789591983,2.5577619513009345e-09,-6.108113313555484e-06,-3.197202946920977e-11,9.433580707329803e-05,-987.861431855684,7001.887454354906,282.1089368660097
17.850232290000008,17.466000000000008,-1002.8000029547421,6999.92031099157,300.0000000026859,79.99999998128501,-0.0017332722962689318,2.4120430668333914e-09,-6.019566150782121e-06,-3.01505432762752e-11,9.466089037069025e-05,-979.350462645855,7001.991077447627,282.30050205516704
17.951745439000007,17.567000000000007,-994.8000029566016,6999.920138268394,300.00000000292374,79.9999999816948,-0.0017142532287030385,2.3047894831218975e-09,-5.954714208863865e-06,-2.8809873381836225e-11,9.489862872280597e-05,-970.617440235405,7001.996822251788,282.32346870313125
18.086851634999988,17.69999999999999,-986.7200029584357,6999.919965738659,300.0000000031529,79.99999998209974,-0.001695251535096684,2.1976894614296785e-09,-5.88983360155556e-06,-2.7471123011423854e-11,9.513614990086516e-05,-961.8844178249077,7002.002569337743,282.34643535108256
18.193886802999998,17.798000000000002,-978.8800029601782,6999.919800170062,300.00000000336513,79.9999999824841,-0.0016770144085447487,2.0939640492228263e-09,-5.827480251748233e-06,-2.6174555264256474e-11,9.53641139904704e-05,-953.1513954143704,7002.008318583375,282.3694019990215
18.29541064,17.899,-970.8800029619197,6999.919633053453,300.00000000357034,79.99999998286798,-0.0016586013492439885,1.989171884995241e-09,-5.764456774141785e-06,-2.4864653120550766e-11,9.559427723870861e-05,-944.4183730037838,7002.014070024693,282.39236864694794
18.396553781999984,18.0,-960.0000029642231,6999.919408707694,300.00000000383346,79.99999998337675,-0.0016338776327464398,1.8484131549640575e-09,-5.6796835580552535e-06,-2.310516887088779e-11,9.590332370512655e-05,-935.2102307883314,7001.112752889928,281.5903908606482
18.531980285000003,18.135999999999967,-949.2000029664399,6999.919189322245,300.00000000407584,79.99999998386699,-0.0016096949006765063,1.7108050506621747e-09,-5.596606860454102e-06,-2.1385067446959844e-11,9.620560786594012e-05,-924.1158779446444,7001.081300174896,281.58427073120095
18.669013748999987,18.262999999999977,-938.960002968483,6999.918984327567,300.0000000042891,79.99999998431844,-0.0015871004083372515,1.5811693085265534e-09,-5.518827148161756e-06,-1.9764620554828264e-11,9.648803903017367e-05,-913.813978875446,7001.0520971726955,281.57858775383914
18.804780585999993,18.397999999999968,-928.1600029705736,6999.918771223459,300.0000000044968,79.99999998478111,-0.00156360312256323,1.4467725538127481e-09,-5.43783973292599e-06,-1.808466100838166e-11,9.678175511185216e-05,-905.0969873553108,7001.027389132185,281.57377908067434
18.906538323999996,18.5,-920.0800029721,6999.918613856558,300.0000000046397,79.99999998511841,-0.0015462496233764982,1.347520882327943e-09,-5.37793717806575e-06,-1.6844015033296502e-11,9.699867385859484e-05,-896.8713888649739,7000.911713058119,280.6970045650896
19.00734592699999,18.599999999999966,-912.000002973595,6999.9184582362395,300.0000000047731,79.9999999854483,-0.0015290872398434766,1.2491004635062118e-09,-5.318609442208569e-06,-1.5613759713487355e-11,9.721320366029573e-05,-888.1495820338953,7000.883875774854,280.6627333758262
19.142581189999987,18.735000000000014,-904.400002974966,6999.918313451737,300.0000000048885,79.99999998575191,-0.0015131187610089227,1.1589908145997932e-09,-5.263350836282082e-06,-1.4487389024171515e-11,9.741280965291921e-05,-878.6348836726773,7000.8535100591,280.62534662388987
19.247036554999994,18.831000000000017,-893.520002976882,6999.91810878499,300.00000000504065,79.99999998617562,-0.0014905471698985896,1.0314597125259027e-09,-5.185142809955768e-06,-1.289325014109313e-11,9.769495455147492e-05,-870.7059683716326,7000.828207075733,280.5941909972663
19.383163139000004,18.966999999999985,-882.6400029787409,6999.9179071717635,300.000000005174,79.99999998658693,-0.0014683072581168487,9.067187592221144e-10,-5.107990011160018e-06,-1.1333988120679457e-11,9.797295345825852e-05,-858.6876156706943,7001.433219397058,280.2769998419911
19.519274061000004,19.101,-874.7200029800584,6999.917762311457,300.00000000526035,79.99999998687862,-0.0014523283437375715,8.179313378446457e-10,-5.052490123199682e-06,-1.0224145277678909e-11,9.8172689895204e-05,-849.9669506603636,7001.427258454491,280.23355853291883
19.62036817699999,19.201999999999998,-864.4000029817321,6999.917575922835,300.0000000053613,79.99999998724921,-0.0014317676911264905,7.033644579300929e-10,-4.981013957637695e-06,-8.79205918141772e-12,9.842969806239665e-05,-841.246285649995,7001.421299420083,280.19011722383595
19.725483558000008,19.29699999999997,-856.24000298302,6999.917430403073,300.00000000542946,79.99999998753484,-0.001415717866219254,6.143529120288815e-10,-4.925175430828792e-06,-7.679414785956888e-12,9.863032088053281e-05,-832.5256206395945,7001.415342218329,280.1466759147431
19.82680727799999,19.399,-848.0800029842826,6999.917286514775,300.0000000054897,79.99999998781416,-0.0013998444350201236,5.263050773055273e-10,-4.8699123039114236e-06,-6.578816776845599e-12,9.882873877797849e-05,-823.8049556291624,7001.409386862323,280.10323460564024
19.962605881,19.534999999999968,-837.2000029859195,6999.917097170238,300.00000000555497,79.99999998817695,-0.0013789565337637432,4.1277884728638917e-10,-4.797144725142256e-06,-5.159738806565057e-12,9.908983755324563e-05,-814.7753659484729,7000.882119898415,276.15565360087373
20.063980318999995,19.635999999999967,-829.1200029871068,6999.916958387153,300.0000000055942,79.99999998843937,-0.001363647254090559,3.298688713214538e-10,-4.743775069692604e-06,-4.123364037362092e-12,9.928120355628955e-05,-806.0496685930904,7000.85872497077,275.98157866594914
20.201925029999984,19.762999999999977,-821.6800029881741,6999.916831974238,300.00000000562295,79.99999998867575,-0.001349707383206502,2.556218534528459e-10,-4.695160547320558e-06,-3.1952762538340447e-12,9.945545194844918e-05,-797.323971237678,7000.835331838927,275.8075037310151
20.303465174999985,19.863999999999976,-810.8800029896888,6999.916650745999,300.0000000056528,79.99999998901055,-0.0013297168310080437,1.4993071874473566e-10,-4.625431499340429e-06,-1.874136978346537e-12,9.970533386072233e-05,-788.5982738822369,7000.8119404777835,275.63342879607205
20.40504824499999,19.966000000000008,-802.7200029908024,6999.916515598469,300.00000000566547,79.99999998925696,-0.0013148093441802105,7.27836084902337e-11,-4.573411990171527e-06,-9.097980322208623e-13,9.989167745372285e-05,-780.9629998004758,7000.005366082634,276.12320643001095
20.507315436,20.067999999999984,-794.5600029918875,6999.916381966088,300.00000000567184,79.99999998949784,-0.001300069484287985,-2.1036754643462013e-12,-4.521971610014435e-06,2.62930811167862e-14,0.00010007592570926427,-770.669232917361,6999.946007008496,275.9437975237195
20.642397958999993,20.202999999999975,-784.4000029932098,6999.9162176896725,300.0000000056662,79.99999998979023,-0.0012819508645901124,-9.308645994739358e-11,-4.458721303526932e-06,1.1635779685579697e-12,0.00010030240846470306,-759.5836378124225,6999.882084512845,275.75058793231585
20.779366683999996,20.331000000000017,-773.5200029945836,6999.916044290881,300.0000000056488,79.99999999009434,-0.0012628308456733382,-1.877093278338733e-10,-4.391968250434864e-06,2.346363899319161e-12,0.00010054140871051942,-750.8735273728049,6999.831861552259,275.59878039620406
20.91535754199998,20.466000000000008,-765.5200029955665,6999.915918448667,300.0000000056286,79.99999999031219,-0.0012489528128482351,-2.54693998957884e-10,-4.343528198803795e-06,3.1836723464680657e-12,0.00010071488412743967,-741.3312561635314,6999.29908727341,272.05253704102944
21.015998077000006,20.564999999999998,-754.8800029968417,6999.9157532192385,300.0000000055913,79.99999999059459,-0.0012307333302752357,-3.412529158121607e-10,-4.279930811536529e-06,4.265658883536023e-12,0.00010094262766835449,-731.8337204602631,6999.2265062621345,271.7609248188964
21.150346420999995,20.699000000000012,-744.4000029980613,6999.915592834796,300.00000000554263,79.99999999086468,-0.0012130475885486624,-4.223481453388038e-10,-4.218201487391681e-06,5.279349328026452e-12,0.00010116369944901393,-721.5447234483568,6999.147879027503,271.44501157824266
21.290887072999993,20.831000000000017,-736.2400029989847,6999.915469544885,300.0000000054982,79.99999999106964,-0.001199454596996414,-4.829207864601364e-10,-4.170766353661613e-06,6.0365073963806965e-12,0.00010133361184982981,-712.0471877450298,6999.07530195307,271.15339935609273
21.39288921299999,20.932999999999993,-722.8000030004649,6999.915269488024,300.0000000054105,79.99999999139736,-0.0011773962254465874,-5.783723001445968e-10,-4.093800715062509e-06,7.2296514077783505e-12,0.00010160934150538203,-700.7415986759723,6999.793634131489,274.2881730916285
21.52843679099999,21.067000000000007,-714.720003001329,6999.915150990432,300.00000000535084,79.99999999158855,-0.001164331527262795,-6.33219140005819e-10,-4.048224967417457e-06,7.915236958352465e-12,0.00010177265023902926,-691.2120465779359,6999.750834146195,274.1254600756086
21.663766514999992,21.201999999999998,-704.4000030024011,6999.915001561522,300.0000000052654,79.9999999918266,-0.0011478571178853893,-6.986236622217442e-10,-3.990765455322301e-06,8.732793552878169e-12,0.00010197858036486984,-677.7118477723396,6999.6902039245615,273.8949499695687
21.833862001,21.363999999999976,-688.3200030040148,6999.914772920316,300.00000000511704,79.99999999218426,-0.0011226546181735309,-7.946823650608175e-10,-3.902899865523621e-06,9.933527435560335e-12,0.00010229361162372719,-663.4175196251846,6999.626011091946,273.65088044551266
22.002109985999994,21.531000000000006,-677.5200030050605,6999.914622178404,300.0000000050069,79.9999999924157,-0.0011060377163531123,-8.547427214694568e-10,-3.844994846671973e-06,1.0684281953446681e-11,0.00010250132290456904,-654.2620970547824,7000.527178281814,273.5660724716263
22.137422213999997,21.665999999999997,-669.4400030058209,6999.914510862531,300.000000004919,79.99999999258438,-0.0010937670642191689,-8.967550477341755e-10,-3.80224525474299e-06,1.1209436077470712e-11,0.00010265470606229954,-649.4925680972747,7000.522908847287,273.48593629281055
22.238318131,21.762999999999977,-658.9600030067807,6999.91436832623,300.0000000047987,79.99999999279767,-0.0010780570347643853,-9.477720721706334e-10,-3.747517672806923e-06,1.1847148942674712e-11,0.00010285108143870403,-635.1839812247216,7000.510102799929,273.24552775635624
22.373538957999983,21.89699999999999,-650.9600030074962,6999.914260896683,300.0000000047023,79.99999999295638,-0.001066215881625734,-9.848011569826984e-10,-3.7062919762437974e-06,1.2310012544825584e-11,0.00010299909585853584,-625.6449233096622,7000.50156726942,273.0852553987148
22.474956907000006,21.99799999999999,-640.1600030084351,6999.914117732857,300.00000000456697,79.99999999316513,-0.0010504356186014831,-1.0316377195928186e-09,-3.651357869086208e-06,1.2895469634788125e-11,0.00010319634915423315,-617.7349645943077,7000.706440406905,271.04059337116684
22.576779537999982,22.099999999999966,-632.0800030091202,6999.914012012985,300.0000000044618,79.99999999331729,-0.0010387829737825308,-1.064793410381176e-09,-3.6108022429856335e-06,1.3309915810760289e-11,0.00010334200722006415,-608.9975232253004,7000.705782925427,270.8292248097168
22.712976647000005,22.235000000000014,-624.4000030097596,6999.913912621827,300.00000000435887,79.99999999345879,-0.0010278276466971336,-1.0950083775280085e-09,-3.5726783965336774e-06,1.3687602940104423e-11,0.00010347894881457265,-599.4657690045467,7000.705067186275,270.5986409244948
22.818739131,22.331000000000017,-613.5200030106419,6999.9137735957565,300.0000000042083,79.99999999365416,-0.001012506367856027,-1.1347993243302017e-09,-3.51937270623552e-06,1.4184989827903162e-11,0.00010367046480741493,-589.9340147837776,7000.704353056667,270.36805703926944
22.954302136999985,22.466999999999985,-602.6400030114925,6999.913636642315,300.00000000405134,79.99999999384377,-0.000997411176389224,-1.1697122021401586e-09,-3.466872947881202e-06,1.4621400851458775e-11,0.0001038591547080081,-812580.3320600812,190211.85402766158,-5984847.853859968
23.090547824999987,22.60300000000001,-594.4800030121147,6999.913535268885,300.0000000039324,79.99999999398229,-0.0009862377678632544,-1.194465279002877e-09,-3.4280166240939844e-06,1.4930814349467164e-11,0.00010399882232015045,-847687.1783232292,198135.49368376355,-6243696.576825273
23.226237169,22.738,-581.8400030130531,6999.913380494003,300.0000000037409,79.99999999419074,-0.0009691823734869152,-1.2283555588681795e-09,-3.368711053153322e-06,1.5354442903325524e-11,0.00010421201475785402,-877778.7608345024,204927.18481916303,-6465566.910795565
23.363730688999993,22.863,-573.6800030136403,6999.913281989556,300.0000000036157,79.99999999432151,-0.0009583261578500531,-1.248146955955506e-09,-3.330968464212717e-06,1.5601835404534164e-11,0.00010434771745937432,-905362.7114698238,211152.9016946333,-6668948.050268244
23.465165351999985,22.964,-565.6800030142037,6999.913186491352,300.0000000034898,79.9999999944469,-0.0009478008736965813,-1.2649186030568616e-09,-3.2943940231829318e-06,1.5811481026288236e-11,0.00010447928351609015,-1482185.8159759794,341301.1270086675,-10918464.364121286
23.566453677999988,23.064999999999998,-554.8800030149454,6999.913059227423,300.0000000033198,79.99999999461187,-0.0009337747850905295,-1.2858761267296273e-09,-3.2456520096638286e-06,1.607345011677957e-11,0.00010465460963060558,-1528676.9435163857,351792.79543883936,-11261131.33870189
23.667945688999993,23.165999999999997,-544.4000030156432,6999.912937540742,300.00000000314884,79.9999999947673,-0.0009203625785855929,-1.3016161746533546e-09,-3.1990477979548952e-06,1.6270200758614767e-11,0.0001048222622186401,-1608979.8001770766,369914.76818476437,-11853010.658431945
23.874886470999996,23.36500000000001,-530.8000030165194,6999.912782219168,300.0000000029269,79.9999999949624,-0.000903244984006362,-1.318665033362858e-09,-3.1395751329288597e-06,1.6483311544245587e-11,0.0001050362321588505,-1668150.3261375804,383267.80073663685,-12289132.262443526
24.01128751799999,23.500999999999976,-519.9200030171988,6999.912660044614,300.00000000274935,79.99999999511328,-0.0008897788469046874,-1.3303399179735922e-09,-3.092790344888067e-06,1.66292476426145e-11,0.00010520455887919056,-2064138.5589309572,472613.2423376372,-15204130.76059725
24.113716705,23.60300000000001,-511.7600030176942,6999.912569610536,300.00000000261144,79.99999999522356,-0.000879811097302439,-1.3362160155528502e-09,-3.0581586428640993e-06,1.6702698892094178e-11,0.00010532915575423019,-2132998.3570493227,488152.16346021986,-15711521.608397743
24.249724705999995,23.738999999999976,-501.44000301830295,6999.912456696549,300.00000000243705,79.9999999953594,-0.0008673680358493571,-1.3402697247374004e-09,-3.014925880675393e-06,1.675337029259969e-11,0.00010548469402804628,-2201858.155167688,503691.0845844065,-16218912.456198238
24.385887999000005,23.867999999999995,-487.840003019081,6999.912310318649,300.0000000022072,79.99999999553273,-0.0008512338829477248,-1.34398115417991e-09,-2.9588742261822087e-06,1.6799763208534893e-11,0.0001056863709476552,-2467927.9539273116,563723.2942057814,-18175256.478161696
24.556017010999994,24.03800000000001,-476.9600030196812,6999.9121951792,300.0000000020233,79.99999999566676,-0.0008385427763211007,-1.3440473359607555e-09,-2.914785954190944e-06,1.680059051655166e-11,0.00010584500978638722,-2545142.063304516,581147.0712902228,-18744032.467930697
24.69259148500001,24.173000000000002,-466.2400030202539,6999.912083415075,300.0000000018421,79.99999999579492,-0.0008262239506419709,-1.3412615927713982e-09,-2.8719857401095655e-06,1.6765768761297396e-11,0.00010599899511354316,-2615336.7081928835,596986.868641073,-19261101.549538877
24.827894464999986,24.298000000000002,-458.88000302063745,6999.912007642297,300.00000000171775,79.99999999588073,-0.0008178755351963808,-1.3376642293413696e-09,-2.8429716734989475e-06,1.672080174267043e-11,0.00010610335031091545,-2673832.2455998342,610186.6997677386,-19691992.450878866
24.92988577699998,24.399999999999977,-450.7200030210535,6999.911924516221,300.0000000015798,79.99999999597388,-0.0008087129099563802,-1.3322360233344612e-09,-2.8111545426000986e-06,1.665294919109581e-11,0.00010621788313036618,-2738177.33674751,624706.5140081187,-20165972.442353074
25.031888750000007,24.50200000000001,-439.8400030215935,6999.911815128322,300.000000001399,79.99999999609484,-0.0007966554236600771,-1.3234884007254281e-09,-2.7692690879795022e-06,1.6543603941143493e-11,0.00010636860171486795,-2853233.939998071,650664.1649596269,-21008548.467524815
25.133891654999985,24.603999999999985,-431.6800030219887,6999.911734158981,300.0000000012658,79.99999999618323,-0.0007877303300640251,-1.3161759393194866e-09,-2.7382615629331756e-06,1.645219819741598e-11,0.00010648016538916671,-2919252.1781612057,665561.3484570776,-21494685.847147755
25.270088991999984,24.74000000000001,-424.4000030223351,6999.911662698532,300.000000001147,79.9999999962604,-0.0007798533330891836,-1.3088482441594952e-09,-2.7108937369568456e-06,1.636060202973927e-11,0.00010657862785556915,-2985270.416324306,680458.5319555196,-21980823.22677045
25.371126736000008,24.829999999999984,-413.760003022827,6999.911559527885,300.0000000009734,79.9999999963704,-0.0007684850114288766,-1.2954228809107964e-09,-2.6713926169108178e-06,1.619278501842241e-11,0.00010672073188189302,-3051288.65448744,695355.7154549828,-22466960.60639339
25.472273264999984,24.930000000000007,-405.60000302319554,6999.911481421695,300.0000000008402,79.99999999645264,-0.0007598756930564804,-1.2835109276756248e-09,-2.641490782128156e-06,1.6043885624235718e-11,0.0001068283483651733,-3071857.2494778065,699993.9353029205,-22612868.999655675
25.608242701999984,25.065999999999974,-397.6000030235475,6999.911405699188,300.00000000071276,79.9999999965315,-0.0007515287319852733,-1.2710560033498378e-09,-2.6124921771961176e-06,1.5888199091792698e-11,0.0001069326853828656,-3136270.430728697,714528.8257287837,-23086996.217115387
