Real_time_s,Simulation_time_s,x_ft,y_ft,alt_ft,vx_fps,vy_fps,vz_fps,roll_rad,pitch_rad,yaw_rad
0.0,0.0,0.0004949420532662766,4066.5599999964616,280.00000000455054,0.0006185115980432537,24.383999992155605,2.1914879652792617e-09,0.00014644901195478576,-8.987401789581004e-11,1.5708872881278642
0.10234642399998961,0.10199999999997544,0.0007164498543404994,4074.719999993505,280.00000000531463,0.0007608598514713302,24.383999988129375,2.017430290568419e-09,0.00015064761022940472,-8.273582573171609e-11,1.5708814503552477
0.23789168700000118,0.23599999999999,0.0010813239195569555,4085.4399999873617,280.00000000616933,0.0009546005519230908,24.383999981314375,1.643413701510903e-09,0.00015274548820633303,-6.73972185705066e-11,1.5708735049526519
0.3417288180000071,0.3310000000000173,0.001392412168800426,4093.039999981055,280.0000000066419,0.0010940436759576066,24.383999975456657,1.2995214044188827e-09,0.00015215513002926953,-5.329402370801706e-11,1.5708677863205898
0.44300859699998796,0.43200000000001637,0.0017705456251592365,4101.11999997225,280.00000000700555,0.0012421018282275562,24.38399996836419,8.825337159970612e-10,0.00014991984621975067,-3.6193150310549066e-11,1.570861714381841
0.5449586649999958,0.5339999999999918,0.0022020928400147185,4109.279999960906,280.00000000721326,0.001389819591502734,24.38399996039214,4.2681982076736e-10,0.000146200743408078,-1.7504095219176945e-11,1.5708556564025342
0.6802377799999988,0.6689999999999827,0.0028488061121563356,4120.079999941609,280.0000000072314,0.0015799850590922325,24.3839999488117,-1.911455865812271e-10,0.00013933451440910753,7.8389746950569e-12,1.570847857621544
0.8171497509999881,0.7969999999999686,0.0035391347112302576,4130.319999918394,280.0000000069806,0.0017520130028832858,24.383999937058157,-7.777278744714577e-10,0.0001311404975942664,3.1895007780182415e-11,1.5708408026693819
0.9193224770000086,0.8990000000000009,0.004139856414890042,4138.479999896322,280.00000000660566,0.0018822696932317142,24.383999927351184,-1.2125359850585814e-09,0.00012374394136850506,4.972670562266527e-11,1.570835460777183
1.0541901039999857,1.0330000000000155,0.004993987993078683,4149.199999862349,280.000000005893,0.002042420209998369,24.383999914462798,-1.7418895699155753e-09,0.00011307856973051037,7.143576102695967e-11,1.5708288929240881
1.1553132210000001,1.1329999999999814,0.005676290114717425,4157.199999833263,280.0000000052166,0.002153073035418982,24.383999904943387,-2.0932887674853557e-09,0.0001046241920457035,8.584681799656728e-11,1.5708243549961076
1.2947778379999875,1.2629999999999768,0.006616112820808106,4167.599999790831,280.0000000041789,0.0022848513729079125,24.383999892951476,-2.489574352993262e-09,9.323110748279628e-05,1.0209868861406389e-10,1.5708189507001677
1.4308880859999817,1.3979999999999677,0.007648958906910902,4178.399999741473,280.000000002945,0.0024066100837789326,24.383999881238353,-2.814543758626899e-09,8.116453678744571e-05,1.1542584645246948e-10,1.5708139573141142
1.5328115000000082,1.4989999999999668,0.008455730821550761,4186.479999701217,280.00000000194075,0.0024875519717100876,24.383999873115346,-3.0044225264150825e-09,7.212328134942778e-05,1.232128696149865e-10,1.5708106378464608
1.667409488000004,1.632000000000005,0.009557205155137022,4197.119999644228,280.0000000005392,0.002580700227950849,24.38399986343485,-3.200206253994481e-09,6.0363984448654856e-05,1.3124205846374334e-10,1.5708068177894106
1.768702888000007,1.733000000000004,0.010419522175129177,4205.199999598219,279.9999999994322,0.002641366594640982,24.383999856938708,-3.3071292983688686e-09,5.1641478518611965e-05,1.356270259776193e-10,1.570804329831014
1.9096411129999922,1.865000000000009,0.01157505503074386,4215.75999953499,279.99999999794744,0.002707750305221181,24.383999849657403,-3.3882507197535987e-09,4.062999875142482e-05,1.3895385608133737e-10,1.5708016074013749
2.0104155310000067,1.964999999999975,0.012468430245077216,4223.759999485097,279.9999999968112,0.0027487374525984615,24.383999845071504,-3.419768779753915e-09,3.26415319163872e-05,1.4024642777270063e-10,1.57079992649761
2.111516069000004,2.065999999999974,0.013383520181531274,4231.8399994332785,279.9999999956617,0.0027823013605775175,24.38399984126483,-3.4188729467842526e-09,2.493237352389847e-05,1.4020968891631806e-10,1.5707985500246093
2.2805685539999843,2.23599999999999,0.014945728824245478,4245.439999343548,279.9999999937452,0.0028219432965533487,24.383999836709325,-3.3790760458619643e-09,1.2853740382819833e-05,1.385775990994946e-10,1.5707969242884259
2.3845642629999872,2.3310000000000173,0.015827150064662926,4253.039999292434,279.99999999269136,0.0028352060230763016,24.383999835170833,-3.3312219678267603e-09,6.63936742443931e-06,1.3661507919011893e-10,1.5707963803770795
2.5203373469999804,2.464999999999975,0.01707603467713807,4263.759999219686,279.9999999912373,0.002844419788983525,24.383999834097782,-3.2483557009908776e-09,-1.4521864670176488e-06,1.332166925543685e-10,1.5707960025155316
2.6210774850000007,2.565999999999974,0.018019122914231186,4271.839999164627,279.99999999016967,0.0028443926031692197,24.38399983410095,-3.174542554289288e-09,-7.0218904619453875e-06,1.301895786725138e-10,1.570796003630152
2.722786966000001,2.666999999999973,0.018961584874257618,4279.919999109655,279.9999999891289,0.002838868156420639,24.383999834744756,-3.094414235864627e-09,-1.2130302968133712e-05,1.2690347651202031e-10,1.5707962301902063
2.8615449330000047,2.7969999999999686,0.020170851464165872,4290.3199990393405,279.99999998783153,0.0028242220548993354,24.383999836445515,-2.992333477759585e-09,-1.8020244155124636e-05,1.2271709376521017e-10,1.5707968308338385
2.9972074309999925,2.9320000000000164,0.021418726983348287,4301.1199989672305,279.9999999865348,0.002801295562887142,24.383999839090155,-2.878937177995009e-09,-2.336412534812923e-05,1.1806665508713135e-10,1.570797771060439
3.1659571319999884,3.099999999999966,0.022955410241419,4314.5599988793765,279.9999999849909,0.002763080001046773,24.383999843450514,-2.7405279600644633e-09,-2.8928854476076712e-05,1.1239042402602336e-10,1.5707993382994128
3.268026259999999,3.201999999999998,0.023877439018551227,4322.719998827299,279.9999999840873,0.0027354482814063784,24.383999846565953,-2.660010028148699e-09,-3.175461084010276e-05,1.0908834371511022e-10,1.5708004714898758
3.3724704469999836,3.2969999999999686,0.02472749274533183,4330.319998779738,279.99999998327075,0.0027070457644770103,24.38399984973567,-2.5858998708382123e-09,-3.4013245699695975e-05,1.0604904896743144e-10,1.5708016362911479
3.507894403999984,3.4320000000000164,0.025919799199933737,4341.119998713927,279.99999998214724,0.002663151639532229,24.38399985456917,-2.484625427317619e-09,-3.668226345555912e-05,1.018957335771186e-10,1.5708034364109724
3.6099838529999886,3.533999999999992,0.026807435940909032,4349.279998665654,279.99999998132773,0.002627623963172258,24.38399985842352,-2.412072612758395e-09,-3.828868089656887e-05,9.892030669253222e-11,1.5708048934186205
3.7118887459999996,3.634999999999991,0.02767443314674575,4357.359998619138,279.9999999805398,0.002590807377041018,24.38399986236308,-2.3407773809977843e-09,-3.9553827793696016e-05,9.599645359428441e-11,1.5708064032851188
3.8142292889999965,3.7369999999999663,0.02853748539904895,4365.5199985735035,279.99999997976624,0.0025523120904709564,24.38399986642283,-2.271341616258526e-09,-4.052950558088506e-05,9.31488583911632e-11,1.5708079819959735
3.9523155659999816,3.863999999999976,0.029593676579386385,4375.679998518602,279.99999997883583,0.0025029490811460772,24.383999871539757,-2.186789823311483e-09,-4.1345959526646226e-05,8.968134721442592e-11,1.5708100063975674
4.054355549999997,3.964999999999975,0.03041894109439489,4383.759998476432,279.9999999781186,0.002462944278318979,24.383999875613316,-2.122070503585856e-09,-4.1723177382537126e-05,8.702717562027564e-11,1.5708116470144675
4.15565223599998,4.067000000000007,0.031238877339227554,4391.91999843521,279.99999997741634,0.0024221199667230934,24.383999879702667,-2.057764010098498e-09,-4.18735181096579e-05,8.438993429028211e-11,1.5708133212398416
4.290888488000007,4.201999999999998,0.032302985625293455,4402.719998382772,279.99999997651804,0.0023678153219397076,24.3839998850364,-1.9716291864721513e-09,-4.1760224200079034e-05,8.085750225297374e-11,1.5708155483004174
4.429366224000006,4.331000000000017,0.033297206144601056,4413.0399983348825,279.9999999756957,0.0023160392407634077,24.383999890009154,-1.887243132309755e-09,-4.135987408031421e-05,7.739678810906236e-11,1.5708176716633528
4.530330797000005,4.430000000000007,0.03404540033009242,4420.959998299542,279.9999999750878,0.0022766040820246525,24.38399989372289,-1.8225058683779678e-09,-4.088610451747002e-05,7.474188068383827e-11,1.5708192889189072
4.631739737999993,4.531999999999982,0.03480296868383321,4429.119998264381,279.99999997448333,0.0022364100989224157,24.38399989744246,-1.7535011200491546e-09,-4.0271718493250005e-05,7.191196153705508e-11,1.5708209372942334
4.732884179999985,4.632999999999981,0.035539882354170466,4437.199998230796,279.9999999739072,0.0021971756386144387,24.383999901009336,-1.6834745342275645e-09,-3.955134365252477e-05,6.904013628562756e-11,1.5708225463190568
4.906162048999988,4.796999999999969,0.03670892224479442,4450.319998178717,279.9999999730213,0.00213496490601711,24.383999906535625,-1.568151906946862e-09,-3.818937905175262e-05,6.431069787354816e-11,1.5708250976122997
5.007495651999989,4.897999999999968,0.03741240435173754,4458.399998148098,279.99999997250654,0.0020976964450450863,24.383999909770218,-1.4946962329340032e-09,-3.725981074530868e-05,6.12982440143222e-11,1.5708266260105204
5.1089537499999835,4.9979999999999905,0.03809681980148289,4466.399998118828,279.99999997202065,0.002061677156348884,24.38399991284227,-1.4215724514451764e-09,-3.628555289142652e-05,5.829940131048478e-11,1.5708281031795648
5.210672875,5.099999999999966,0.03878288372479678,4474.559998089982,279.9999999715498,0.0020258811010592406,24.38399991584257,-1.3452996195510265e-09,-3.525233754323822e-05,5.517141431549328e-11,1.570829571193699
5.312577492000003,5.201999999999998,0.03945707136341849,4482.719998062153,279.9999999711044,0.001991089897523199,24.383999918708287,-1.2683530640186033e-09,-3.4190253758801755e-05,5.201579766819222e-11,1.570830997998363
5.450718585000004,5.329999999999984,0.04028671537271075,4492.95999802852,279.9999999705822,0.0019489335885696055,24.383999922114153,-1.171235353107222e-09,-3.283430758234586e-05,4.803295194450103e-11,1.570832726849689
5.552616078999989,5.430000000000007,0.04092275059626912,4500.95999800325,279.9999999702046,0.0019171400393472968,24.383999924634598,-1.0908768053640608e-09,-3.176931671734955e-05,4.47374077819601e-11,1.5708340307190545
5.721471541999989,5.598000000000013,0.041968238577985095,4514.399997962564,279.99999996962777,0.001866019651073813,24.383999928600243,-9.55805113220044e-10,-2.999287683848913e-05,3.9198050185955814e-11,1.570836127191766
5.822886654000001,5.699999999999989,0.042589472365445045,4522.559997938919,279.9999999693139,0.0018363863806663226,24.383999930849978,-8.73680295483493e-10,-2.893397597897135e-05,3.583007043053135e-11,1.570837342467018
5.963636264000002,5.829999999999984,0.04336699464880101,4532.95999790987,279.9999999689564,0.0018001437420445466,24.38399993355252,-7.657156628028254e-10,-2.7617980538128625e-05,3.140238699599746e-11,1.570838828795772
6.0650365749999935,5.930999999999983,0.04396058751776447,4541.039997888039,279.9999999687099,0.0017731147129444323,24.38399993553296,-6.8332560431608e-10,-2.662804994497452e-05,2.802352944695271e-11,1.5708399372697865
6.166842506999984,6.031999999999982,0.044545327121968174,4549.119997866885,279.9999999684886,0.001747050724601344,24.38399993741432,-5.985175673254951e-10,-2.5670224030439856e-05,2.4545509483110488e-11,1.5708410061669968
6.268356538000006,6.1340000000000146,0.04512720799076084,4557.279997846132,279.99999996829365,0.0017216755663866344,24.383999939219184,-5.129564676164911e-10,-2.47394314708856e-05,2.1036606137275564e-11,1.5708420468149389
6.4083487169999955,6.26400000000001,0.04585663097192784,4567.679997820538,279.9999999680869,0.0016906755056809906,24.383999941388304,-4.0380073800320464e-10,-2.3610785625840427e-05,1.6560075078391303e-11,1.5708433181429498
6.509969359999985,6.3659999999999854,0.046419872841874786,4575.839997801103,279.9999999679585,0.001667354102127733,24.383999942994155,-3.183634528683433e-10,-2.2773000896707293e-05,1.3056249327462869e-11,1.570844274565382
6.64573575899999,6.500999999999976,0.04715350969534366,4586.6399977762,279.9999999678325,0.0016377418489038076,24.38399994500105,-2.0754471769884563e-10,-2.172968184349386e-05,8.511517633755304e-12,1.5708454889787096
6.781396381999997,6.635999999999967,0.04787425792261925,4597.439997752154,279.9999999677569,0.001609493483087368,24.38399994688198,-9.978819736092892e-11,-2.076357337103578e-05,4.092368845599707e-12,1.5708466474583298
6.919752939000006,6.762999999999977,0.04854098697427491,4607.599997730274,279.9999999677293,0.0015840741377321718,24.383999948546553,-3.189544473529071e-13,-1.9925407296990554e-05,1.3085441001700789e-14,1.5708476899184063
7.021335618999984,6.8659999999999854,0.04907411660861121,4615.839997713003,279.9999999677372,0.0015642257389550088,24.38399994982791,7.832137335818702e-11,-1.9295422313096854e-05,-3.211993725396492e-12,1.5708485039111693
7.190891249000003,7.036000000000001,0.04993959918227576,4629.439997685463,279.99999996780855,0.0015328089322514695,24.38399995182305,2.0798525176503805e-10,-1.8348406945656695e-05,-8.529574146800049e-12,1.5708497923301301
7.292411802999993,7.1370000000000005,0.05044560156587295,4637.51999766961,279.999999967884,0.001514885485509787,24.38399995294315,2.8322021141136207e-10,-1.783983452640506e-05,-1.1614997456671147e-11,1.5708505273796465
7.429566749000003,7.262999999999977,0.05106856271379037,4647.599997650353,279.99999996801404,0.0014932300571349933,24.38399995427889,3.743311781411547e-10,-1.7259091699819066e-05,-1.5351503820590102e-11,1.5708514154795965
7.530451761999984,7.3629999999999995,0.05155671030485421,4655.599997635476,279.99999996814455,0.0014765621158678078,24.383999955293906,4.460155091826872e-10,-1.6838848413312962e-05,-1.8291314099686397e-11,1.570852099040201
7.665250417999999,7.4979999999999905,0.052207142678265886,4666.3999976158875,279.9999999683561,0.0014546907580660813,24.383999956608505,5.391779376850997e-10,-1.632338454074062e-05,-2.211195187217798e-11,1.5708529959955189
7.766789663999987,7.5989999999999895,0.05268748374466626,4674.479997601614,279.99999996854126,0.0014387700114481762,24.383999957553108,6.071903406241513e-10,-1.5975187274332518e-05,-2.490117457392728e-11,1.5708536489132963
7.901810678000004,7.7339999999999804,0.05332136900587037,4685.279997583006,279.9999999688244,0.0014180245877267942,24.38399995876835,6.9417264724919e-10,-1.555597186593437e-05,-2.8468362490643865e-11,1.5708544996934914
8.007988920000003,7.829999999999984,0.05376654691947321,4692.959997570097,279.99999996904836,0.0014036162833967949,24.38399995960199,7.538739246333608e-10,-1.5287933111468957e-05,-3.09167417585261e-11,1.5708550905852519
8.109376419,7.932000000000016,0.05423465255043801,4701.119997556672,279.99999996930677,0.0013885767736486157,24.383999960463072,8.157326685508895e-10,-1.5027821593180144e-05,-3.34535998044777e-11,1.570855707363061
8.21129622799998,8.033999999999992,0.054697754841620955,4709.279997543527,279.99999996958576,0.0013737971986233911,24.38399996130023,8.751568147825729e-10,-1.4790947364656357e-05,-3.589061379179675e-11,1.570856313480816
8.347637125999995,8.168999999999983,0.055303126361780856,4720.079997526582,279.9999999699854,0.0013545982550769602,24.383999962374347,9.522906638568027e-10,-1.4510479688822844e-05,-3.9053911576114933e-11,1.5708571008390806
8.485664029999981,8.296999999999969,0.055869266609035885,4730.3199975109155,279.9999999703941,0.0013367398440689536,24.38399996335989,1.019570773896711e-09,-1.4275689742528002e-05,-4.181310258411186e-11,1.5708578332214351
8.5865498,8.396999999999991,0.05630639685069443,4738.319997498999,279.9999999707345,0.0013229890590173965,24.38399996410984,1.0718776776184197e-09,-1.410998287352444e-05,-4.395823489198057e-11,1.5708583971479966
8.687234483999987,8.49799999999999,0.056743344671858396,4746.3999974871895,279.9999999710943,0.001309264817025832,24.383999964850602,1.1215077464600476e-09,-1.3957345282737996e-05,-4.599358888978365e-11,1.5708589599860134
8.822268014999992,8.632999999999981,0.05732031962182255,4757.199997471755,279.999999971601,0.0012911543971652229,24.38399996581629,1.1828689535329334e-09,-1.3772826911047983e-05,-4.851004274551631e-11,1.5708597027033737
8.923183567999985,8.733000000000004,0.0577425484327295,4765.199997460583,279.9999999719926,0.0012778963310277446,24.3839999665147,1.2251276715551724e-09,-1.3648650877493067e-05,-5.0243093968391065e-11,1.570860246423285
9.030328048000001,8.829999999999984,0.05814794792062531,4772.959997449966,279.99999997238626,0.0012651546007043657,24.383999967179122,1.2640246996284425e-09,-1.353703761616341e-05,-5.1838280589193604e-11,1.570860768968006
9.166675276000007,8.966000000000008,0.05870958643146999,4783.839997435432,279.99999997296015,0.001247462389430618,24.383999968090656,1.315966400407592e-09,-1.3392410263712142e-05,-5.396843579432017e-11,1.5708614945344215
9.33604703399999,9.135999999999967,0.05940058812648605,4797.439997417835,279.99999997370674,0.001225612156743119,24.38399996919871,1.375759816567808e-09,-1.3227260652408562e-05,-5.642059380577615e-11,1.57086239062337
9.438217460999994,9.236999999999966,0.0598053654873643,4805.519997407681,279.99999997416666,0.0012127592053625433,24.383999969841348,1.4090340503924704e-09,-1.3135372184172662e-05,-5.7785186837548664e-11,1.5708629177293212
9.542481562999996,9.329999999999984,0.0601742795133954,4812.959997398546,279.99999997459906,0.0012010074720000803,24.383999970423,1.4394153875733e-09,-1.3053869145077468e-05,-5.903114072980663e-11,1.5708633996737713
9.644206913000005,9.432000000000016,0.060574835073185944,4821.119997388723,279.9999999750841,0.0011881991839042243,24.38399997105049,1.4709664203644937e-09,-1.2967000942389172e-05,-6.032506444076074e-11,1.5708639249480583
9.779991564999989,9.567999999999984,0.06110226080376624,4831.999997375913,279.99999997574514,0.0011712539029112685,24.38399997187032,1.5070136707791673e-09,-1.2853859946774826e-05,-6.180338030407293e-11,1.5708646198824887
9.882059725999994,9.670000000000016,0.061492880449924896,4840.1599973665725,279.9999999762524,0.0011586421342561165,24.383999972472857,1.533683754674895e-09,-1.2770151818209063e-05,-6.28971338521587e-11,1.5708651370974154
9.985577479,9.762999999999977,0.06184531369328756,4847.599997358239,279.9999999767219,0.0011472158757214667,24.383999973013115,1.5566417978049539e-09,-1.2694112537579159e-05,-6.38386547637882e-11,1.5708656056939805
10.12030942299998,9.896999999999991,0.06234706358436886,4858.319997346519,279.9999999774111,0.0011308728265783437,24.38399997377654,1.5867264255492674e-09,-1.2584204748072748e-05,-6.507244048819887e-11,1.570866275930582
10.221888089999993,9.99799999999999,0.06272051376650332,4866.399997337873,279.9999999779385,0.0011186461268396979,24.383999974340526,1.6054983045127568e-09,-1.2500561706608185e-05,-6.584228470956282e-11,1.57086677735364
10.356312919000004,10.130999999999972,0.06320611054885862,4877.039997326791,279.9999999786423,0.0011026695374126388,24.38399997506823,1.6284564935887248e-09,-1.2388692749200197e-05,-6.678381162580888e-11,1.5708674325615462
10.457505542000007,10.233000000000004,0.06357382633053686,4885.199997318516,279.99999997918917,0.0010905128683749937,24.38399997561494,1.6443587914370287e-09,-1.230123126882329e-05,-6.743597289181222e-11,1.5708679311126106
10.598993581000002,10.365000000000009,0.06404364907059523,4895.759997308057,279.99999997990466,0.0010749087889883697,24.383999976307813,1.6612405889566687e-09,-1.2185485422284255e-05,-6.812830396604372e-11,1.570868571043694
10.700426708999998,10.464999999999975,0.06439509266671878,4903.759997300341,279.9999999804502,0.0010631841030429995,24.383999976821848,1.6723253747578972e-09,-1.2095725350488043e-05,-6.858289665972545e-11,1.5708690518789166
10.83525050999998,10.599999999999966,0.06486346940738613,4914.559997290193,279.99999998119284,0.0010474917685050844,24.38399997750101,1.684892293414041e-09,-1.1971517691850242e-05,-6.90982723851861e-11,1.5708696954293884
10.937036947999985,10.701999999999998,0.0652127621265054,4922.719997282727,279.9999999817588,0.0010357416541307625,24.383999978002947,1.6924086385272966e-09,-1.1875298006375335e-05,-6.940652154316238e-11,1.5708701773074436
11.038563213000003,10.795999999999992,0.06553114169460177,4930.239997275988,279.9999999822803,0.001024998938712596,24.383999978456895,1.6976447961872663e-09,-1.1784758715131125e-05,-6.962125907267826e-11,1.570870617871565
11.140318762999982,10.897999999999968,0.0658729260590522,4938.399997268828,279.99999998284943,0.001013430811795636,24.38399997894043,1.701560079394783e-09,-1.1684678339533389e-05,-6.978182688094782e-11,1.570871092286224
11.275887921999981,11.033999999999992,0.06632263786030296,4949.2799972595385,279.9999999836103,0.0009981583367246463,24.383999979570383,1.703629016293066e-09,-1.1548178952290828e-05,-6.986667513350371e-11,1.57087171861805
11.411796616999993,11.170000000000016,0.0667655634362989,4960.159997250534,279.9999999843712,0.0009830638759809767,24.383999980183603,1.7040688421459235e-09,-1.1408396059232746e-05,-6.988471272637351e-11,1.5708723376494198
11.514944437999986,11.262999999999977,0.06706454014285668,4967.599997244533,279.99999998489153,0.0009728477750206053,24.38399998059334,1.7026096286887735e-09,-1.131103737448811e-05,-6.982486974785307e-11,1.5708727566168206
11.616838565999984,11.363999999999976,0.06738575273983619,4975.679997238148,279.9999999854566,0.0009618532577757057,24.38399998102951,1.699020868058032e-09,-1.1203826451991445e-05,-6.967769296127346e-11,1.570873207507461
11.785468729999991,11.533000000000015,0.06791512237181278,4989.199997227789,279.99999998639584,0.000943683255581594,24.383999981739485,1.6891426591197672e-09,-1.1021453541127053e-05,-6.927258281852201e-11,1.5708739526683215
11.920885260999995,11.668999999999983,0.06833385109655946,5000.079997219723,279.9999999871472,0.0009292763621314164,24.383999982292806,1.6774974345570637e-09,-1.0872293335663172e-05,-6.879500645417565e-11,1.5708745435022144
12.025083241000004,11.762999999999977,0.0686194867766409,5007.599997214289,279.9999999876642,0.0009194331506279024,24.383999982665955,1.6666781488857316e-09,-1.0768162591378216e-05,-6.835130221995308e-11,1.5708749471772325
12.16067783599999,11.896999999999991,0.06902148389096888,5018.319997206744,279.9999999883936,0.0009055657156340851,24.3839999831849,1.6503901043687372e-09,-1.0618588185574664e-05,-6.768332148287078e-11,1.5708755158876646
12.262696317000007,11.998999999999967,0.06932341885343511,5026.479997201157,279.99999998894367,0.0008951364076460888,24.383999983569993,1.6360589222111433e-09,-1.0504043567305223e-05,-6.709559262911324e-11,1.570875943598792
12.364336173999988,12.099999999999966,0.06961896065853626,5034.559997195751,279.9999999894836,0.000884919976164433,24.3839999839429,1.6208466001432786e-09,-1.0390195748504834e-05,-6.647172777010939e-11,1.5708763625797477
12.465741726999994,12.200999999999965,0.06991112852131702,5042.639997190469,279.99999999001886,0.0008748135339893,24.38399998430758,1.6048963628588407e-09,-1.027607677874571e-05,-6.581760065837305e-11,1.5708767770499872
12.605198189999982,12.331000000000017,0.07028225904024116,5053.039997183852,279.99999999070064,0.0008619714096762274,24.383999984764934,1.5824427146582546e-09,-1.0129036128537776e-05,-6.489676541786933e-11,1.5708773037119172
12.707038413999982,12.432999999999993,0.07056965563694576,5061.199997178798,279.99999999122707,0.0008520210744029111,24.38399998511464,1.5638649443269356e-09,-1.0013753694970576e-05,-6.413488185778323e-11,1.570877711780135
12.80804299799999,12.531999999999982,0.07084541045558373,5069.119997173991,279.99999999173326,0.0008424726909780303,24.38399998544641,1.5441216964150091e-09,-9.90205067214788e-06,-6.332520146684574e-11,1.5708781033641064
12.942599734999988,12.666999999999973,0.07121648184191084,5079.91999716762,279.999999992413,0.0008296225988915931,24.383999985887,1.516358125176461e-09,-9.750272295645958e-06,-6.21866036287693e-11,1.5708786303527988
13.08169952099999,12.796999999999969,0.07156843847936542,5090.319997161677,279.9999999930555,0.0008174367242869242,24.383999986298566,1.4890403354016574e-09,-9.604955817823984e-06,-6.106628750862246e-11,1.570879130101601
13.183568302999987,12.897999999999968,0.07183832429347418,5098.399997157151,279.9999999935468,0.0008080927512043081,24.383999986610014,1.4648111787030378e-09,-9.492765072882573e-06,-6.007263776859877e-11,1.5708795133026026
13.284948824999987,12.99799999999999,0.07210249368671802,5106.399997152792,279.9999999940255,0.0007989488415640023,24.383999986911334,1.4415036480782164e-09,-9.382424802637983e-06,-5.911678435561736e-11,1.5708798882989026
13.386400866999992,13.099999999999966,0.07236887752025538,5114.559997148448,279.9999999945042,0.0007897310732559875,24.383999987211617,1.4171369001724839e-09,-9.27070100098281e-06,-5.811749191503312e-11,1.5708802663241834
13.522102407000006,13.23599999999999,0.07271928185979894,5125.439997142799,279.99999999513193,0.0007776106703657943,24.383999987601147,1.3835305473854943e-09,-9.123186972538357e-06,-5.6739278679019084e-11,1.5708807633879578
13.626800559000003,13.331000000000017,0.07296082783329194,5133.039997138969,279.99999999556,0.0007692621833591722,24.383999987865952,1.3598493420629268e-09,-9.021228998782121e-06,-5.5768100677346273e-11,1.5708811057635785
13.762597436999982,13.466000000000008,0.0732996567388357,5143.839997133655,279.9999999961564,0.0007575540663488481,24.383999988232507,1.3247605261779307e-09,-8.877992835246514e-06,-5.4329090888366374e-11,1.570881585919303
13.898889287999992,13.601999999999975,0.07363578726718444,5154.719997128454,279.99999999674134,0.000745947353911982,24.383999988590343,1.2878240622037178e-09,-8.735743078583952e-06,-5.281430812638702e-11,1.5708820619163755
14.000000556000003,13.701999999999998,0.07387964356283491,5162.719997124743,279.99999999716096,0.0007375322238260744,24.383999988846323,1.2604121227247639e-09,-8.632532837717025e-06,-5.1690130850595836e-11,1.5708824070250622
14.140104979,13.831000000000017,0.0741901447358581,5173.039997120075,279.9999999976903,0.000726825869389422,24.383999989167798,1.2240092082002645e-09,-8.501201476921734e-06,-5.0197229212069064e-11,1.5708828460980035
14.275885996,13.966000000000008,0.07451028694407963,5183.839997115316,279.9999999982253,0.0007157933118757683,24.383999989494168,1.184681969284677e-09,-8.36600299826496e-06,-4.858439955396685e-11,1.5708832985486958
14.377504356000003,14.067999999999984,0.07474894920117733,5191.999997111834,279.9999999986184,0.0007075735315521344,24.383999989734065,1.1557888926635055e-09,-8.265391012916855e-06,-4.7399480101336885e-11,1.5708836356459912
14.512730266999995,14.200999999999965,0.07505602241335546,5202.639997107419,279.99999999911597,0.0006970053315750732,24.383999990038436,1.1176253861343775e-09,-8.136213522622058e-06,-4.583437569980202e-11,1.570884069053149
14.651849228000003,14.329000000000008,0.07534720191590065,5212.8799971032895,279.9999999995799,0.000686992351080561,24.3839999903226,1.080355792157317e-09,-8.014082188049284e-06,-4.43059310841241e-11,1.5708844796904788
14.752377929999994,14.428999999999974,0.07557178862833218,5220.879997100137,279.99999999993116,0.000679272874071151,24.38399999053887,1.0507150937234533e-09,-7.920163426340196e-06,-4.30903512825938e-11,1.5708847962700854
14.887368213999991,14.564000000000021,0.07587099073795245,5231.679997095982,280.0000000003895,0.0006689944783588621,24.38399999082304,1.0095770473883956e-09,-7.795420302370585e-06,-4.140325949992499e-11,1.5708852177922257
14.989642699000001,14.665999999999997,0.07609405176575405,5239.839997092931,280.00000000072396,0.0006613355713485461,24.383999991031956,9.784742168625e-10,-7.702720660729058e-06,-4.0127716926545627e-11,1.570885531887826
15.096214818999982,14.762999999999977,0.07630379078845713,5247.599997090102,280.00000000103165,0.0006541376167246892,24.38399999122612,9.495009221493528e-10,-7.615807922367426e-06,-3.8939507679687204e-11,1.5708858270795394
15.231600842999995,14.897999999999968,0.076591924234211,5258.39999708625,280.0000000014454,0.0006442551216869087,24.38399999148924,9.076733780419025e-10,-7.496831045850333e-06,-3.722413924367427e-11,1.570886232365595
15.36751370799999,15.033999999999992,0.07687779502126774,5269.279997082494,280.0000000018433,0.0006344540065181607,24.38399999174622,8.661744793556958e-10,-7.379255484181954e-06,-3.552224871968508e-11,1.5708866343142216
15.469561862999996,15.135999999999967,0.07708934087237367,5277.4399970797485,280.00000000212896,0.0006272042303400157,24.383999991933777,8.347111728130314e-10,-7.292550723075172e-06,-3.4231922837502126e-11,1.5708869316311627
15.605573725999989,15.264999999999986,0.07735340336362145,5287.759997076379,280.0000000024765,0.0006181583970931875,24.383999992164767,7.956432904124442e-10,-7.184682734038136e-06,-3.262972950213814e-11,1.570887302605301
15.740328788,15.399999999999977,0.07762569164289843,5298.559997072953,280.0000000028227,0.0006088360212782957,24.38399999239931,7.546027547906006e-10,-7.073891934696684e-06,-3.0946636669162985e-11,1.5708876849205875
15.842640168000003,15.500999999999976,0.07782671393253413,5306.63999707046,280.0000000030691,0.0006019545697624237,24.383999992570153,7.241973668807523e-10,-6.992376317692999e-06,-2.969969655399816e-11,1.57088796713235
15.943010557999997,15.601999999999975,0.07802546435383212,5314.719997068017,280.00000000330607,0.0005951524774523445,24.38399999273713,6.932417356986953e-10,-6.911973577794458e-06,-2.8430190676013658e-11,1.5708882460895517
16.043834654999984,15.701999999999998,0.078220030759492,5322.7199970656475,280.00000000352986,0.000588494958932096,24.383999992898723,6.62966142650839e-10,-6.833475647443415e-06,-2.7188573502236624e-11,1.5708885191177102
16.179114835999997,15.831000000000017,0.07846779949202032,5333.039997062687,280.000000003805,0.0005800204520447468,24.38399999310178,6.247046090814008e-10,-6.733788093328434e-06,-2.5619448925632996e-11,1.5708888666614687
16.280893778000006,15.932999999999993,0.07866119705743027,5341.199997060397,280.00000000401104,0.0005734051826528844,24.383999993258236,5.943353327269002e-10,-6.656202593331674e-06,-2.4373989747203037e-11,1.5708891379569696
16.41688753599999,16.067999999999984,0.07891377373565733,5351.99999705745,280.0000000042676,0.0005647669068453532,24.383999993459845,5.543709728226049e-10,-6.555093266236245e-06,-2.273503140797292e-11,1.5708894922169734
16.551559589999982,16.200999999999965,0.07915888086754272,5362.639997054623,280.00000000450314,0.0005563861316697863,24.383999993652516,5.149938155832852e-10,-6.457230846033004e-06,-2.1120154541117412e-11,1.5708898359167476
16.691497620000007,16.331000000000017,0.07939493671253608,5373.03999705193,280.0000000047166,0.0005483161087215161,24.383999993835317,4.768134556312061e-10,-6.363194311499565e-06,-1.9554358928510336e-11,1.5708901668724178
16.792698556000005,16.432000000000016,0.07957597782124375,5381.119997049914,280.00000000487194,0.0005421263563275547,24.38399999397372,4.485290615736634e-10,-6.291219305514485e-06,-1.839440180873353e-11,1.570890420717254
16.928669522999996,16.567999999999984,0.07981653580860404,5391.99999704725,280.0000000050669,0.000533901678114693,24.383999994155204,4.0962247222822255e-10,-6.195713850932368e-06,-1.679882316075421e-11,1.570890758015414
17.03098221100001,16.670000000000016,0.07999455626493181,5400.15999704529,280.0000000052006,0.000527815227786347,24.383999994287713,3.80174557785249e-10,-6.125131429384933e-06,-1.5591149488097106e-11,1.5708910076237808
17.169784098000008,16.79699999999997,0.0802133521645157,5410.319997042944,280.00000000535454,0.0005203365907418009,24.383999994448452,3.4574159064788414e-10,-6.038501965713846e-06,-1.4179036318526299e-11,1.5708913143264196
17.270403799999997,16.896000000000015,0.08038176564435957,5418.239997041162,280.0000000054638,0.0005145788810299453,24.383999994570644,3.197182276406263e-10,-5.971872040009008e-06,-1.3111805207539456e-11,1.5708915504529697
17.372154967,16.997000000000014,0.08055166756687701,5426.319997039372,280.0000000055674,0.0005087698880363221,24.383999994692545,2.9258004977235137e-10,-5.904724833972151e-06,-1.1998854982463695e-11,1.5708917886826725
17.50688119099999,17.132000000000005,0.08077577380818259,5437.119997037054,280.0000000056918,0.0005011073895178456,24.38399999485122,2.5761575040028255e-10,-5.816202279121524e-06,-1.0564951597674888e-11,1.5708921029255625
17.608363663999995,17.23399999999998,0.08094285949238436,5445.279997035323,280.0000000057758,0.000495393831885492,24.38399999496797,2.302004337850308e-10,-5.750232983127602e-06,-9.440635772281004e-12,1.5708923372414136
17.714049136,17.329999999999984,0.08109835986890675,5452.959997033764,280.00000000584583,0.0004900773626808087,24.383999995075413,2.0697465634152422e-10,-5.68886335360062e-06,-8.488135038524597e-12,1.57089255527247
17.850232290000008,17.466000000000008,0.08131582185576498,5463.839997031582,280.000000005933,0.0004826401957407806,24.38399999522376,1.7258261892710048e-10,-5.603067234982436e-06,-7.077700407887342e-12,1.5708928602743992
17.951745439000007,17.567000000000007,0.0814751781536017,5471.919997030018,280.00000000598794,0.00047718998713791735,24.383999995331035,1.4862974941061074e-10,-5.540202198088353e-06,-6.09538125522787e-12,1.5708930837901753
18.086851634999988,17.69999999999999,0.08168227691699304,5482.559997028007,280.0000000060469,0.0004701066470540573,24.38399999546863,1.1739118622087156e-10,-5.45850174944787e-06,-4.81427217486618e-12,1.5708933742814888
18.193886802999998,17.798000000000002,0.08183290219609207,5490.399997026563,280.00000000608185,0.0004649547742546288,24.383999995567414,9.51341121214572e-11,-5.399080920641159e-06,-3.9014984467711374e-12,1.5708935855623642
18.29541064,17.899,0.08198641905513862,5498.479997025099,280.0000000061117,0.00045970279626739174,24.383999995666997,7.179017395886444e-11,-5.338503370561891e-06,-2.9441518688637076e-12,1.5708938009486038
18.396553781999984,18.0,0.08213820185712199,5506.559997023685,280.0000000061337,0.00045451012376464365,24.38399999576435,5.036345944232972e-11,-5.278607447467997e-06,-2.0654316003176746e-12,1.5708940139026955
18.531980285000003,18.135999999999967,0.08233988104260104,5517.439997021807,280.0000000061511,0.0004476092972576102,24.38399999589199,2.041224418795355e-11,-5.198989107171178e-06,-8.371172962412206e-13,1.570894296909036
18.669013748999987,18.262999999999977,0.08252542827334916,5527.599997020125,280.0000000061558,0.0004412600122844579,24.38399999600773,-5.2276470204217715e-12,-5.125705947641262e-06,2.143874630807527e-13,1.570894557296383
18.804780585999993,18.397999999999968,0.08271979682717126,5538.39999701836,280.00000000614955,0.0004346095628002204,24.383999996127173,-3.369161103955533e-11,-5.048920475364377e-06,1.3817088596721925e-12,1.5708948300346364
18.906538323999996,18.5,0.08286470951484817,5546.559997017085,280.0000000061369,0.00042964992457420696,24.383999996215078,-5.267789613582207e-11,-4.99165342896117e-06,2.16034590305676e-12,1.570895033431876
19.00734592699999,18.599999999999966,0.08300517002538157,5554.5599970158355,280.0000000061167,0.00042484233036569274,24.383999996299316,-7.237433890451255e-11,-4.936108981245495e-06,2.9681068754076423e-12,1.570895230593715
19.142581189999987,18.735000000000014,0.08319230617473737,5565.359997014223,280.00000000608054,0.0004184367841089183,24.38399999641009,-9.670505178642055e-11,-4.862077351789711e-06,3.965921575535834e-12,1.5708954932883652
19.247036554999994,18.831000000000017,0.08332365062564832,5573.039997013094,280.00000000604757,0.0004139414520280232,24.383999996486807,-1.13555241757141e-10,-4.810090511292018e-06,4.6569562980288196e-12,1.570895677644178
19.383163139000004,18.966999999999985,0.08350732774209532,5583.919997011546,280.0000000059937,0.00040765310396993326,24.38399999659275,-1.366645199439451e-10,-4.737362889714862e-06,5.604679360657447e-12,1.5708959355324714
19.519274061000004,19.101,0.08368556961956276,5594.63999701007,280.0000000059296,0.00040155073912745035,24.38399999669401,-1.5723616498705384e-10,-4.666740635974582e-06,6.448332818399891e-12,1.5708961857935004
19.62036817699999,19.201999999999998,0.08381815158725624,5602.719997008959,280.00000000587625,0.00039701126742019245,24.383999996768345,-1.7424647059363613e-10,-4.614177510706816e-06,7.145933959681525e-12,1.5708963719595017
19.725483558000008,19.29699999999997,0.08394147679511126,5610.319997007983,280.0000000058202,0.00039278955121398336,24.383999996836714,-1.8710032378872697e-10,-4.5652787094427084e-06,7.673076911637953e-12,1.570896545094191
19.82680727799999,19.399,0.08407244507107477,5618.479997006936,280.0000000057568,0.0003883048019672188,24.38399999690855,-2.013848904051052e-10,-4.513313549485392e-06,8.258894143747163e-12,1.5708967290159965
19.962605881,19.534999999999968,0.08424474624806605,5629.35999700554,280.00000000566376,0.00038240442877032516,24.3839999970018,-2.2156212096379814e-10,-4.444924978720975e-06,9.086372469746426e-12,1.5708969709932474
20.063980318999995,19.635999999999967,0.08437100648655704,5637.439997004579,280.0000000055884,0.0003780805388993453,24.383999997069232,-2.3321351293934447e-10,-4.394784156023048e-06,9.564201889420944e-12,1.5708971483181298
20.201925029999984,19.762999999999977,0.08452773248032347,5647.59999700337,280.0000000054893,0.00037271331905054916,24.383999997151868,-2.485983825249915e-10,-4.332515465919389e-06,1.0195143104764617e-11,1.5708973684304957
20.303465174999985,19.863999999999976,0.08465079323939147,5655.6799970024085,280.00000000540615,0.00036850036532309487,24.38399999721591,-2.614532279965213e-10,-4.283626251258294e-06,1.0722326751571963e-11,1.5708975412058312
20.40504824499999,19.966000000000008,0.08477366266481609,5663.839997001512,280.00000000531736,0.00036429228069620483,24.383999997279155,-2.711907061951422e-10,-4.234776284419922e-06,1.112166561839664e-11,1.5708977137814826
20.507315436,20.067999999999984,0.08489512897553748,5671.9999970006165,280.00000000522544,0.0003601321712178691,24.38399999734095,-2.81107583139118e-10,-4.186479707951888e-06,1.1528361709216116e-11,1.5708978843896495
20.642397958999993,20.202999999999975,0.08505376079535505,5682.799996999433,280.00000000509846,0.0003546992372947431,24.3839999974206,-2.950615627963011e-10,-4.123375950006338e-06,1.2100621409898604e-11,1.570898107196982
20.779366683999996,20.331000000000017,0.08520194516038875,5693.039996998368,280.0000000049732,0.0003496251203285151,24.383999997493877,-3.066637055853605e-10,-4.064408075952222e-06,1.257643111127413e-11,1.5708983152890523
20.91535754199998,20.466000000000008,0.08535594879146477,5703.839996997285,280.0000000048347,0.00034435059158195285,24.383999997568928,-3.1649991297794565e-10,-4.0031223486887284e-06,1.297981891374778e-11,1.5708985316001094
21.015998077000006,20.564999999999998,0.0854674016102452,5711.75999699649,280.00000000473153,0.0003405337035838615,24.38399999762252,-3.245411670712969e-10,-3.958758374780501e-06,1.3309594782191954e-11,1.570898688132592
21.150346420999995,20.699000000000012,0.08561629584713913,5722.479996995439,280.0000000045879,0.0003354341279185284,24.383999997693202,-3.3520544749254505e-10,-3.89947507509451e-06,1.3746942275126253e-11,1.570898897268736
21.290887072999993,20.831000000000017,0.08576078427039582,5733.039996994478,280.00000000444015,0.000330486026494713,24.383999997760778,-3.413647806877341e-10,-3.841933012845345e-06,1.399953962950929e-11,1.5708991001928458
21.39288921299999,20.932999999999993,0.08587097850699017,5741.199996993736,280.000000004326,0.000326711816154787,24.383999997811635,-3.4670530456017577e-10,-3.7980485609067e-06,1.4218557202531597e-11,1.5708992549750964
21.52843679099999,21.067000000000007,0.08601382927650918,5751.91999699276,280.0000000041714,0.0003218193957603064,24.383999997876696,-3.5448383568937395e-10,-3.74114252066313e-06,1.4537558674879118e-11,1.5708994556156992
21.663766514999992,21.201999999999998,0.08615558499420496,5762.719996991828,280.00000000401405,0.0003169643831719386,24.383999997940293,-3.6101425202166027e-10,-3.6846645087569316e-06,1.4805374337341525e-11,1.5708996547221896
21.833862001,21.363999999999976,0.08632286149526548,5775.67999699077,280.00000000382056,0.0003112362968439385,24.38399999801409,-3.65204893083485e-10,-3.6180267538099853e-06,1.497723465164454e-11,1.5708998896338697
22.002109985999994,21.531000000000006,0.08649214426933492,5789.039996989678,280.00000000361814,0.00030543888722844804,24.383999998087404,-3.707236606976597e-10,-3.5505768867973076e-06,1.520356210121396e-11,1.5709001273885326
22.137422213999997,21.665999999999997,0.08662668467946084,5799.8399969888205,280.0000000034545,0.00030083104607595647,24.383999998144695,-3.7554100717643783e-10,-3.496970061841952e-06,1.5401123918236062e-11,1.5709003163583986
22.238318131,21.762999999999977,0.08672209291016718,5807.599996988259,280.0000000033369,0.0002975635981281784,24.38399999818479,-3.7588927926442104e-10,-3.4589537193456087e-06,1.5415406750634748e-11,1.5709004503580706
22.373538957999983,21.89699999999999,0.08685219921688325,5818.319996987483,280.0000000031728,0.00029310848859939666,24.383999998238764,-3.768305562452169e-10,-3.407116237219015e-06,1.5454009012162156e-11,1.5709006330643365
22.474956907000006,21.99799999999999,0.08694897619958207,5826.399996986898,280.0000000030456,0.0002897942420960202,24.38399999827838,-3.775759592726359e-10,-3.368560127214131e-06,1.5484578382947686e-11,1.5709007689832404
22.576779537999982,22.099999999999966,0.08704560259886295,5834.559996986308,280.0000000029172,0.0002864851836856217,24.383999998317485,-3.7882708431164187e-10,-3.330061136863287e-06,1.5535887666519587e-11,1.5709009046893778
22.712976647000005,22.235000000000014,0.08717179430488058,5845.359996985552,280.00000000274724,0.00028216364545309894,24.383999998367884,-3.8047566113158165e-10,-3.279782987520936e-06,1.560349665031154e-11,1.5709010819178184
22.818739131,22.331000000000017,0.0872603634158072,5853.039996985068,280.0000000026264,0.00027913120213276003,24.3839999984028,-3.7804025471827714e-10,-3.2444952875106473e-06,1.550361943520955e-11,1.5709012062798329
22.954302136999985,22.466999999999985,0.08738422131066517,5863.919996984382,280.0000000024582,0.0002748895719508352,24.383999998450985,-3.7542948245038967e-10,-3.195157471889587e-06,1.5396550387342526e-11,1.5709013802312044
23.090547824999987,22.60300000000001,0.08750619708965744,5874.7999969836965,280.00000000229335,0.00027071244600106696,24.383999998497714,-3.7381507235092456e-10,-3.146566258141144e-06,1.53303426446495e-11,1.570901551537225
23.226237169,22.738,0.08762544118797591,5885.599996983015,280.0000000021297,0.0002666290348405743,24.38399999854271,-3.72781422112949e-10,-3.099063693213778e-06,1.5287952158496814e-11,1.5709017189999555
23.363730688999993,22.863,0.08773423569815708,5895.599996982385,280.00000000197815,0.0002629046071313238,24.383999998583157,-3.723270945042533e-10,-3.0557401013782975e-06,1.5269319980685292e-11,1.5709018717405954
23.465165351999985,22.964,0.08782104013256882,5903.679996981951,280.0000000018557,0.00025993205373288234,24.383999998615018,-3.6842512157167864e-10,-3.021168663651943e-06,1.5109298141054414e-11,1.570901993646494
23.566453677999988,23.064999999999998,0.08790686314277855,5911.759996981517,280.00000000173327,0.0002569933462068095,24.383999998646182,-3.638522368706176e-10,-2.986995431223111e-06,1.4921761871852825e-11,1.570902114164357
23.667945688999993,23.165999999999997,0.08799171584435317,5919.8399969810835,280.0000000016136,0.00025408777384284555,24.38399999867664,-3.5936667351048315e-10,-2.953206311050681e-06,1.4737806694051353e-11,1.5709022333233302
23.874886470999996,23.36500000000001,0.0881561003035151,5935.759996980229,280.00000000138164,0.00024845920947917893,24.38399999873465,-3.5206576422338986e-10,-2.8877574851144045e-06,1.4438392789152386e-11,1.570902464153565
24.01128751799999,23.500999999999976,0.08826634827474795,5946.639996979644,280.00000000122316,0.00024468396285708225,24.38399999877283,-3.4726485535516583e-10,-2.843861892591042e-06,1.4241505142170146e-11,1.570902618978314
24.113716705,23.60300000000001,0.08834793352087034,5954.799996979205,280.000000001109,0.0002418902340872554,24.383999998800697,-3.445085535862963e-10,-2.8113779389675087e-06,1.4128467845734902e-11,1.5709027335505257
24.249724705999995,23.738999999999976,0.08845526666859115,5965.679996978697,280.00000000095685,0.00023821483757771177,24.38399999883689,-3.3784009698751344e-10,-2.768643168889959e-06,1.3854991128990288e-11,1.5709028842803714
24.385887999000005,23.867999999999995,0.08855555974359136,5975.999996978239,280.0000000008155,0.0002347812543346218,24.38399999887019,-3.2919216654421107e-10,-2.7287225229503866e-06,1.3500335200214878e-11,1.5709030250933347
24.556017010999994,24.03800000000001,0.08868553485640389,5989.599996977636,280.0000000006332,0.00023033059026850383,24.383999998912657,-3.1809269325633304e-10,-2.676980451627583e-06,1.3045140281989524e-11,1.57090320761729
24.69259148500001,24.173000000000002,0.08878699150282095,6000.399996977156,280.0000000004947,0.00022685648103843014,24.383999998945242,-3.101807129520982e-10,-2.6365935192451925e-06,1.2720666032149246e-11,1.570903350092244
24.827894464999986,24.298000000000002,0.08887955787057088,6010.399996976712,280.00000000036806,0.00022368794062337067,24.383999998974517,-3.0325905896026333e-10,-2.5997567520564606e-06,1.2436805560950615e-11,1.5709034800356685
24.92988577699998,24.399999999999977,0.08895414239908382,6018.55999697635,280.0000000002682,0.0002211340203307725,24.383999998997815,-2.982037836517472e-10,-2.5700694391634206e-06,1.2229486208343939e-11,1.5709035847732147
25.031888750000007,24.50200000000001,0.08902787537192207,6026.719996975988,280.0000000001683,0.00021860925796362662,24.383999999020585,-2.9307832771787263e-10,-2.5407315623717175e-06,1.2019288716768315e-11,1.57090368831498
25.133891654999985,24.603999999999985,0.08910076650958057,6034.879996975651,280.00000000007117,0.00021611331944248904,24.383999999042828,-2.8790789552721625e-10,-2.511722242338321e-06,1.1807246722435102e-11,1.570903790674665
25.270088991999984,24.74000000000001,0.08919666176819964,6045.75999697527,279.99999999994435,0.00021282967253971263,24.383999999071712,-2.7660043681319953e-10,-2.473558274454997e-06,1.1343522208900677e-11,1.5709039253386636
25.371126736000008,24.829999999999984,0.08925930827899292,6052.959996975017,279.9999999998646,0.00021068559823138994,24.383999999090328,-2.691189586822195e-10,-2.4486292441082304e-06,1.1036703061709132e-11,1.5709040132682217
25.472273264999984,24.930000000000007,0.0893281851899025,6060.959996974737,279.99999999977604,0.00020832730041604012,24.383999999110596,-2.60647594002245e-10,-2.421234388020051e-06,1.0689288173866069e-11,1.5709041099831922
25.608242701999984,25.065999999999974,0.08942062558491733,6071.839996974355,279.9999999996619,0.00020516195491403354,24.38399999913744,-2.4995181316015047e-10,-2.3844550190815034e-06,1.0250648871830946e-11,1.5709042397955917
25.709037891999998,25.165999999999997,0.08948769680034743,6079.839996974075,279.9999999995811,0.0002028654685391012,24.383999999156664,-2.4246819968591873e-10,-2.357767688774642e-06,9.943742153714632e-12,1.5709043339756446
25.815661919000007,25.262999999999977,0.08955203509285703,6087.599996973803,279.99999999950427,0.00020066246950289034,24.383999999174893,-2.352885046838083e-10,-2.3321700299200454e-06,9.649299283165743e-12,1.570904424321735
25.95028875,25.39699999999999,0.08963977254630494,6098.319996973427,279.99999999940275,0.0001976585696562754,24.383999999199435,-2.2624804514293875e-10,-2.297263256982789e-06,9.278545533250072e-12,1.5709045475131675
26.051885976999984,25.49799999999999,0.08970503443578234,6106.399996973144,279.9999999993274,0.000195424013913228,24.38399999921746,-2.194984006210838e-10,-2.271300701156189e-06,9.001739250903755e-12,1.5709046391534138
26.153513925999988,25.59899999999999,0.08976955850315262,6114.47999697286,279.9999999992567,0.00019321463208464467,24.383999999235066,-2.1356786481567965e-10,-2.245627998025926e-06,8.758525022790298e-12,1.570904729761266
26.289090318999996,25.73399999999998,0.08985466622671665,6125.279996972482,279.99999999916236,0.0001903004046974097,24.383999999257988,-2.0545088124746673e-10,-2.211764355027147e-06,8.425643482845786e-12,1.570904849275186
26.429553201000004,25.86500000000001,0.08993602102453847,6135.7599969722005,279.9999999990768,0.0001875150058153393,24.383999999279574,-1.9632998591571796e-10,-2.1793970367850662e-06,8.051591020079998e-12,1.5709049635057848
26.565884391999987,26.0,0.09001861814086447,6146.559996971923,279.9999999989918,0.000184686650380289,24.383999999301164,-1.8322921506903713e-10,-2.1465300453135417e-06,7.514321871613099e-12,1.5709050794980532
26.667631529000005,26.099999999999966,0.09007899553798224,6154.559996971717,279.99999999893276,0.0001826193107232852,24.38399999931675,-1.7399125857099557e-10,-2.122504067620729e-06,7.1354686649655654e-12,1.5709051642806848
26.803206499999987,26.23599999999999,0.09016002862345673,6165.439996971437,279.99999999885665,0.00017984457861135042,24.38399999933738,-1.6190014050572877e-10,-2.0902582359510464e-06,6.639605879962685e-12,1.570905278073834
26.907826444999984,26.331000000000017,0.09021589490386708,6173.039996971242,279.99999999880794,0.00017793209090210242,24.383999999351413,-1.536221364471152e-10,-2.0680272151702363e-06,6.300120804669291e-12,1.57090535650591
27.041886651,26.464999999999975,0.09029369365932931,6183.759996970965,279.9999999987424,0.00017526817968269184,24.383999999370708,-1.4305474191430266e-10,-2.037073793008247e-06,5.866746681245399e-12,1.570905465754239
27.177892929999985,26.601,0.09037146482432268,6194.639996970685,279.99999999867987,0.0001726050539647109,24.38399999938971,-1.3223291962846994e-10,-2.006127295897204e-06,5.422938348791196e-12,1.5709055749703542
27.279889287000003,26.69999999999999,0.09042733037291303,6202.559996970482,279.9999999986383,0.00017069211369890764,24.383999999403176,-1.252035163514645e-10,-1.9838954941037714e-06,5.134659010891791e-12,1.5709056534209898
27.420101114000005,26.831000000000017,0.09050030248324303,6213.039996970212,279.99999999858545,0.00016819382693122114,24.38399999942053,-1.1614672874187043e-10,-1.9548571174883656e-06,4.763235630821097e-12,1.5709057558769772
27.520594778000003,26.930999999999983,0.09055528806203247,6221.039996970006,279.99999999854816,0.00016631108620865232,24.38399999943344,-1.0935208185204972e-10,-1.9329815562430417e-06,4.484583772738205e-12,1.5709058330891144
27.655977767999985,27.065999999999974,0.09062854521990361,6231.839996969728,279.999999998501,0.00016380259136015627,24.38399999945041,-1.0116008090414001e-10,-1.9038292429195477e-06,4.148625724849486e-12,1.5709059359637405
27.757626744999982,27.166999999999973,0.09068262868839562,6239.91999696952,279.999999998468,0.00016195059179813578,24.38399999946278,-9.530618303021901e-11,-1.8823060752852107e-06,3.908554450391541e-12,1.5709060119151672
27.862320842000003,27.262999999999977,0.09073346378511639,6247.599996969322,279.999999998438,0.0001602098951651019,24.383999999474277,-8.967481763918625e-11,-1.8620750326723934e-06,3.677609343853077e-12,1.5709060833020052
27.998265306000008,27.399,0.09080455331941688,6258.479996969055,279.9999999983999,0.00015777596349100117,24.383999999490158,-8.247481474454288e-11,-1.833785533219198e-06,3.3823336336645144e-12,1.570906183118758
28.099275624,27.498999999999967,0.0908561331034468,6266.479996968924,279.99999999837195,0.00015600976099144285,24.38399999950153,-7.605948557601019e-11,-1.8132608708643008e-06,3.1192377809798646e-12,1.5709062555516047
28.233883512999995,27.63299999999998,0.09092434658103976,6277.199996968748,279.99999999834074,0.00015367409518379254,24.383999999516373,-6.561768664878999e-11,-1.786114664158414e-06,2.6910143918516344e-12,1.5709063513384254
28.334994750999982,27.73399999999998,0.09097508587538604,6285.279996968616,279.99999999832033,0.00015193667155797322,24.38399999952726,-5.659541010944515e-11,-1.7659207659689449e-06,2.3210063254852544e-12,1.5709064225910356
28.474645175999996,27.863,0.0910390535229361,6295.599996968446,279.99999999829777,0.00014974657991659416,24.383999999540812,-4.538453651379157e-11,-1.7404664417299472e-06,1.8612427970983932e-12,1.5709065124077874
28.575493602999984,27.964,0.09108849607214226,6303.679996968313,279.99999999828367,0.00014805362331019622,24.38399999955115,-3.748696728713018e-11,-1.7207902000358392e-06,1.5373595359097e-12,1.5709065818367831
28.676675493999994,28.065999999999974,0.09113786175532287,6311.83999696818,279.9999999982726,0.00014636316950019645,24.383999999561375,-2.966373299348132e-11,-1.7011450627383564e-06,1.2165247896027344e-12,1.5709066511631378
28.812145472999987,28.200999999999965,0.09120233220478095,6322.639996968002,279.99999999825997,0.00014415553564758372,24.383999999574534,-1.9389855327885704e-11,-1.6754864888006285e-06,7.951879314368869e-13,1.5709067416993043
28.947365509999997,28.331000000000017,0.0912634918034061,6333.039996967832,279.99999999825394,0.0001420615754736186,24.383999999586823,-1.0589513562732131e-11,-1.6511448425863511e-06,4.3428151583308844e-13,1.5709068275736564
29.049330640999983,28.432999999999993,0.09131085955151709,6341.199996967698,279.99999999825076,0.00014043953836429538,24.38399999959623,-4.1307693451332726e-12,-1.6322953843716313e-06,1.694051883524862e-13,1.5709068940942081
29.183859716,28.565999999999974,0.09137180941434055,6351.839996967523,279.99999999825076,0.00013835251646618282,24.38399999960818,3.8812795245199524e-12,-1.6080370355855396e-06,-1.591729420464695e-13,1.5709069796840183
29.285886465999994,28.666999999999973,0.09141748993031111,6359.91999696739,279.99999999825235,0.00013678837292309807,24.383999999617004,9.956877969327465e-12,-1.5898561474157895e-06,-4.083362731365609e-13,1.5709070438303256
29.42535206299999,28.79699999999997,0.09147552413496121,6370.31999696722,279.9999999982584,0.00013480142870639163,24.383999999628077,1.6806512798021376e-11,-1.5667614865555077e-06,-6.892432214456419e-13,1.5709071253159002
29.526422824000008,28.897999999999968,0.09152003215926988,6378.399996967088,279.9999999982631,0.00013327737974483348,24.38399999963646,2.1709381300937978e-11,-1.5490457279306528e-06,-8.903123118994186e-13,1.570907187817909
29.66171217599998,29.033000000000015,0.09157873853897831,6389.19999696691,279.99999999827565,0.00013126712829497262,24.383999999647365,2.7629250947121707e-11,-1.5256823736904288e-06,-1.133089125846166e-12,1.5709072702593245
29.796886409999985,29.168000000000006,0.09163655944367903,6399.999996966732,279.9999999982882,0.00012928719712430696,24.38399999965793,3.3572606401981174e-11,-1.5026702406593561e-06,-1.3768291070982252e-12,1.5709073514572904
29.90229627299999,29.262999999999977,0.09167672071590542,6407.599996966608,279.99999999829834,0.00012791193668669238,24.383999999665185,3.7754570424399205e-11,-1.4866848803564453e-06,-1.548333545696528e-12,1.5709074078574075
30.037033339000004,29.396000000000015,0.09173223380321914,6418.239996966433,279.9999999983169,0.00012601147263812353,24.383999999675076,4.2059767764877035e-11,-1.4645930941795715e-06,-1.7248918423735238e-12,1.570907485796387
30.138157473000007,29.49599999999998,0.09177342922449035,6426.239996966302,279.99999999833096,0.00012460091016450994,24.383999999682338,4.511577328482871e-11,-1.448201128800977e-06,-1.8502201598912172e-12,1.5709075436442583
30.240005210999982,29.598000000000013,0.09181497510173124,6434.399996966168,279.99999999834523,0.00012317824074805882,24.383999999689564,4.824620176520665e-11,-1.431666791902228e-06,-1.9786005980040156e-12,1.5709076019886414
30.375150010999988,29.733000000000004,0.09186923300824476,6445.199996965991,279.99999999836723,0.00012132036862101453,24.383999999698887,5.209761421974329e-11,-1.4100734581266485e-06,-2.1365489523313876e-12,1.5709076781809048
30.481883890999995,29.829999999999984,0.09190770948070437,6452.959996965864,279.99999999838536,0.00012000305644423962,24.38399999970541,5.448813196918802e-11,-1.3947605934598695e-06,-2.234585282353506e-12,1.5709077322045348
30.617466662999988,29.966000000000008,0.0919609580339373,6463.839996965685,279.9999999984107,0.00011817964509957677,24.383999999714327,5.75413780125942e-11,-1.3735694086431706e-06,-2.3598004338342267e-12,1.5709078069835445
30.753145424999985,30.101,0.09201301411730019,6474.639996965609,279.9999999984359,0.0001163970661213464,24.38399999972291,6.167585890197978e-11,-1.352850447711762e-06,-2.529357566239044e-12,1.5709078800879983
30.85476780799999,30.201999999999998,0.09205144549689794,6482.719996965551,279.9999999984563,0.0001150811431282475,24.383999999729163,6.57322218920009e-11,-1.337554072849022e-06,-2.6957110422663058e-12,1.5709079340546572
30.959386195999997,30.29699999999997,0.0920871938540939,6490.319996965497,279.9999999984785,0.0001138573432733793,24.38399999973491,6.983337581353738e-11,-1.3233288651078096e-06,-2.863901416918752e-12,1.5709079842433005
31.095885449000008,30.432000000000016,0.09213734605029791,6501.119996965421,279.9999999985099,0.00011214001625965194,24.383999999742883,7.660379975757934e-11,-1.3033691394931505e-06,-3.141559893078192e-12,1.5709080546717387
31.197666765999998,30.533000000000015,0.09217437184449732,6509.199996965363,279.99999999853645,0.00011087213069448952,24.38399999974868,8.190874943448654e-11,-1.2886319024127737e-06,-3.359118534963962e-12,1.5709081066683588
31.299494444999993,30.63499999999999,0.09221134007243326,6517.359996965306,279.999999998565,0.00010960626380217998,24.383999999754412,8.706125631053338e-11,-1.273919275120561e-06,-3.57042542338945e-12,1.570908158582192
31.40170690299999,30.736999999999966,0.09224788621046835,6525.519996965248,279.9999999985935,0.00010835480301992456,24.38399999976,9.224314133907505e-11,-1.2593723771542513e-06,-3.782937122585266e-12,1.5709082099052234
31.538192691000006,30.863,0.09229245051300147,6535.599996965177,279.9999999986334,0.0001068291937884344,24.383999999766733,9.748423157865757e-11,-1.2416398531533252e-06,-3.997876861100266e-12,1.5709082724712198
31.672881644,30.998999999999967,0.09233985348898038,6546.479996965099,279.9999999986778,0.00010520601046516204,24.383999999773792,1.0227102299874071e-10,-1.2227746262983638e-06,-4.194185576203771e-12,1.5709083390387781
31.774388201999983,31.099999999999966,0.0923745898503264,6554.559996965042,279.9999999987108,0.00010401652483787114,24.3839999997789,1.0580135419582532e-10,-1.208949510620644e-06,-4.338966229818891e-12,1.5709083878201777
31.876272900000004,31.200999999999965,0.09240893348309723,6562.639996964985,279.99999999874683,0.00010284053157300877,24.383999999783892,1.0897046462792241e-10,-1.1952813023225573e-06,-4.46893303771624e-12,1.5709084360482486
32.015292869999996,31.329999999999984,0.09245223108908493,6572.959996964912,279.9999999987949,0.00010135822560376724,24.3839999997901,1.1257108740212219e-10,-1.1780493467834418e-06,-4.616596386067014e-12,1.5709084968383564
32.11692250499999,31.430999999999983,0.09248569700954462,6581.039996964854,279.9999999988326,0.00010021228962136833,24.383999999794828,1.1534005147941284e-10,-1.1647338554321e-06,-4.730152992367111e-12,1.570908543833763
32.218331108,31.531999999999982,0.0925187845705247,6589.119996964797,279.9999999988703,9.907930781340534e-05,24.383999999799457,1.1806269955476353e-10,-1.1515655700174846e-06,-4.841810157987934e-12,1.5709085902979127
32.353959274000005,31.666999999999973,0.09256242729256249,6599.919996964721,279.99999999892066,9.75848816711864e-05,24.383999999805482,1.2158013357696365e-10,-1.1341966450500934e-06,-4.98606189267881e-12,1.570908651585075
